[{"id":167001,"parent_id":166998,"level":4,"area_code":"310113113003","zip_code":"200439","city_code":"021","name":"\u6dde\u5357\u56db\u6751\u4e00\u5c45\u59d4\u4f1a","short_name":"\u6dde\u5357\u56db\u6751\u4e00","merger_name":"\u4e0a\u6d77,\u5b9d\u5c71,\u6dde\u5357,\u6dde\u5357\u56db\u6751\u4e00","pinyin":"SongNanSiCunYi","lng":"121.483830","lat":"31.338870"},{"id":167002,"parent_id":166998,"level":4,"area_code":"310113113004","zip_code":"200439","city_code":"021","name":"\u6dde\u5357\u4e94\u6751\u4e00\u5c45\u59d4\u4f1a","short_name":"\u6dde\u5357\u4e94\u6751\u4e00","merger_name":"\u4e0a\u6d77,\u5b9d\u5c71,\u6dde\u5357,\u6dde\u5357\u4e94\u6751\u4e00","pinyin":"SongNanWuCunYi","lng":"121.483830","lat":"31.338870"},{"id":167003,"parent_id":166998,"level":4,"area_code":"310113113005","zip_code":"200439","city_code":"021","name":"\u6dde\u5357\u4e94\u6751\u4e8c\u5c45\u59d4\u4f1a","short_name":"\u6dde\u5357\u4e94\u6751\u4e8c","merger_name":"\u4e0a\u6d77,\u5b9d\u5c71,\u6dde\u5357,\u6dde\u5357\u4e94\u6751\u4e8c","pinyin":"SongNanWuCunEr","lng":"121.489150","lat":"31.338500"},{"id":167004,"parent_id":166998,"level":4,"area_code":"310113113006","zip_code":"200439","city_code":"021","name":"\u6dde\u5357\u4e03\u6751\u4e00\u5c45\u59d4\u4f1a","short_name":"\u6dde\u5357\u4e03\u6751\u4e00","merger_name":"\u4e0a\u6d77,\u5b9d\u5c71,\u6dde\u5357,\u6dde\u5357\u4e03\u6751\u4e00","pinyin":"SongNanQiCunYi","lng":"121.483830","lat":"31.338870"},{"id":167005,"parent_id":166998,"level":4,"area_code":"310113113007","zip_code":"200439","city_code":"021","name":"\u6dde\u5357\u516b\u6751\u5c45\u59d4\u4f1a","short_name":"\u6dde\u5357\u516b\u6751","merger_name":"\u4e0a\u6d77,\u5b9d\u5c71,\u6dde\u5357,\u6dde\u5357\u516b\u6751","pinyin":"SongNanBaCun","lng":"121.480600","lat":"31.333770"},{"id":167006,"parent_id":166998,"level":4,"area_code":"310113113008","zip_code":"200439","city_code":"021","name":"\u6dde\u5357\u4e5d\u6751\u4e00\u5c45\u59d4\u4f1a","short_name":"\u6dde\u5357\u4e5d\u6751\u4e00","merger_name":"\u4e0a\u6d77,\u5b9d\u5c71,\u6dde\u5357,\u6dde\u5357\u4e5d\u6751\u4e00","pinyin":"SongNanJiuCunYi","lng":"121.476890","lat":"31.338660"},{"id":167007,"parent_id":166998,"level":4,"area_code":"310113113009","zip_code":"200439","city_code":"021","name":"\u6dde\u5357\u4e5d\u6751\u4e8c\u5c45\u59d4\u4f1a","short_name":"\u6dde\u5357\u4e5d\u6751\u4e8c","merger_name":"\u4e0a\u6d77,\u5b9d\u5c71,\u6dde\u5357,\u6dde\u5357\u4e5d\u6751\u4e8c","pinyin":"SongNanJiuCunEr","lng":"121.476930","lat":"31.333930"},{"id":167008,"parent_id":166998,"level":4,"area_code":"310113113010","zip_code":"200439","city_code":"021","name":"\u6dde\u5357\u5341\u6751\u5c45\u59d4\u4f1a","short_name":"\u6dde\u5357\u5341\u6751","merger_name":"\u4e0a\u6d77,\u5b9d\u5c71,\u6dde\u5357,\u6dde\u5357\u5341\u6751","pinyin":"SongNanShiCun","lng":"121.472930","lat":"31.332480"},{"id":167009,"parent_id":166998,"level":4,"area_code":"310113113011","zip_code":"200441","city_code":"021","name":"\u957f\u6c5f\u8def\u4e00\u5c45\u59d4\u4f1a","short_name":"\u957f\u6c5f\u8def\u4e00","merger_name":"\u4e0a\u6d77,\u5b9d\u5c71,\u6dde\u5357,\u957f\u6c5f\u8def\u4e00","pinyin":"ChangJiangLuYi","lng":"121.490280","lat":"31.343730"},{"id":167010,"parent_id":166998,"level":4,"area_code":"310113113013","zip_code":"200439","city_code":"021","name":"\u957f\u6c5f\u8def\u4e94\u5c45\u59d4\u4f1a","short_name":"\u957f\u6c5f\u8def\u4e94","merger_name":"\u4e0a\u6d77,\u5b9d\u5c71,\u6dde\u5357,\u957f\u6c5f\u8def\u4e94","pinyin":"ChangJiangLuWu","lng":"121.489150","lat":"31.338500"},{"id":167011,"parent_id":166998,"level":4,"area_code":"310113113014","zip_code":"200441","city_code":"021","name":"\u534e\u6d5c\u5c45\u59d4\u4f1a","short_name":"\u534e\u6d5c","merger_name":"\u4e0a\u6d77,\u5b9d\u5c71,\u6dde\u5357,\u534e\u6d5c","pinyin":"HuaBang","lng":"121.493320","lat":"31.348770"},{"id":167012,"parent_id":166998,"level":4,"area_code":"310113113015","zip_code":"200439","city_code":"021","name":"\u5f20\u534e\u6d5c\u5c45\u59d4\u4f1a","short_name":"\u5f20\u534e\u6d5c","merger_name":"\u4e0a\u6d77,\u5b9d\u5c71,\u6dde\u5357,\u5f20\u534e\u6d5c","pinyin":"ZhangHuaBang","lng":"121.500090","lat":"31.352470"},{"id":167013,"parent_id":166998,"level":4,"area_code":"310113113016","zip_code":"200441","city_code":"021","name":"\u534e\u6d5c\u4e8c\u6751\u5c45\u59d4\u4f1a","short_name":"\u534e\u6d5c\u4e8c\u6751","merger_name":"\u4e0a\u6d77,\u5b9d\u5c71,\u6dde\u5357,\u534e\u6d5c\u4e8c\u6751","pinyin":"HuaBangErCun","lng":"121.500520","lat":"31.347030"},{"id":167014,"parent_id":166998,"level":4,"area_code":"310113113017","zip_code":"200439","city_code":"021","name":"\u957f\u5b8f\u65b0\u82d1\u5c45\u59d4\u4f1a","short_name":"\u957f\u5b8f\u65b0\u82d1","merger_name":"\u4e0a\u6d77,\u5b9d\u5c71,\u6dde\u5357,\u957f\u5b8f\u65b0\u82d1","pinyin":"ZhangHongXinYuan","lng":"121.491820","lat":"31.342030"},{"id":167015,"parent_id":166998,"level":4,"area_code":"310113113018","zip_code":"200439","city_code":"021","name":"\u5609\u9a8f\u82b1\u82d1\u5c45\u59d4\u4f1a","short_name":"\u5609\u9a8f\u82b1\u82d1","merger_name":"\u4e0a\u6d77,\u5b9d\u5c71,\u6dde\u5357,\u5609\u9a8f\u82b1\u82d1","pinyin":"JiaJunHuaYuan","lng":"121.474800","lat":"31.329160"},{"id":167016,"parent_id":166998,"level":4,"area_code":"310113113019","zip_code":"200439","city_code":"021","name":"\u76db\u8fbe\u5bb6\u56ed\u5c45\u59d4\u4f1a","short_name":"\u76db\u8fbe\u5bb6\u56ed","merger_name":"\u4e0a\u6d77,\u5b9d\u5c71,\u6dde\u5357,\u76db\u8fbe\u5bb6\u56ed","pinyin":"ShengDaJiaYuan","lng":"121.466550","lat":"31.328870"},{"id":167017,"parent_id":166998,"level":4,"area_code":"310113113020","zip_code":"200441","city_code":"021","name":"\u6dde\u5357\u516d\u6751\u5c45\u59d4\u4f1a","short_name":"\u6dde\u5357\u516d\u6751","merger_name":"\u4e0a\u6d77,\u5b9d\u5c71,\u6dde\u5357,\u6dde\u5357\u516d\u6751","pinyin":"SongNanLiuCun","lng":"121.483830","lat":"31.338870"},{"id":167018,"parent_id":166998,"level":4,"area_code":"310113113021","zip_code":"200439","city_code":"021","name":"\u65b0\u6885\u6dde\u5357\u82d1\u5c45\u59d4\u4f1a","short_name":"\u65b0\u6885\u6dde\u5357\u82d1","merger_name":"\u4e0a\u6d77,\u5b9d\u5c71,\u6dde\u5357,\u65b0\u6885\u6dde\u5357\u82d1","pinyin":"XinMeiSongNanYuan","lng":"121.490130","lat":"31.339600"},{"id":167019,"parent_id":166998,"level":4,"area_code":"310113113022","zip_code":"200439","city_code":"021","name":"\u65b0\u57ce\u5c1a\u666f\u5c45\u59d4\u4f1a","short_name":"\u65b0\u57ce\u5c1a\u666f","merger_name":"\u4e0a\u6d77,\u5b9d\u5c71,\u6dde\u5357,\u65b0\u57ce\u5c1a\u666f","pinyin":"XinChengShangJing","lng":"121.404760","lat":"31.351550"},{"id":167020,"parent_id":166998,"level":4,"area_code":"310113113023","zip_code":"200439","city_code":"021","name":"\u5609\u9a8f\u9999\u5c71\u82d1\u5c45\u59d4\u4f1a","short_name":"\u5609\u9a8f\u9999\u5c71\u82d1","merger_name":"\u4e0a\u6d77,\u5b9d\u5c71,\u6dde\u5357,\u5609\u9a8f\u9999\u5c71\u82d1","pinyin":"JiaJunXiangShanYuan","lng":"121.471700","lat":"31.335890"},{"id":167021,"parent_id":166998,"level":4,"area_code":"310113113024","zip_code":"200439","city_code":"021","name":"\u76db\u4e16\u5b9d\u90b8\u5c45\u59d4\u4f1a","short_name":"\u76db\u4e16\u5b9d\u90b8","merger_name":"\u4e0a\u6d77,\u5b9d\u5c71,\u6dde\u5357,\u76db\u4e16\u5b9d\u90b8","pinyin":"ShengShiBaoDi","lng":"121.489750","lat":"31.334650"},{"id":167022,"parent_id":166536,"level":3,"area_code":"310113501000","zip_code":"201901","city_code":"021","name":"\u5b9d\u5c71\u57ce\u5e02\u5de5\u4e1a\u56ed\u533a","short_name":"\u5b9d\u5c71\u57ce\u5e02\u5de5\u4e1a\u56ed\u533a","merger_name":"\u4e0a\u6d77,\u5b9d\u5c71,\u5b9d\u5c71\u57ce\u5e02\u5de5\u4e1a\u56ed\u533a","pinyin":"BaoShanChengShiGongYeYuanQu","lng":"121.337700","lat":"31.304460"},{"id":167023,"parent_id":167022,"level":4,"area_code":"310113501001","zip_code":"200444","city_code":"021","name":"\u4e30\u7fd4\u65b0\u57ce\u5c45\u59d4\u4f1a","short_name":"\u4e30\u7fd4\u65b0\u57ce","merger_name":"\u4e0a\u6d77,\u5b9d\u5c71,\u5b9d\u5c71\u57ce\u5e02\u5de5\u4e1a\u56ed\u533a,\u4e30\u7fd4\u65b0\u57ce","pinyin":"FengXiangXinCheng","lng":"121.348760","lat":"31.315870"},{"id":167024,"parent_id":167022,"level":4,"area_code":"310113501201","zip_code":"200444","city_code":"021","name":"\u4e09\u661f\u6751\u6751\u59d4\u4f1a","short_name":"\u4e09\u661f\u6751","merger_name":"\u4e0a\u6d77,\u5b9d\u5c71,\u5b9d\u5c71\u57ce\u5e02\u5de5\u4e1a\u56ed\u533a,\u4e09\u661f\u6751","pinyin":"SanXingCun","lng":"121.445770","lat":"31.651450"},{"id":167025,"parent_id":167022,"level":4,"area_code":"310113501202","zip_code":"200444","city_code":"021","name":"\u4e94\u661f\u6751\u6751\u59d4\u4f1a","short_name":"\u4e94\u661f\u6751","merger_name":"\u4e0a\u6d77,\u5b9d\u5c71,\u5b9d\u5c71\u57ce\u5e02\u5de5\u4e1a\u56ed\u533a,\u4e94\u661f\u6751","pinyin":"WuXingCun","lng":"121.419890","lat":"31.020160"},{"id":167026,"parent_id":164132,"level":2,"area_code":"310114000000","zip_code":"201800","city_code":"021","name":"\u5609\u5b9a\u533a","short_name":"\u5609\u5b9a","merger_name":"\u4e0a\u6d77,\u5609\u5b9a","pinyin":"JiaDing","lng":"121.265300","lat":"31.375602"},{"id":167027,"parent_id":167026,"level":3,"area_code":"310114001000","zip_code":"201822","city_code":"021","name":"\u65b0\u6210\u8def\u8857\u9053","short_name":"\u65b0\u6210\u8def","merger_name":"\u4e0a\u6d77,\u5609\u5b9a,\u65b0\u6210\u8def","pinyin":"XinChengLu","lng":"121.269643","lat":"31.386833"},{"id":167028,"parent_id":167027,"level":4,"area_code":"310114001001","zip_code":"201822","city_code":"021","name":"\u8fce\u56ed\u793e\u533a\u5c45\u59d4\u4f1a","short_name":"\u8fce\u56ed","merger_name":"\u4e0a\u6d77,\u5609\u5b9a,\u65b0\u6210\u8def,\u8fce\u56ed","pinyin":"YingYuan","lng":"121.266600","lat":"31.383810"},{"id":167029,"parent_id":167027,"level":4,"area_code":"310114001002","zip_code":"201822","city_code":"021","name":"\u4ed3\u573a\u793e\u533a\u5c45\u59d4\u4f1a","short_name":"\u4ed3\u573a","merger_name":"\u4e0a\u6d77,\u5609\u5b9a,\u65b0\u6210\u8def,\u4ed3\u573a","pinyin":"CangChang","lng":"121.276730","lat":"31.350620"},{"id":167030,"parent_id":167027,"level":4,"area_code":"310114001006","zip_code":"201822","city_code":"021","name":"\u65b0\u6210\u793e\u533a\u5c45\u59d4\u4f1a","short_name":"\u65b0\u6210","merger_name":"\u4e0a\u6d77,\u5609\u5b9a,\u65b0\u6210\u8def,\u65b0\u6210","pinyin":"XinCheng","lng":"121.273940","lat":"31.380970"},{"id":167031,"parent_id":167027,"level":4,"area_code":"310114001009","zip_code":"201822","city_code":"021","name":"\u6e90\u73c9\u793e\u533a\u5c45\u59d4\u4f1a","short_name":"\u6e90\u73c9","merger_name":"\u4e0a\u6d77,\u5609\u5b9a,\u65b0\u6210\u8def,\u6e90\u73c9","pinyin":"YuanMin","lng":"121.264370","lat":"31.377430"},{"id":167032,"parent_id":167027,"level":4,"area_code":"310114001010","zip_code":"201822","city_code":"021","name":"\u5609\u4e50\u793e\u533a\u5c45\u59d4\u4f1a","short_name":"\u5609\u4e50","merger_name":"\u4e0a\u6d77,\u5609\u5b9a,\u65b0\u6210\u8def,\u5609\u4e50","pinyin":"JiaLe","lng":"121.261630","lat":"31.384090"},{"id":167033,"parent_id":167027,"level":4,"area_code":"310114001012","zip_code":"201822","city_code":"021","name":"\u5357\u9648\u793e\u533a\u5c45\u59d4\u4f1a","short_name":"\u5357\u9648","merger_name":"\u4e0a\u6d77,\u5609\u5b9a,\u65b0\u6210\u8def,\u5357\u9648","pinyin":"NanChen","lng":"121.273940","lat":"31.380970"},{"id":167034,"parent_id":167027,"level":4,"area_code":"310114001013","zip_code":"201822","city_code":"021","name":"\u65b0\u671b\u793e\u533a\u5c45\u59d4\u4f1a","short_name":"\u65b0\u671b","merger_name":"\u4e0a\u6d77,\u5609\u5b9a,\u65b0\u6210\u8def,\u65b0\u671b","pinyin":"XinWang","lng":"121.271650","lat":"31.387180"},{"id":167035,"parent_id":167027,"level":4,"area_code":"310114001014","zip_code":"201822","city_code":"021","name":"\u7231\u91cc\u820d\u82b1\u56ed\u793e\u533a\u5c45\u59d4\u4f1a","short_name":"\u7231\u91cc\u820d\u82b1\u56ed","merger_name":"\u4e0a\u6d77,\u5609\u5b9a,\u65b0\u6210\u8def,\u7231\u91cc\u820d\u82b1\u56ed","pinyin":"AiLiSheHuaYuan","lng":"121.263590","lat":"31.369820"},{"id":167036,"parent_id":167027,"level":4,"area_code":"310114001015","zip_code":"201822","city_code":"021","name":"\u6ca7\u6d77\u793e\u533a\u5c45\u59d4\u4f1a","short_name":"\u6ca7\u6d77","merger_name":"\u4e0a\u6d77,\u5609\u5b9a,\u65b0\u6210\u8def,\u6ca7\u6d77","pinyin":"CangHai","lng":"121.280900","lat":"31.379990"},{"id":167037,"parent_id":167027,"level":4,"area_code":"310114001016","zip_code":"201822","city_code":"021","name":"\u5357\u5858\u6cb3\u793e\u533a\u5c45\u59d4\u4f1a","short_name":"\u5357\u5858\u6cb3","merger_name":"\u4e0a\u6d77,\u5609\u5b9a,\u65b0\u6210\u8def,\u5357\u5858\u6cb3","pinyin":"NanTangHe","lng":"121.253529","lat":"31.368212"},{"id":167038,"parent_id":167027,"level":4,"area_code":"310114001017","zip_code":"201822","city_code":"021","name":"\u5885\u6c9f\u793e\u533a\u5c45\u59d4\u4f1a","short_name":"\u5885\u6c9f","merger_name":"\u4e0a\u6d77,\u5609\u5b9a,\u65b0\u6210\u8def,\u5885\u6c9f","pinyin":"ShuGou","lng":"121.276490","lat":"31.380230"},{"id":167039,"parent_id":167027,"level":4,"area_code":"310114001201","zip_code":"201822","city_code":"021","name":"\u65b0\u6210\u6751\u6751\u59d4\u4f1a","short_name":"\u65b0\u6210\u6751","merger_name":"\u4e0a\u6d77,\u5609\u5b9a,\u65b0\u6210\u8def,\u65b0\u6210\u6751","pinyin":"XinChengCun","lng":"121.272210","lat":"31.394950"},{"id":167040,"parent_id":167026,"level":3,"area_code":"310114002000","zip_code":"201824","city_code":"021","name":"\u771f\u65b0\u8857\u9053","short_name":"\u771f\u65b0","merger_name":"\u4e0a\u6d77,\u5609\u5b9a,\u771f\u65b0","pinyin":"ZhenXin","lng":"121.360250","lat":"31.244410"},{"id":167041,"parent_id":167040,"level":4,"area_code":"310114002001","zip_code":"201802","city_code":"021","name":"\u65b0\u4e30\u793e\u533a\u5c45\u59d4\u4f1a","short_name":"\u65b0\u4e30","merger_name":"\u4e0a\u6d77,\u5609\u5b9a,\u771f\u65b0,\u65b0\u4e30","pinyin":"XinFeng","lng":"121.363140","lat":"31.240790"},{"id":167042,"parent_id":167040,"level":4,"area_code":"310114002002","zip_code":"201824","city_code":"021","name":"\u4e30\u4e00\u793e\u533a\u5c45\u59d4\u4f1a","short_name":"\u4e30\u4e00","merger_name":"\u4e0a\u6d77,\u5609\u5b9a,\u771f\u65b0,\u4e30\u4e00","pinyin":"FengYi","lng":"121.366390","lat":"31.248440"},{"id":167043,"parent_id":167040,"level":4,"area_code":"310114002003","zip_code":"201824","city_code":"021","name":"\u4e30\u4e8c\u793e\u533a\u5c45\u59d4\u4f1a","short_name":"\u4e30\u4e8c","merger_name":"\u4e0a\u6d77,\u5609\u5b9a,\u771f\u65b0,\u4e30\u4e8c","pinyin":"FengEr","lng":"121.362440","lat":"31.244560"},{"id":167044,"parent_id":167040,"level":4,"area_code":"310114002005","zip_code":"201824","city_code":"021","name":"\u7941\u8fde\u793e\u533a\u5c45\u59d4\u4f1a","short_name":"\u7941\u8fde","merger_name":"\u4e0a\u6d77,\u5609\u5b9a,\u771f\u65b0,\u7941\u8fde","pinyin":"QiLian","lng":"121.370690","lat":"31.248270"},{"id":167045,"parent_id":167040,"level":4,"area_code":"310114002006","zip_code":"201824","city_code":"021","name":"\u91d1\u6c99\u793e\u533a\u5c45\u59d4\u4f1a","short_name":"\u91d1\u6c99","merger_name":"\u4e0a\u6d77,\u5609\u5b9a,\u771f\u65b0,\u91d1\u6c99","pinyin":"JinSha","lng":"121.353740","lat":"31.246050"},{"id":167046,"parent_id":167040,"level":4,"area_code":"310114002007","zip_code":"201824","city_code":"021","name":"\u65b0\u90c1\u793e\u533a\u5c45\u59d4\u4f1a","short_name":"\u65b0\u90c1","merger_name":"\u4e0a\u6d77,\u5609\u5b9a,\u771f\u65b0,\u65b0\u90c1","pinyin":"XinYu","lng":"121.358600","lat":"31.246510"},{"id":167047,"parent_id":167040,"level":4,"area_code":"310114002012","zip_code":"201824","city_code":"021","name":"\u91d1\u6c64\u793e\u533a\u5c45\u59d4\u4f1a","short_name":"\u91d1\u6c64","merger_name":"\u4e0a\u6d77,\u5609\u5b9a,\u771f\u65b0,\u91d1\u6c64","pinyin":"JinTang","lng":"121.240700","lat":"31.462600"},{"id":167048,"parent_id":167040,"level":4,"area_code":"310114002013","zip_code":"201824","city_code":"021","name":"\u94dc\u5ddd\u793e\u533a\u5c45\u59d4\u4f1a","short_name":"\u94dc\u5ddd","merger_name":"\u4e0a\u6d77,\u5609\u5b9a,\u771f\u65b0,\u94dc\u5ddd","pinyin":"TongChuan","lng":"121.378930","lat":"31.254840"},{"id":167049,"parent_id":167040,"level":4,"area_code":"310114002015","zip_code":"201824","city_code":"021","name":"\u53cc\u6cb3\u793e\u533a\u5c45\u59d4\u4f1a","short_name":"\u53cc\u6cb3","merger_name":"\u4e0a\u6d77,\u5609\u5b9a,\u771f\u65b0,\u53cc\u6cb3","pinyin":"ShuangHe","lng":"121.378930","lat":"31.254840"},{"id":167050,"parent_id":167040,"level":4,"area_code":"310114002019","zip_code":"201824","city_code":"021","name":"\u6805\u6865\u793e\u533a\u5c45\u59d4\u4f1a","short_name":"\u6805\u6865","merger_name":"\u4e0a\u6d77,\u5609\u5b9a,\u771f\u65b0,\u6805\u6865","pinyin":"ZhaQiao","lng":"121.351190","lat":"31.255030"},{"id":167051,"parent_id":167040,"level":4,"area_code":"310114002025","zip_code":"201824","city_code":"021","name":"\u5409\u9547\u793e\u533a\u5c45\u59d4\u4f1a","short_name":"\u5409\u9547","merger_name":"\u4e0a\u6d77,\u5609\u5b9a,\u771f\u65b0,\u5409\u9547","pinyin":"JiZhen","lng":"121.371950","lat":"31.245000"},{"id":167052,"parent_id":167040,"level":4,"area_code":"310114002026","zip_code":"201812","city_code":"021","name":"\u866c\u6c5f\u793e\u533a\u5c45\u59d4\u4f1a","short_name":"\u866c\u6c5f","merger_name":"\u4e0a\u6d77,\u5609\u5b9a,\u771f\u65b0,\u866c\u6c5f","pinyin":"QiuJiang","lng":"121.362220","lat":"31.245160"},{"id":167053,"parent_id":167040,"level":4,"area_code":"310114002027","zip_code":"201824","city_code":"021","name":"\u6e05\u5cea\u793e\u533a\u5c45\u59d4\u4f1a","short_name":"\u6e05\u5cea","merger_name":"\u4e0a\u6d77,\u5609\u5b9a,\u771f\u65b0,\u6e05\u5cea","pinyin":"QingYu","lng":"121.362220","lat":"31.245160"},{"id":167054,"parent_id":167040,"level":4,"area_code":"310114002028","zip_code":"201824","city_code":"021","name":"\u4e30\u5e84\u793e\u533a\u5c45\u59d4\u4f1a\uff08\u7b79\uff09","short_name":"\u4e30\u5e84","merger_name":"\u4e0a\u6d77,\u5609\u5b9a,\u771f\u65b0,\u4e30\u5e84","pinyin":"FengZhuang","lng":"121.366390","lat":"31.248440"},{"id":167055,"parent_id":167040,"level":4,"area_code":"310114002029","zip_code":"201824","city_code":"021","name":"\u91d1\u6805\u6865\u793e\u533a\u5c45\u59d4\u4f1a\uff08\u7b79\uff09","short_name":"\u91d1\u6805\u6865","merger_name":"\u4e0a\u6d77,\u5609\u5b9a,\u771f\u65b0,\u91d1\u6805\u6865","pinyin":"JinZhaQiao","lng":"121.353530","lat":"31.254710"},{"id":167056,"parent_id":167040,"level":4,"area_code":"310114002030","zip_code":"201824","city_code":"021","name":"\u9f0e\u79c0\u793e\u533a\u5c45\u59d4\u4f1a","short_name":"\u9f0e\u79c0","merger_name":"\u4e0a\u6d77,\u5609\u5b9a,\u771f\u65b0,\u9f0e\u79c0","pinyin":"DingXiu","lng":"121.365610","lat":"31.255230"},{"id":167057,"parent_id":167040,"level":4,"area_code":"310114002031","zip_code":"201824","city_code":"021","name":"\u6885\u5ddd\u793e\u533a\u5c45\u59d4\u4f1a","short_name":"\u6885\u5ddd","merger_name":"\u4e0a\u6d77,\u5609\u5b9a,\u771f\u65b0,\u6885\u5ddd","pinyin":"MeiChuan","lng":"121.358600","lat":"31.246510"},{"id":167058,"parent_id":167040,"level":4,"area_code":"310114002032","zip_code":"201824","city_code":"021","name":"\u4e07\u9547\u793e\u533a\u5c45\u59d4\u4f1a","short_name":"\u4e07\u9547","merger_name":"\u4e0a\u6d77,\u5609\u5b9a,\u771f\u65b0,\u4e07\u9547","pinyin":"WanZhen","lng":"121.378250","lat":"31.253520"},{"id":167059,"parent_id":167040,"level":4,"area_code":"310114002033","zip_code":"201824","city_code":"021","name":"\u4e30\u897f\u793e\u533a\u5c45\u59d4\u4f1a","short_name":"\u4e30\u897f","merger_name":"\u4e0a\u6d77,\u5609\u5b9a,\u771f\u65b0,\u4e30\u897f","pinyin":"FengXi","lng":"121.358600","lat":"31.246510"},{"id":167060,"parent_id":167040,"level":4,"area_code":"310114002034","zip_code":"201824","city_code":"021","name":"\u91d1\u9f0e\u793e\u533a\u5c45\u59d4\u4f1a","short_name":"\u91d1\u9f0e","merger_name":"\u4e0a\u6d77,\u5609\u5b9a,\u771f\u65b0,\u91d1\u9f0e","pinyin":"JinDing","lng":"121.364310","lat":"31.259610"},{"id":167061,"parent_id":167026,"level":3,"area_code":"310114003000","zip_code":"201800","city_code":"021","name":"\u83ca\u56ed\u65b0\u533a\u7ba1\u59d4\u4f1a","short_name":"\u83ca\u56ed\u65b0\u533a\u7ba1\u59d4\u4f1a","merger_name":"\u4e0a\u6d77,\u5609\u5b9a,\u83ca\u56ed\u65b0\u533a\u7ba1\u59d4\u4f1a","pinyin":"JuYuanXinQuGuanWeiHui","lng":"121.252700","lat":"31.402490"},{"id":167062,"parent_id":167061,"level":4,"area_code":"310114003001","zip_code":"201822","city_code":"021","name":"\u5609\u5bcc\u793e\u533a\u5c45\u59d4\u4f1a","short_name":"\u5609\u5bcc","merger_name":"\u4e0a\u6d77,\u5609\u5b9a,\u83ca\u56ed\u65b0\u533a\u7ba1\u59d4\u4f1a,\u5609\u5bcc","pinyin":"JiaFu","lng":"121.254740","lat":"31.394820"},{"id":167063,"parent_id":167061,"level":4,"area_code":"310114003002","zip_code":"201808","city_code":"021","name":"\u5609\u90a6\u793e\u533a\u5c45\u59d4\u4f1a","short_name":"\u5609\u90a6","merger_name":"\u4e0a\u6d77,\u5609\u5b9a,\u83ca\u56ed\u65b0\u533a\u7ba1\u59d4\u4f1a,\u5609\u90a6","pinyin":"JiaBang","lng":"121.253270","lat":"31.394720"},{"id":167064,"parent_id":167061,"level":4,"area_code":"310114003004","zip_code":"201822","city_code":"021","name":"\u5609\u5b8f\u793e\u533a\u5c45\u59d4\u4f1a","short_name":"\u5609\u5b8f","merger_name":"\u4e0a\u6d77,\u5609\u5b9a,\u83ca\u56ed\u65b0\u533a\u7ba1\u59d4\u4f1a,\u5609\u5b8f","pinyin":"JiaHong","lng":"121.520590","lat":"31.227560"},{"id":167065,"parent_id":167061,"level":4,"area_code":"310114003005","zip_code":"201808","city_code":"021","name":"\u5609\u99a8\u793e\u533a\u5c45\u59d4\u4f1a","short_name":"\u5609\u99a8","merger_name":"\u4e0a\u6d77,\u5609\u5b9a,\u83ca\u56ed\u65b0\u533a\u7ba1\u59d4\u4f1a,\u5609\u99a8","pinyin":"JiaXin","lng":"121.252750","lat":"31.400530"},{"id":167066,"parent_id":167061,"level":4,"area_code":"310114003006","zip_code":"201808","city_code":"021","name":"\u5609\u67ab\u793e\u533a\u5c45\u59d4\u4f1a","short_name":"\u5609\u67ab","merger_name":"\u4e0a\u6d77,\u5609\u5b9a,\u83ca\u56ed\u65b0\u533a\u7ba1\u59d4\u4f1a,\u5609\u67ab","pinyin":"JiaFeng","lng":"121.526790","lat":"31.139250"},{"id":167067,"parent_id":167061,"level":4,"area_code":"310114003007","zip_code":"201805","city_code":"021","name":"\u6cf0\u5bb8\u793e\u533a\u5c45\u59d4\u4f1a","short_name":"\u6cf0\u5bb8","merger_name":"\u4e0a\u6d77,\u5609\u5b9a,\u83ca\u56ed\u65b0\u533a\u7ba1\u59d4\u4f1a,\u6cf0\u5bb8","pinyin":"TaiChen","lng":"121.244930","lat":"31.406430"},{"id":167068,"parent_id":167061,"level":4,"area_code":"310114003008","zip_code":"201801","city_code":"021","name":"\u5b9d\u83ca\u793e\u533a\u5c45\u59d4\u4f1a","short_name":"\u5b9d\u83ca","merger_name":"\u4e0a\u6d77,\u5609\u5b9a,\u83ca\u56ed\u65b0\u533a\u7ba1\u59d4\u4f1a,\u5b9d\u83ca","pinyin":"BaoJu","lng":"121.252750","lat":"31.400530"},{"id":167069,"parent_id":167061,"level":4,"area_code":"310114003009","zip_code":"201808","city_code":"021","name":"\u5609\u4fdd\u793e\u533a\u5c45\u59d4\u4f1a","short_name":"\u5609\u4fdd","merger_name":"\u4e0a\u6d77,\u5609\u5b9a,\u83ca\u56ed\u65b0\u533a\u7ba1\u59d4\u4f1a,\u5609\u4fdd","pinyin":"JiaBao","lng":"121.257890","lat":"31.403520"},{"id":167070,"parent_id":167061,"level":4,"area_code":"310114003010","zip_code":"201808","city_code":"021","name":"\u5609\u60a0\u793e\u533a\u5c45\u59d4\u4f1a","short_name":"\u5609\u60a0","merger_name":"\u4e0a\u6d77,\u5609\u5b9a,\u83ca\u56ed\u65b0\u533a\u7ba1\u59d4\u4f1a,\u5609\u60a0","pinyin":"JiaYou","lng":"121.227140","lat":"31.378190"},{"id":167071,"parent_id":167061,"level":4,"area_code":"310114003011","zip_code":"201800","city_code":"021","name":"\u7af9\u7b71\u793e\u533a\u5c45\u59d4\u4f1a","short_name":"\u7af9\u7b71","merger_name":"\u4e0a\u6d77,\u5609\u5b9a,\u83ca\u56ed\u65b0\u533a\u7ba1\u59d4\u4f1a,\u7af9\u7b71","pinyin":"ZhuXiao","lng":"121.228840","lat":"31.387950"},{"id":167072,"parent_id":167061,"level":4,"area_code":"310114003012","zip_code":"201808","city_code":"021","name":"\u5609\u5317\u793e\u533a\u5c45\u59d4\u4f1a","short_name":"\u5609\u5317","merger_name":"\u4e0a\u6d77,\u5609\u5b9a,\u83ca\u56ed\u65b0\u533a\u7ba1\u59d4\u4f1a,\u5609\u5317","pinyin":"JiaBei","lng":"121.239888","lat":"31.390943"},{"id":167073,"parent_id":167061,"level":4,"area_code":"310114003013","zip_code":"201808","city_code":"021","name":"\u5609\u60a6\u793e\u533a\u5c45\u59d4\u4f1a","short_name":"\u5609\u60a6","merger_name":"\u4e0a\u6d77,\u5609\u5b9a,\u83ca\u56ed\u65b0\u533a\u7ba1\u59d4\u4f1a,\u5609\u60a6","pinyin":"JiaYue","lng":"121.482418","lat":"31.254816"},{"id":167074,"parent_id":167061,"level":4,"area_code":"310114003014","zip_code":"201808","city_code":"021","name":"\u5609\u548c\u793e\u533a\u5c45\u59d4\u4f1a","short_name":"\u5609\u548c","merger_name":"\u4e0a\u6d77,\u5609\u5b9a,\u83ca\u56ed\u65b0\u533a\u7ba1\u59d4\u4f1a,\u5609\u548c","pinyin":"JiaHe","lng":"121.245230","lat":"31.403930"},{"id":167075,"parent_id":167061,"level":4,"area_code":"310114003015","zip_code":"201808","city_code":"021","name":"\u5609\u6c47\u793e\u533a\u5c45\u59d4\u4f1a","short_name":"\u5609\u6c47","merger_name":"\u4e0a\u6d77,\u5609\u5b9a,\u83ca\u56ed\u65b0\u533a\u7ba1\u59d4\u4f1a,\u5609\u6c47","pinyin":"JiaHui","lng":"121.245230","lat":"31.403930"},{"id":167076,"parent_id":167061,"level":4,"area_code":"310114003016","zip_code":"201808","city_code":"021","name":"\u5609\u76db\u793e\u533a\u5c45\u59d4\u4f1a","short_name":"\u5609\u76db","merger_name":"\u4e0a\u6d77,\u5609\u5b9a,\u83ca\u56ed\u65b0\u533a\u7ba1\u59d4\u4f1a,\u5609\u76db","pinyin":"JiaSheng","lng":"121.271630","lat":"31.404920"},{"id":167077,"parent_id":167061,"level":4,"area_code":"310114003201","zip_code":"201808","city_code":"021","name":"\u6c38\u80dc\u6751\u6751\u59d4\u4f1a","short_name":"\u6c38\u80dc\u6751","merger_name":"\u4e0a\u6d77,\u5609\u5b9a,\u83ca\u56ed\u65b0\u533a\u7ba1\u59d4\u4f1a,\u6c38\u80dc\u6751","pinyin":"YongShengCun","lng":"121.844370","lat":"31.355690"},{"id":167078,"parent_id":167061,"level":4,"area_code":"310114003205","zip_code":"201800","city_code":"021","name":"\u9752\u5188\u6751\u6751\u59d4\u4f1a","short_name":"\u9752\u5188\u6751","merger_name":"\u4e0a\u6d77,\u5609\u5b9a,\u83ca\u56ed\u65b0\u533a\u7ba1\u59d4\u4f1a,\u9752\u5188\u6751","pinyin":"QingGangCun","lng":"121.208450","lat":"31.367440"},{"id":167079,"parent_id":167061,"level":4,"area_code":"310114003207","zip_code":"201822","city_code":"021","name":"\u516d\u91cc\u6751\u6751\u59d4\u4f1a","short_name":"\u516d\u91cc\u6751","merger_name":"\u4e0a\u6d77,\u5609\u5b9a,\u83ca\u56ed\u65b0\u533a\u7ba1\u59d4\u4f1a,\u516d\u91cc\u6751","pinyin":"LiuLiCun","lng":"121.197560","lat":"31.462250"},{"id":167080,"parent_id":167026,"level":3,"area_code":"310114004000","zip_code":"201800","city_code":"021","name":"\u5609\u5b9a\u9547\u8857\u9053","short_name":"\u5609\u5b9a\u9547","merger_name":"\u4e0a\u6d77,\u5609\u5b9a,\u5609\u5b9a\u9547","pinyin":"JiaDingZhen","lng":"121.239440","lat":"31.372620"},{"id":167081,"parent_id":167080,"level":4,"area_code":"310114004001","zip_code":"201800","city_code":"021","name":"\u6c47\u9f99\u6f6d\u793e\u533a\u5c45\u59d4\u4f1a","short_name":"\u6c47\u9f99\u6f6d","merger_name":"\u4e0a\u6d77,\u5609\u5b9a,\u5609\u5b9a\u9547,\u6c47\u9f99\u6f6d","pinyin":"HuiLongTan","lng":"121.253390","lat":"31.376690"},{"id":167082,"parent_id":167080,"level":4,"area_code":"310114004003","zip_code":"201800","city_code":"021","name":"\u5dde\u6865\u793e\u533a\u5c45\u59d4\u4f1a","short_name":"\u5dde\u6865","merger_name":"\u4e0a\u6d77,\u5609\u5b9a,\u5609\u5b9a\u9547,\u5dde\u6865","pinyin":"ZhouQiao","lng":"121.249210","lat":"31.381450"},{"id":167083,"parent_id":167080,"level":4,"area_code":"310114004005","zip_code":"201800","city_code":"021","name":"\u53f6\u6c60\u793e\u533a\u5c45\u59d4\u4f1a","short_name":"\u53f6\u6c60","merger_name":"\u4e0a\u6d77,\u5609\u5b9a,\u5609\u5b9a\u9547,\u53f6\u6c60","pinyin":"YeChi","lng":"121.247530","lat":"31.385490"},{"id":167084,"parent_id":167080,"level":4,"area_code":"310114004009","zip_code":"201800","city_code":"021","name":"\u674e\u56ed\u4e00\u6751\u793e\u533a\u5c45\u59d4\u4f1a","short_name":"\u674e\u56ed\u4e00\u6751","merger_name":"\u4e0a\u6d77,\u5609\u5b9a,\u5609\u5b9a\u9547,\u674e\u56ed\u4e00\u6751","pinyin":"LiYuanYiCun","lng":"121.257100","lat":"31.390720"},{"id":167085,"parent_id":167080,"level":4,"area_code":"310114004010","zip_code":"201800","city_code":"021","name":"\u674e\u56ed\u4e8c\u6751\u793e\u533a\u5c45\u59d4\u4f1a","short_name":"\u674e\u56ed\u4e8c\u6751","merger_name":"\u4e0a\u6d77,\u5609\u5b9a,\u5609\u5b9a\u9547,\u674e\u56ed\u4e8c\u6751","pinyin":"LiYuanErCun","lng":"121.250900","lat":"31.388400"},{"id":167086,"parent_id":167080,"level":4,"area_code":"310114004011","zip_code":"201800","city_code":"021","name":"\u5609\u4e2d\u793e\u533a\u5c45\u59d4\u4f1a","short_name":"\u5609\u4e2d","merger_name":"\u4e0a\u6d77,\u5609\u5b9a,\u5609\u5b9a\u9547,\u5609\u4e2d","pinyin":"JiaZhong","lng":"121.249470","lat":"31.391870"},{"id":167087,"parent_id":167080,"level":4,"area_code":"310114004012","zip_code":"201800","city_code":"021","name":"\u5c0f\u56e1\u6865\u793e\u533a\u5c45\u59d4\u4f1a","short_name":"\u5c0f\u56e1\u6865","merger_name":"\u4e0a\u6d77,\u5609\u5b9a,\u5609\u5b9a\u9547,\u5c0f\u56e1\u6865","pinyin":"XiaoNanQiao","lng":"121.246470","lat":"31.380250"},{"id":167088,"parent_id":167080,"level":4,"area_code":"310114004013","zip_code":"201800","city_code":"021","name":"\u4e09\u7687\u6865\u793e\u533a\u5c45\u59d4\u4f1a","short_name":"\u4e09\u7687\u6865","merger_name":"\u4e0a\u6d77,\u5609\u5b9a,\u5609\u5b9a\u9547,\u4e09\u7687\u6865","pinyin":"SanHuangQiao","lng":"121.245990","lat":"31.379850"},{"id":167089,"parent_id":167080,"level":4,"area_code":"310114004014","zip_code":"201800","city_code":"021","name":"\u82b1\u56ed\u5f04\u793e\u533a\u5c45\u59d4\u4f1a","short_name":"\u82b1\u56ed\u5f04","merger_name":"\u4e0a\u6d77,\u5609\u5b9a,\u5609\u5b9a\u9547,\u82b1\u56ed\u5f04","pinyin":"HuaYuanNong","lng":"121.245730","lat":"31.382560"},{"id":167090,"parent_id":167080,"level":4,"area_code":"310114004016","zip_code":"201800","city_code":"021","name":"\u897f\u5927\u793e\u533a\u5c45\u59d4\u4f1a","short_name":"\u897f\u5927","merger_name":"\u4e0a\u6d77,\u5609\u5b9a,\u5609\u5b9a\u9547,\u897f\u5927","pinyin":"XiDa","lng":"121.236560","lat":"31.376400"},{"id":167091,"parent_id":167080,"level":4,"area_code":"310114004019","zip_code":"201800","city_code":"021","name":"\u4faf\u9ec4\u6865\u793e\u533a\u5c45\u59d4\u4f1a","short_name":"\u4faf\u9ec4\u6865","merger_name":"\u4e0a\u6d77,\u5609\u5b9a,\u5609\u5b9a\u9547,\u4faf\u9ec4\u6865","pinyin":"HouHuangQiao","lng":"121.236410","lat":"31.375320"},{"id":167092,"parent_id":167080,"level":4,"area_code":"310114004021","zip_code":"201800","city_code":"021","name":"\u6885\u56ed\u793e\u533a\u5c45\u59d4\u4f1a","short_name":"\u6885\u56ed","merger_name":"\u4e0a\u6d77,\u5609\u5b9a,\u5609\u5b9a\u9547,\u6885\u56ed","pinyin":"MeiYuan","lng":"121.243360","lat":"31.386670"},{"id":167093,"parent_id":167080,"level":4,"area_code":"310114004022","zip_code":"201800","city_code":"021","name":"\u4e3d\u666f\u793e\u533a\u5c45\u59d4\u4f1a","short_name":"\u4e3d\u666f","merger_name":"\u4e0a\u6d77,\u5609\u5b9a,\u5609\u5b9a\u9547,\u4e3d\u666f","pinyin":"LiJing","lng":"121.245540","lat":"31.375800"},{"id":167094,"parent_id":167080,"level":4,"area_code":"310114004023","zip_code":"201814","city_code":"021","name":"\u6843\u56ed\u793e\u533a\u5c45\u59d4\u4f1a","short_name":"\u6843\u56ed","merger_name":"\u4e0a\u6d77,\u5609\u5b9a,\u5609\u5b9a\u9547,\u6843\u56ed","pinyin":"TaoYuan","lng":"121.244950","lat":"31.389620"},{"id":167095,"parent_id":167080,"level":4,"area_code":"310114004024","zip_code":"201800","city_code":"021","name":"\u79cb\u971e\u793e\u533a\u5c45\u59d4\u4f1a","short_name":"\u79cb\u971e","merger_name":"\u4e0a\u6d77,\u5609\u5b9a,\u5609\u5b9a\u9547,\u79cb\u971e","pinyin":"QiuXia","lng":"121.254250","lat":"31.386520"},{"id":167096,"parent_id":167080,"level":4,"area_code":"310114004027","zip_code":"201822","city_code":"021","name":"\u5854\u57ce\u8def\u793e\u533a\u5c45\u59d4\u4f1a","short_name":"\u5854\u57ce\u8def","merger_name":"\u4e0a\u6d77,\u5609\u5b9a,\u5609\u5b9a\u9547,\u5854\u57ce\u8def","pinyin":"TaChengLu","lng":"121.249470","lat":"31.391870"},{"id":167097,"parent_id":167080,"level":4,"area_code":"310114004028","zip_code":"201802","city_code":"021","name":"\u94f6\u674f\u793e\u533a\u5c45\u59d4\u4f1a","short_name":"\u94f6\u674f","merger_name":"\u4e0a\u6d77,\u5609\u5b9a,\u5609\u5b9a\u9547,\u94f6\u674f","pinyin":"YinXing","lng":"121.239440","lat":"31.373210"},{"id":167098,"parent_id":167026,"level":3,"area_code":"310114102000","zip_code":"201802","city_code":"021","name":"\u5357\u7fd4\u9547","short_name":"\u5357\u7fd4","merger_name":"\u4e0a\u6d77,\u5609\u5b9a,\u5357\u7fd4","pinyin":"NanXiang","lng":"121.301400","lat":"31.297350"},{"id":167099,"parent_id":167098,"level":4,"area_code":"310114102001","zip_code":"201802","city_code":"021","name":"\u53e4\u7317\u56ed\u793e\u533a\u5c45\u59d4\u4f1a","short_name":"\u53e4\u7317\u56ed","merger_name":"\u4e0a\u6d77,\u5609\u5b9a,\u5357\u7fd4,\u53e4\u7317\u56ed","pinyin":"GuYiYuan","lng":"121.319020","lat":"31.295280"},{"id":167100,"parent_id":167098,"level":4,"area_code":"310114102002","zip_code":"201802","city_code":"021","name":"\u5fb7\u534e\u793e\u533a\u5c45\u59d4\u4f1a","short_name":"\u5fb7\u534e","merger_name":"\u4e0a\u6d77,\u5609\u5b9a,\u5357\u7fd4,\u5fb7\u534e","pinyin":"DeHua","lng":"121.311260","lat":"31.297270"},{"id":167101,"parent_id":167098,"level":4,"area_code":"310114102003","zip_code":"201802","city_code":"021","name":"\u5fb7\u56ed\u793e\u533a\u5c45\u59d4\u4f1a","short_name":"\u5fb7\u56ed","merger_name":"\u4e0a\u6d77,\u5609\u5b9a,\u5357\u7fd4,\u5fb7\u56ed","pinyin":"DeYuan","lng":"121.309808","lat":"31.293007"},{"id":167102,"parent_id":167098,"level":4,"area_code":"310114102004","zip_code":"201802","city_code":"021","name":"\u4e91\u7fd4\u793e\u533a\u5c45\u59d4\u4f1a","short_name":"\u4e91\u7fd4","merger_name":"\u4e0a\u6d77,\u5609\u5b9a,\u5357\u7fd4,\u4e91\u7fd4","pinyin":"YunXiang","lng":"121.307520","lat":"31.292780"},{"id":167103,"parent_id":167098,"level":4,"area_code":"310114102005","zip_code":"201802","city_code":"021","name":"\u5357\u534e\u793e\u533a\u5c45\u59d4\u4f1a","short_name":"\u5357\u534e","merger_name":"\u4e0a\u6d77,\u5609\u5b9a,\u5357\u7fd4,\u5357\u534e","pinyin":"NanHua","lng":"121.308240","lat":"31.288150"},{"id":167104,"parent_id":167098,"level":4,"area_code":"310114102007","zip_code":"201802","city_code":"021","name":"\u767d\u9e64\u793e\u533a\u5c45\u59d4\u4f1a","short_name":"\u767d\u9e64","merger_name":"\u4e0a\u6d77,\u5609\u5b9a,\u5357\u7fd4,\u767d\u9e64","pinyin":"BaiHe","lng":"121.312250","lat":"31.292490"},{"id":167105,"parent_id":167098,"level":4,"area_code":"310114102009","zip_code":"201802","city_code":"021","name":"\u7fd4\u534e\u793e\u533a\u5c45\u59d4\u4f1a","short_name":"\u7fd4\u534e","merger_name":"\u4e0a\u6d77,\u5609\u5b9a,\u5357\u7fd4,\u7fd4\u534e","pinyin":"XiangHua","lng":"121.306870","lat":"31.284290"},{"id":167106,"parent_id":167098,"level":4,"area_code":"310114102012","zip_code":"201802","city_code":"021","name":"\u8679\u7fd4\u793e\u533a\u5c45\u59d4\u4f1a","short_name":"\u8679\u7fd4","merger_name":"\u4e0a\u6d77,\u5609\u5b9a,\u5357\u7fd4,\u8679\u7fd4","pinyin":"HongXiang","lng":"121.309030","lat":"31.296920"},{"id":167107,"parent_id":167098,"level":4,"area_code":"310114102013","zip_code":"201802","city_code":"021","name":"\u4e30\u7fd4\u793e\u533a\u5c45\u59d4\u4f1a","short_name":"\u4e30\u7fd4","merger_name":"\u4e0a\u6d77,\u5609\u5b9a,\u5357\u7fd4,\u4e30\u7fd4","pinyin":"FengXiang","lng":"121.316880","lat":"31.302850"},{"id":167108,"parent_id":167098,"level":4,"area_code":"310114102014","zip_code":"201802","city_code":"021","name":"\u94f6\u7fd4\u793e\u533a\u5c45\u59d4\u4f1a","short_name":"\u94f6\u7fd4","merger_name":"\u4e0a\u6d77,\u5609\u5b9a,\u5357\u7fd4,\u94f6\u7fd4","pinyin":"YinXiang","lng":"121.321070","lat":"31.287300"},{"id":167109,"parent_id":167098,"level":4,"area_code":"310114102015","zip_code":"201802","city_code":"021","name":"\u6c38\u7fd4\u793e\u533a\u5c45\u59d4\u4f1a","short_name":"\u6c38\u7fd4","merger_name":"\u4e0a\u6d77,\u5609\u5b9a,\u5357\u7fd4,\u6c38\u7fd4","pinyin":"YongXiang","lng":"121.308240","lat":"31.288150"},{"id":167110,"parent_id":167098,"level":4,"area_code":"310114102016","zip_code":"201802","city_code":"021","name":"\u5b9d\u7fd4\u793e\u533a\u5c45\u59d4\u4f1a","short_name":"\u5b9d\u7fd4","merger_name":"\u4e0a\u6d77,\u5609\u5b9a,\u5357\u7fd4,\u5b9d\u7fd4","pinyin":"BaoXiang","lng":"121.319630","lat":"31.309790"},{"id":167111,"parent_id":167098,"level":4,"area_code":"310114102017","zip_code":"201822","city_code":"021","name":"\u65b0\u7fd4\u793e\u533a\u5c45\u59d4\u4f1a","short_name":"\u65b0\u7fd4","merger_name":"\u4e0a\u6d77,\u5609\u5b9a,\u5357\u7fd4,\u65b0\u7fd4","pinyin":"XinXiang","lng":"121.316880","lat":"31.302850"},{"id":167112,"parent_id":167098,"level":4,"area_code":"310114102018","zip_code":"201802","city_code":"021","name":"\u745e\u6797\u793e\u533a\u5c45\u59d4\u4f1a","short_name":"\u745e\u6797","merger_name":"\u4e0a\u6d77,\u5609\u5b9a,\u5357\u7fd4,\u745e\u6797","pinyin":"RuiLin","lng":"121.317410","lat":"31.310290"},{"id":167113,"parent_id":167098,"level":4,"area_code":"310114102019","zip_code":"201802","city_code":"021","name":"\u96bd\u7fd4\u793e\u533a\u5c45\u59d4\u4f1a","short_name":"\u96bd\u7fd4","merger_name":"\u4e0a\u6d77,\u5609\u5b9a,\u5357\u7fd4,\u96bd\u7fd4","pinyin":"JuanXiang","lng":"121.318770","lat":"31.311570"},{"id":167114,"parent_id":167098,"level":4,"area_code":"310114102020","zip_code":"201802","city_code":"021","name":"\u7fd4\u5317\u793e\u533a\u5c45\u59d4\u4f1a","short_name":"\u7fd4\u5317","merger_name":"\u4e0a\u6d77,\u5609\u5b9a,\u5357\u7fd4,\u7fd4\u5317","pinyin":"XiangBei","lng":"121.320434","lat":"31.322709"},{"id":167115,"parent_id":167098,"level":4,"area_code":"310114102021","zip_code":"201802","city_code":"021","name":"\u82b3\u6797\u793e\u533a\u5c45\u59d4\u4f1a","short_name":"\u82b3\u6797","merger_name":"\u4e0a\u6d77,\u5609\u5b9a,\u5357\u7fd4,\u82b3\u6797","pinyin":"FangLin","lng":"121.364310","lat":"31.259610"},{"id":167116,"parent_id":167098,"level":4,"area_code":"310114102022","zip_code":"201802","city_code":"021","name":"\u4e1c\u56ed\u793e\u533a\u5c45\u59d4\u4f1a","short_name":"\u4e1c\u56ed","merger_name":"\u4e0a\u6d77,\u5609\u5b9a,\u5357\u7fd4,\u4e1c\u56ed","pinyin":"DongYuan","lng":"121.297360","lat":"31.300210"},{"id":167117,"parent_id":167098,"level":4,"area_code":"310114102023","zip_code":"201802","city_code":"021","name":"\u5929\u6069\u793e\u533a\u5c45\u59d4\u4f1a","short_name":"\u5929\u6069","merger_name":"\u4e0a\u6d77,\u5609\u5b9a,\u5357\u7fd4,\u5929\u6069","pinyin":"TianEn","lng":"121.297700","lat":"31.313240"},{"id":167118,"parent_id":167098,"level":4,"area_code":"310114102024","zip_code":"201802","city_code":"021","name":"\u7559\u4e91\u793e\u533a\u5c45\u59d4\u4f1a","short_name":"\u7559\u4e91","merger_name":"\u4e0a\u6d77,\u5609\u5b9a,\u5357\u7fd4,\u7559\u4e91","pinyin":"LiuYun","lng":"121.315070","lat":"31.311150"},{"id":167119,"parent_id":167098,"level":4,"area_code":"310114102025","zip_code":"201802","city_code":"021","name":"\u6e05\u7317\u793e\u533a\u5c45\u59d4\u4f1a","short_name":"\u6e05\u7317","merger_name":"\u4e0a\u6d77,\u5609\u5b9a,\u5357\u7fd4,\u6e05\u7317","pinyin":"QingYi","lng":"121.316490","lat":"31.296790"},{"id":167120,"parent_id":167098,"level":4,"area_code":"310114102026","zip_code":"201802","city_code":"021","name":"\u534e\u4e30\u793e\u533a\u5c45\u59d4\u4f1a","short_name":"\u534e\u4e30","merger_name":"\u4e0a\u6d77,\u5609\u5b9a,\u5357\u7fd4,\u534e\u4e30","pinyin":"HuaFeng","lng":"121.312250","lat":"31.292490"},{"id":167121,"parent_id":167098,"level":4,"area_code":"310114102027","zip_code":"201802","city_code":"021","name":"\u534e\u7317\u793e\u533a\u5c45\u59d4\u4f1a","short_name":"\u534e\u7317","merger_name":"\u4e0a\u6d77,\u5609\u5b9a,\u5357\u7fd4,\u534e\u7317","pinyin":"HuaYi","lng":"121.364310","lat":"31.259610"},{"id":167122,"parent_id":167098,"level":4,"area_code":"310114102028","zip_code":"201802","city_code":"021","name":"\u91d1\u901a\u793e\u533a\u5c45\u59d4\u4f1a","short_name":"\u91d1\u901a","merger_name":"\u4e0a\u6d77,\u5609\u5b9a,\u5357\u7fd4,\u91d1\u901a","pinyin":"JinTong","lng":"121.318730","lat":"31.285810"},{"id":167123,"parent_id":167098,"level":4,"area_code":"310114102203","zip_code":"201802","city_code":"021","name":"\u65b0\u88d5\u6751\u6751\u59d4\u4f1a","short_name":"\u65b0\u88d5\u6751","merger_name":"\u4e0a\u6d77,\u5609\u5b9a,\u5357\u7fd4,\u65b0\u88d5\u6751","pinyin":"XinYuCun","lng":"121.272420","lat":"31.297180"},{"id":167124,"parent_id":167098,"level":4,"area_code":"310114102206","zip_code":"201802","city_code":"021","name":"\u6c38\u4e30\u6751\u6751\u59d4\u4f1a","short_name":"\u6c38\u4e30\u6751","merger_name":"\u4e0a\u6d77,\u5609\u5b9a,\u5357\u7fd4,\u6c38\u4e30\u6751","pinyin":"YongFengCun","lng":"121.272420","lat":"31.297180"},{"id":167125,"parent_id":167098,"level":4,"area_code":"310114102208","zip_code":"201802","city_code":"021","name":"\u6c38\u4e50\u6751\u6751\u59d4\u4f1a","short_name":"\u6c38\u4e50\u6751","merger_name":"\u4e0a\u6d77,\u5609\u5b9a,\u5357\u7fd4,\u6c38\u4e50\u6751","pinyin":"YongLeCun","lng":"121.350617","lat":"31.327406"},{"id":167126,"parent_id":167098,"level":4,"area_code":"310114102209","zip_code":"201802","city_code":"021","name":"\u7ea2\u7fd4\u6751\u6751\u59d4\u4f1a","short_name":"\u7ea2\u7fd4\u6751","merger_name":"\u4e0a\u6d77,\u5609\u5b9a,\u5357\u7fd4,\u7ea2\u7fd4\u6751","pinyin":"HongXiangCun","lng":"121.314460","lat":"31.284520"},{"id":167127,"parent_id":167098,"level":4,"area_code":"310114102210","zip_code":"201802","city_code":"021","name":"\u66d9\u5149\u6751\u6751\u59d4\u4f1a","short_name":"\u66d9\u5149\u6751","merger_name":"\u4e0a\u6d77,\u5609\u5b9a,\u5357\u7fd4,\u66d9\u5149\u6751","pinyin":"ShuGuangCun","lng":"121.326750","lat":"31.300590"},{"id":167128,"parent_id":167098,"level":4,"area_code":"310114102212","zip_code":"201802","city_code":"021","name":"\u9759\u534e\u6751\u6751\u59d4\u4f1a","short_name":"\u9759\u534e\u6751","merger_name":"\u4e0a\u6d77,\u5609\u5b9a,\u5357\u7fd4,\u9759\u534e\u6751","pinyin":"JingHuaCun","lng":"121.302980","lat":"31.307180"},{"id":167129,"parent_id":167098,"level":4,"area_code":"310114102214","zip_code":"201802","city_code":"021","name":"\u65b0\u4e30\u6751\u6751\u59d4\u4f1a","short_name":"\u65b0\u4e30\u6751","merger_name":"\u4e0a\u6d77,\u5609\u5b9a,\u5357\u7fd4,\u65b0\u4e30\u6751","pinyin":"XinFengCun","lng":"121.302980","lat":"31.307180"},{"id":167130,"parent_id":167098,"level":4,"area_code":"310114102218","zip_code":"201802","city_code":"021","name":"\u6d4f\u7fd4\u6751\u6751\u59d4\u4f1a","short_name":"\u6d4f\u7fd4\u6751","merger_name":"\u4e0a\u6d77,\u5609\u5b9a,\u5357\u7fd4,\u6d4f\u7fd4\u6751","pinyin":"LiuXiangCun","lng":"121.320730","lat":"31.322850"},{"id":167131,"parent_id":167026,"level":3,"area_code":"310114103000","zip_code":"201805","city_code":"021","name":"\u5b89\u4ead\u9547","short_name":"\u5b89\u4ead","merger_name":"\u4e0a\u6d77,\u5609\u5b9a,\u5b89\u4ead","pinyin":"AnTing","lng":"121.162380","lat":"31.296050"},{"id":167132,"parent_id":167131,"level":4,"area_code":"310114103001","zip_code":"201805","city_code":"021","name":"\u8fce\u6625\u793e\u533a\u5c45\u59d4\u4f1a","short_name":"\u8fce\u6625","merger_name":"\u4e0a\u6d77,\u5609\u5b9a,\u5b89\u4ead,\u8fce\u6625","pinyin":"YingChun","lng":"121.153920","lat":"31.295440"},{"id":167133,"parent_id":167131,"level":4,"area_code":"310114103003","zip_code":"201805","city_code":"021","name":"\u7ea2\u6885\u793e\u533a\u5c45\u59d4\u4f1a","short_name":"\u7ea2\u6885","merger_name":"\u4e0a\u6d77,\u5609\u5b9a,\u5b89\u4ead,\u7ea2\u6885","pinyin":"HongMei","lng":"121.157890","lat":"31.294830"},{"id":167134,"parent_id":167131,"level":4,"area_code":"310114103005","zip_code":"201805","city_code":"021","name":"\u7d2b\u8346\u793e\u533a\u5c45\u59d4\u4f1a","short_name":"\u7d2b\u8346","merger_name":"\u4e0a\u6d77,\u5609\u5b9a,\u5b89\u4ead,\u7d2b\u8346","pinyin":"ZiJing","lng":"121.153500","lat":"31.299020"},{"id":167135,"parent_id":167131,"level":4,"area_code":"310114103007","zip_code":"201805","city_code":"021","name":"\u7389\u5170\u7b2c\u4e00\u793e\u533a\u5c45\u59d4\u4f1a","short_name":"\u7389\u5170\u7b2c\u4e00","merger_name":"\u4e0a\u6d77,\u5609\u5b9a,\u5b89\u4ead,\u7389\u5170\u7b2c\u4e00","pinyin":"YuLanDiYi","lng":"121.165820","lat":"31.297530"},{"id":167136,"parent_id":167131,"level":4,"area_code":"310114103008","zip_code":"201805","city_code":"021","name":"\u7389\u5170\u7b2c\u4e8c\u793e\u533a\u5c45\u59d4\u4f1a","short_name":"\u7389\u5170\u7b2c\u4e8c","merger_name":"\u4e0a\u6d77,\u5609\u5b9a,\u5b89\u4ead,\u7389\u5170\u7b2c\u4e8c","pinyin":"YuLanDiEr","lng":"121.158430","lat":"31.297120"},{"id":167137,"parent_id":167131,"level":4,"area_code":"310114103009","zip_code":"201805","city_code":"021","name":"\u7389\u5170\u7b2c\u4e09\u793e\u533a\u5c45\u59d4\u4f1a","short_name":"\u7389\u5170\u7b2c\u4e09","merger_name":"\u4e0a\u6d77,\u5609\u5b9a,\u5b89\u4ead,\u7389\u5170\u7b2c\u4e09","pinyin":"YuLanDiSan","lng":"121.160100","lat":"31.299450"},{"id":167138,"parent_id":167131,"level":4,"area_code":"310114103014","zip_code":"201814","city_code":"021","name":"\u65b9\u6cf0\u793e\u533a\u5c45\u59d4\u4f1a","short_name":"\u65b9\u6cf0","merger_name":"\u4e0a\u6d77,\u5609\u5b9a,\u5b89\u4ead,\u65b9\u6cf0","pinyin":"FangTai","lng":"121.208590","lat":"31.315090"},{"id":167139,"parent_id":167131,"level":4,"area_code":"310114103015","zip_code":"201805","city_code":"021","name":"\u535a\u6cf0\u793e\u533a\u5c45\u59d4\u4f1a","short_name":"\u535a\u6cf0","merger_name":"\u4e0a\u6d77,\u5609\u5b9a,\u5b89\u4ead,\u535a\u6cf0","pinyin":"BoTai","lng":"121.153500","lat":"31.299020"},{"id":167140,"parent_id":167131,"level":4,"area_code":"310114103016","zip_code":"201805","city_code":"021","name":"\u65b0\u6e90\u793e\u533a\u5c45\u59d4\u4f1a","short_name":"\u65b0\u6e90","merger_name":"\u4e0a\u6d77,\u5609\u5b9a,\u5b89\u4ead,\u65b0\u6e90","pinyin":"XinYuan","lng":"121.150030","lat":"31.305710"},{"id":167141,"parent_id":167131,"level":4,"area_code":"310114103017","zip_code":"201805","city_code":"021","name":"\u6c81\u5bcc\u793e\u533a\u5c45\u59d4\u4f1a","short_name":"\u6c81\u5bcc","merger_name":"\u4e0a\u6d77,\u5609\u5b9a,\u5b89\u4ead,\u6c81\u5bcc","pinyin":"QinFu","lng":"121.152540","lat":"31.309060"},{"id":167142,"parent_id":167131,"level":4,"area_code":"310114103018","zip_code":"201804","city_code":"021","name":"\u9ec4\u6e21\u793e\u533a\u5c45\u59d4\u4f1a","short_name":"\u9ec4\u6e21","merger_name":"\u4e0a\u6d77,\u5609\u5b9a,\u5b89\u4ead,\u9ec4\u6e21","pinyin":"HuangDu","lng":"121.212020","lat":"31.277780"},{"id":167143,"parent_id":167131,"level":4,"area_code":"310114103019","zip_code":"201804","city_code":"021","name":"\u7eff\u82d1\u793e\u533a\u5c45\u59d4\u4f1a","short_name":"\u7eff\u82d1","merger_name":"\u4e0a\u6d77,\u5609\u5b9a,\u5b89\u4ead,\u7eff\u82d1","pinyin":"LvYuan","lng":"121.216110","lat":"31.267060"},{"id":167144,"parent_id":167131,"level":4,"area_code":"310114103020","zip_code":"201805","city_code":"021","name":"\u6625\u76db\u82d1\u793e\u533a\u5c45\u59d4\u4f1a","short_name":"\u6625\u76db\u82d1","merger_name":"\u4e0a\u6d77,\u5609\u5b9a,\u5b89\u4ead,\u6625\u76db\u82d1","pinyin":"ChunShengYuan","lng":"121.209140","lat":"31.270540"},{"id":167145,"parent_id":167131,"level":4,"area_code":"310114103021","zip_code":"201805","city_code":"021","name":"\u83b1\u82f1\u793e\u533a\u5c45\u59d4\u4f1a","short_name":"\u83b1\u82f1","merger_name":"\u4e0a\u6d77,\u5609\u5b9a,\u5b89\u4ead,\u83b1\u82f1","pinyin":"LaiYing","lng":"121.212020","lat":"31.277780"},{"id":167146,"parent_id":167131,"level":4,"area_code":"310114103022","zip_code":"201805","city_code":"021","name":"\u65b0\u5b89\u793e\u533a\u5c45\u59d4\u4f1a","short_name":"\u65b0\u5b89","merger_name":"\u4e0a\u6d77,\u5609\u5b9a,\u5b89\u4ead,\u65b0\u5b89","pinyin":"XinAn","lng":"121.172210","lat":"31.273070"},{"id":167147,"parent_id":167131,"level":4,"area_code":"310114103023","zip_code":"201805","city_code":"021","name":"\u535a\u56ed\u793e\u533a\u5c45\u59d4\u4f1a","short_name":"\u535a\u56ed","merger_name":"\u4e0a\u6d77,\u5609\u5b9a,\u5b89\u4ead,\u535a\u56ed","pinyin":"BoYuan","lng":"121.226650","lat":"31.268110"},{"id":167148,"parent_id":167131,"level":4,"area_code":"310114103024","zip_code":"201805","city_code":"021","name":"\u58a8\u7389\u793e\u533a\u5c45\u59d4\u4f1a","short_name":"\u58a8\u7389","merger_name":"\u4e0a\u6d77,\u5609\u5b9a,\u5b89\u4ead,\u58a8\u7389","pinyin":"MoYu","lng":"121.364310","lat":"31.259610"},{"id":167149,"parent_id":167131,"level":4,"area_code":"310114103025","zip_code":"201805","city_code":"021","name":"\u8bb4\u8c61\u793e\u533a\u5c45\u59d4\u4f1a","short_name":"\u8bb4\u8c61","merger_name":"\u4e0a\u6d77,\u5609\u5b9a,\u5b89\u4ead,\u8bb4\u8c61","pinyin":"OuXiang","lng":"121.208160","lat":"31.320610"},{"id":167150,"parent_id":167131,"level":4,"area_code":"310114103026","zip_code":"201814","city_code":"021","name":"\u9646\u5df7\u793e\u533a\u5c45\u59d4\u4f1a","short_name":"\u9646\u5df7","merger_name":"\u4e0a\u6d77,\u5609\u5b9a,\u5b89\u4ead,\u9646\u5df7","pinyin":"LuXiang","lng":"121.251410","lat":"31.303340"},{"id":167151,"parent_id":167131,"level":4,"area_code":"310114103027","zip_code":"201814","city_code":"021","name":"\u6cf0\u987a\u793e\u533a\u5c45\u59d4\u4f1a","short_name":"\u6cf0\u987a","merger_name":"\u4e0a\u6d77,\u5609\u5b9a,\u5b89\u4ead,\u6cf0\u987a","pinyin":"TaiShun","lng":"121.212920","lat":"31.311340"},{"id":167152,"parent_id":167131,"level":4,"area_code":"310114103028","zip_code":"201805","city_code":"021","name":"\u6cf0\u4e1c\u793e\u533a\u5c45\u59d4\u4f1a","short_name":"\u6cf0\u4e1c","merger_name":"\u4e0a\u6d77,\u5609\u5b9a,\u5b89\u4ead,\u6cf0\u4e1c","pinyin":"TaiDong","lng":"121.223081","lat":"31.318795"},{"id":167153,"parent_id":167131,"level":4,"area_code":"310114103029","zip_code":"201805","city_code":"021","name":"\u91d1\u6842\u793e\u533a\u5c45\u59d4\u4f1a","short_name":"\u91d1\u6842","merger_name":"\u4e0a\u6d77,\u5609\u5b9a,\u5b89\u4ead,\u91d1\u6842","pinyin":"JinGui","lng":"121.216110","lat":"31.267060"},{"id":167154,"parent_id":167131,"level":4,"area_code":"310114103201","zip_code":"201805","city_code":"021","name":"\u5854\u5e99\u6751\u6751\u59d4\u4f1a","short_name":"\u5854\u5e99\u6751","merger_name":"\u4e0a\u6d77,\u5609\u5b9a,\u5b89\u4ead,\u5854\u5e99\u6751","pinyin":"TaMiaoCun","lng":"121.178420","lat":"31.301690"},{"id":167155,"parent_id":167131,"level":4,"area_code":"310114103202","zip_code":"201805","city_code":"021","name":"\u5357\u5b89\u6751\u6751\u59d4\u4f1a","short_name":"\u5357\u5b89\u6751","merger_name":"\u4e0a\u6d77,\u5609\u5b9a,\u5b89\u4ead,\u5357\u5b89\u6751","pinyin":"NanAnCun","lng":"121.152230","lat":"31.295440"},{"id":167156,"parent_id":167131,"level":4,"area_code":"310114103203","zip_code":"201805","city_code":"021","name":"\u987e\u6d66\u6751\u6751\u59d4\u4f1a","short_name":"\u987e\u6d66\u6751","merger_name":"\u4e0a\u6d77,\u5609\u5b9a,\u5b89\u4ead,\u987e\u6d66\u6751","pinyin":"GuPuCun","lng":"121.162780","lat":"31.296160"},{"id":167157,"parent_id":167131,"level":4,"area_code":"310114103204","zip_code":"201805","city_code":"021","name":"\u5170\u5858\u6751\u6751\u59d4\u4f1a","short_name":"\u5170\u5858\u6751","merger_name":"\u4e0a\u6d77,\u5609\u5b9a,\u5b89\u4ead,\u5170\u5858\u6751","pinyin":"LanTangCun","lng":"121.173450","lat":"31.321170"},{"id":167158,"parent_id":167131,"level":4,"area_code":"310114103205","zip_code":"201805","city_code":"021","name":"\u5411\u9633\u6751\u6751\u59d4\u4f1a","short_name":"\u5411\u9633\u6751","merger_name":"\u4e0a\u6d77,\u5609\u5b9a,\u5b89\u4ead,\u5411\u9633\u6751","pinyin":"XiangYangCun","lng":"121.137720","lat":"31.304250"},{"id":167159,"parent_id":167131,"level":4,"area_code":"310114103206","zip_code":"201805","city_code":"021","name":"\u706b\u70ac\u6751\u6751\u59d4\u4f1a","short_name":"\u706b\u70ac\u6751","merger_name":"\u4e0a\u6d77,\u5609\u5b9a,\u5b89\u4ead,\u706b\u70ac\u6751","pinyin":"HuoJuCun","lng":"121.150900","lat":"31.321510"},{"id":167160,"parent_id":167131,"level":4,"area_code":"310114103207","zip_code":"201805","city_code":"021","name":"\u65b0\u6cfe\u6751\u6751\u59d4\u4f1a","short_name":"\u65b0\u6cfe\u6751","merger_name":"\u4e0a\u6d77,\u5609\u5b9a,\u5b89\u4ead,\u65b0\u6cfe\u6751","pinyin":"XinJingCun","lng":"121.166760","lat":"31.315600"},{"id":167161,"parent_id":167131,"level":4,"area_code":"310114103208","zip_code":"201805","city_code":"021","name":"\u524d\u8fdb\u6751\u6751\u59d4\u4f1a","short_name":"\u524d\u8fdb\u6751","merger_name":"\u4e0a\u6d77,\u5609\u5b9a,\u5b89\u4ead,\u524d\u8fdb\u6751","pinyin":"QianJinCun","lng":"121.173450","lat":"31.321170"},{"id":167162,"parent_id":167131,"level":4,"area_code":"310114103209","zip_code":"201805","city_code":"021","name":"\u5858\u5e84\u6751\u6751\u59d4\u4f1a","short_name":"\u5858\u5e84\u6751","merger_name":"\u4e0a\u6d77,\u5609\u5b9a,\u5b89\u4ead,\u5858\u5e84\u6751","pinyin":"TangZhuangCun","lng":"121.188220","lat":"31.313500"},{"id":167163,"parent_id":167131,"level":4,"area_code":"310114103210","zip_code":"201805","city_code":"021","name":"\u6797\u5bb6\u6751\u6751\u59d4\u4f1a","short_name":"\u6797\u5bb6\u6751","merger_name":"\u4e0a\u6d77,\u5609\u5b9a,\u5b89\u4ead,\u6797\u5bb6\u6751","pinyin":"LinJiaCun","lng":"121.164970","lat":"31.295610"},{"id":167164,"parent_id":167131,"level":4,"area_code":"310114103212","zip_code":"201805","city_code":"021","name":"\u53cc\u6d66\u6751\u6751\u59d4\u4f1a","short_name":"\u53cc\u6d66\u6751","merger_name":"\u4e0a\u6d77,\u5609\u5b9a,\u5b89\u4ead,\u53cc\u6d66\u6751","pinyin":"ShuangPuCun","lng":"121.150880","lat":"31.307820"},{"id":167165,"parent_id":167131,"level":4,"area_code":"310114103213","zip_code":"201805","city_code":"021","name":"\u5415\u6d66\u6751\u6751\u59d4\u4f1a","short_name":"\u5415\u6d66\u6751","merger_name":"\u4e0a\u6d77,\u5609\u5b9a,\u5b89\u4ead,\u5415\u6d66\u6751","pinyin":"LvPuCun","lng":"121.173450","lat":"31.321170"},{"id":167166,"parent_id":167131,"level":4,"area_code":"310114103214","zip_code":"201805","city_code":"021","name":"\u6c34\u4ea7\u6751\u6751\u59d4\u4f1a","short_name":"\u6c34\u4ea7\u6751","merger_name":"\u4e0a\u6d77,\u5609\u5b9a,\u5b89\u4ead,\u6c34\u4ea7\u6751","pinyin":"ShuiChanCun","lng":"121.173450","lat":"31.321170"},{"id":167167,"parent_id":167131,"level":4,"area_code":"310114103215","zip_code":"201814","city_code":"021","name":"\u5148\u950b\u6751\u6751\u59d4\u4f1a","short_name":"\u5148\u950b\u6751","merger_name":"\u4e0a\u6d77,\u5609\u5b9a,\u5b89\u4ead,\u5148\u950b\u6751","pinyin":"XianFengCun","lng":"121.215070","lat":"31.304080"},{"id":167168,"parent_id":167131,"level":4,"area_code":"310114103216","zip_code":"201814","city_code":"021","name":"\u8d75\u5df7\u6751\u6751\u59d4\u4f1a","short_name":"\u8d75\u5df7\u6751","merger_name":"\u4e0a\u6d77,\u5609\u5b9a,\u5b89\u4ead,\u8d75\u5df7\u6751","pinyin":"ZhaoXiangCun","lng":"121.215070","lat":"31.304080"},{"id":167169,"parent_id":167131,"level":4,"area_code":"310114103217","zip_code":"201814","city_code":"021","name":"\u661f\u5149\u6751\u6751\u59d4\u4f1a","short_name":"\u661f\u5149\u6751","merger_name":"\u4e0a\u6d77,\u5609\u5b9a,\u5b89\u4ead,\u661f\u5149\u6751","pinyin":"XingGuangCun","lng":"121.247770","lat":"31.222520"},{"id":167170,"parent_id":167131,"level":4,"area_code":"310114103218","zip_code":"201814","city_code":"021","name":"\u661f\u660e\u6751\u6751\u59d4\u4f1a","short_name":"\u661f\u660e\u6751","merger_name":"\u4e0a\u6d77,\u5609\u5b9a,\u5b89\u4ead,\u661f\u660e\u6751","pinyin":"XingMingCun","lng":"121.242200","lat":"31.308420"},{"id":167171,"parent_id":167131,"level":4,"area_code":"310114103219","zip_code":"201814","city_code":"021","name":"\u5149\u660e\u6751\u6751\u59d4\u4f1a","short_name":"\u5149\u660e\u6751","merger_name":"\u4e0a\u6d77,\u5609\u5b9a,\u5b89\u4ead,\u5149\u660e\u6751","pinyin":"GuangMingCun","lng":"121.424950","lat":"31.046350"},{"id":167172,"parent_id":167131,"level":4,"area_code":"310114103220","zip_code":"201814","city_code":"021","name":"\u9ec4\u5899\u6751\u6751\u59d4\u4f1a","short_name":"\u9ec4\u5899\u6751","merger_name":"\u4e0a\u6d77,\u5609\u5b9a,\u5b89\u4ead,\u9ec4\u5899\u6751","pinyin":"HuangQiangCun","lng":"121.246870","lat":"31.327040"},{"id":167173,"parent_id":167131,"level":4,"area_code":"310114103221","zip_code":"201814","city_code":"021","name":"\u6f33\u6d66\u6751\u6751\u59d4\u4f1a","short_name":"\u6f33\u6d66\u6751","merger_name":"\u4e0a\u6d77,\u5609\u5b9a,\u5b89\u4ead,\u6f33\u6d66\u6751","pinyin":"ZhangPuCun","lng":"121.208590","lat":"31.315090"},{"id":167174,"parent_id":167131,"level":4,"area_code":"310114103223","zip_code":"201814","city_code":"021","name":"\u987e\u5792\u6751\u6751\u59d4\u4f1a","short_name":"\u987e\u5792\u6751","merger_name":"\u4e0a\u6d77,\u5609\u5b9a,\u5b89\u4ead,\u987e\u5792\u6751","pinyin":"GuLeiCun","lng":"121.212600","lat":"31.325600"},{"id":167175,"parent_id":167131,"level":4,"area_code":"310114103224","zip_code":"201814","city_code":"021","name":"\u65b9\u6cf0\u6751\u6751\u59d4\u4f1a","short_name":"\u65b9\u6cf0\u6751","merger_name":"\u4e0a\u6d77,\u5609\u5b9a,\u5b89\u4ead,\u65b9\u6cf0\u6751","pinyin":"FangTaiCun","lng":"121.208590","lat":"31.315090"},{"id":167176,"parent_id":167131,"level":4,"area_code":"310114103225","zip_code":"201814","city_code":"021","name":"\u9646\u8c61\u6751\u6751\u59d4\u4f1a","short_name":"\u9646\u8c61\u6751","merger_name":"\u4e0a\u6d77,\u5609\u5b9a,\u5b89\u4ead,\u9646\u8c61\u6751","pinyin":"LuXiangCun","lng":"121.215070","lat":"31.304080"},{"id":167177,"parent_id":167131,"level":4,"area_code":"310114103226","zip_code":"201814","city_code":"021","name":"\u8bb4\u601d\u6751\u6751\u59d4\u4f1a","short_name":"\u8bb4\u601d\u6751","merger_name":"\u4e0a\u6d77,\u5609\u5b9a,\u5b89\u4ead,\u8bb4\u601d\u6751","pinyin":"OuSiCun","lng":"121.193780","lat":"31.324520"},{"id":167178,"parent_id":167131,"level":4,"area_code":"310114103227","zip_code":"201805","city_code":"021","name":"\u6c34\u4ea7\u6751\uff08\u65b9\u6cf0\uff09\u6751\u59d4\u4f1a","short_name":"\u6c34\u4ea7\u6751","merger_name":"\u4e0a\u6d77,\u5609\u5b9a,\u5b89\u4ead,\u6c34\u4ea7\u6751","pinyin":"ShuiChanCun","lng":"121.215670","lat":"31.323850"},{"id":167179,"parent_id":167131,"level":4,"area_code":"310114103228","zip_code":"201805","city_code":"021","name":"\u897f\u5143\u6751\u6751\u59d4\u4f1a","short_name":"\u897f\u5143\u6751","merger_name":"\u4e0a\u6d77,\u5609\u5b9a,\u5b89\u4ead,\u897f\u5143\u6751","pinyin":"XiYuanCun","lng":"121.162780","lat":"31.274930"},{"id":167180,"parent_id":167131,"level":4,"area_code":"310114103229","zip_code":"201805","city_code":"021","name":"\u9f9a\u95f5\u6751\u6751\u59d4\u4f1a","short_name":"\u9f9a\u95f5\u6751","merger_name":"\u4e0a\u6d77,\u5609\u5b9a,\u5b89\u4ead,\u9f9a\u95f5\u6751","pinyin":"GongMinCun","lng":"121.180140","lat":"31.259070"},{"id":167181,"parent_id":167131,"level":4,"area_code":"310114103230","zip_code":"201804","city_code":"021","name":"\u6ce5\u5c97\u6751\u6751\u59d4\u4f1a","short_name":"\u6ce5\u5c97\u6751","merger_name":"\u4e0a\u6d77,\u5609\u5b9a,\u5b89\u4ead,\u6ce5\u5c97\u6751","pinyin":"NiGangCun","lng":"121.173450","lat":"31.321170"},{"id":167182,"parent_id":167131,"level":4,"area_code":"310114103231","zip_code":"201804","city_code":"021","name":"\u9093\u5bb6\u89d2\u6751\u6751\u59d4\u4f1a","short_name":"\u9093\u5bb6\u89d2\u6751","merger_name":"\u4e0a\u6d77,\u5609\u5b9a,\u5b89\u4ead,\u9093\u5bb6\u89d2\u6751","pinyin":"DengJiaJiaoCun","lng":"121.199750","lat":"31.257460"},{"id":167183,"parent_id":167131,"level":4,"area_code":"310114103232","zip_code":"201804","city_code":"021","name":"\u6731\u5bb6\u6751\u6751\u59d4\u4f1a","short_name":"\u6731\u5bb6\u6751","merger_name":"\u4e0a\u6d77,\u5609\u5b9a,\u5b89\u4ead,\u6731\u5bb6\u6751","pinyin":"ZhuJiaCun","lng":"121.201020","lat":"31.266400"},{"id":167184,"parent_id":167131,"level":4,"area_code":"310114103234","zip_code":"201804","city_code":"021","name":"\u8bb8\u5bb6\u6751\u6751\u59d4\u4f1a","short_name":"\u8bb8\u5bb6\u6751","merger_name":"\u4e0a\u6d77,\u5609\u5b9a,\u5b89\u4ead,\u8bb8\u5bb6\u6751","pinyin":"XuJiaCun","lng":"121.306580","lat":"31.480280"},{"id":167185,"parent_id":167131,"level":4,"area_code":"310114103235","zip_code":"201804","city_code":"021","name":"\u7f57\u5bb6\u6751\u6751\u59d4\u4f1a","short_name":"\u7f57\u5bb6\u6751","merger_name":"\u4e0a\u6d77,\u5609\u5b9a,\u5b89\u4ead,\u7f57\u5bb6\u6751","pinyin":"LuoJiaCun","lng":"121.216340","lat":"31.262490"},{"id":167186,"parent_id":167131,"level":4,"area_code":"310114103236","zip_code":"201804","city_code":"021","name":"\u94b1\u5bb6\u6751\u6751\u59d4\u4f1a","short_name":"\u94b1\u5bb6\u6751","merger_name":"\u4e0a\u6d77,\u5609\u5b9a,\u5b89\u4ead,\u94b1\u5bb6\u6751","pinyin":"QianJiaCun","lng":"121.216340","lat":"31.262490"},{"id":167187,"parent_id":167131,"level":4,"area_code":"310114103237","zip_code":"201804","city_code":"021","name":"\u4e1c\u8857\u6751\u6751\u59d4\u4f1a","short_name":"\u4e1c\u8857\u6751","merger_name":"\u4e0a\u6d77,\u5609\u5b9a,\u5b89\u4ead,\u4e1c\u8857\u6751","pinyin":"DongJieCun","lng":"121.227200","lat":"31.271250"},{"id":167188,"parent_id":167131,"level":4,"area_code":"310114103238","zip_code":"201804","city_code":"021","name":"\u9ec4\u6c88\u6751\u6751\u59d4\u4f1a","short_name":"\u9ec4\u6c88\u6751","merger_name":"\u4e0a\u6d77,\u5609\u5b9a,\u5b89\u4ead,\u9ec4\u6c88\u6751","pinyin":"HuangShenCun","lng":"121.219290","lat":"31.276730"},{"id":167189,"parent_id":167131,"level":4,"area_code":"310114103239","zip_code":"201804","city_code":"021","name":"\u8001\u5b85\u6751\u6751\u59d4\u4f1a","short_name":"\u8001\u5b85\u6751","merger_name":"\u4e0a\u6d77,\u5609\u5b9a,\u5b89\u4ead,\u8001\u5b85\u6751","pinyin":"LaoZhaiCun","lng":"121.225440","lat":"31.287020"},{"id":167190,"parent_id":167131,"level":4,"area_code":"310114103240","zip_code":"201804","city_code":"021","name":"\u987e\u5bb6\u6751\u6751\u59d4\u4f1a","short_name":"\u987e\u5bb6\u6751","merger_name":"\u4e0a\u6d77,\u5609\u5b9a,\u5b89\u4ead,\u987e\u5bb6\u6751","pinyin":"GuJiaCun","lng":"121.201020","lat":"31.266400"},{"id":167191,"parent_id":167131,"level":4,"area_code":"310114103241","zip_code":"201804","city_code":"021","name":"\u6768\u6728\u6865\u6751\u6751\u59d4\u4f1a","short_name":"\u6768\u6728\u6865\u6751","merger_name":"\u4e0a\u6d77,\u5609\u5b9a,\u5b89\u4ead,\u6768\u6728\u6865\u6751","pinyin":"YangMuQiaoCun","lng":"121.199770","lat":"31.288240"},{"id":167192,"parent_id":167131,"level":4,"area_code":"310114103242","zip_code":"201804","city_code":"021","name":"\u6a2a\u6cb3\u6751\u6751\u59d4\u4f1a","short_name":"\u6a2a\u6cb3\u6751","merger_name":"\u4e0a\u6d77,\u5609\u5b9a,\u5b89\u4ead,\u6a2a\u6cb3\u6751","pinyin":"HengHeCun","lng":"121.213590","lat":"31.270570"},{"id":167193,"parent_id":167131,"level":4,"area_code":"310114103243","zip_code":"201804","city_code":"021","name":"\u8054\u897f\u6751\u6751\u59d4\u4f1a","short_name":"\u8054\u897f\u6751","merger_name":"\u4e0a\u6d77,\u5609\u5b9a,\u5b89\u4ead,\u8054\u897f\u6751","pinyin":"LianXiCun","lng":"121.250950","lat":"31.272200"},{"id":167194,"parent_id":167131,"level":4,"area_code":"310114103244","zip_code":"201804","city_code":"021","name":"\u8054\u7fa4\u6751\u6751\u59d4\u4f1a","short_name":"\u8054\u7fa4\u6751","merger_name":"\u4e0a\u6d77,\u5609\u5b9a,\u5b89\u4ead,\u8054\u7fa4\u6751","pinyin":"LianQunCun","lng":"121.246320","lat":"31.276624"},{"id":167195,"parent_id":167131,"level":4,"area_code":"310114103245","zip_code":"201804","city_code":"021","name":"\u661f\u5854\u6751\u6751\u59d4\u4f1a","short_name":"\u661f\u5854\u6751","merger_name":"\u4e0a\u6d77,\u5609\u5b9a,\u5b89\u4ead,\u661f\u5854\u6751","pinyin":"XingTaCun","lng":"121.238143","lat":"31.289076"},{"id":167196,"parent_id":167026,"level":3,"area_code":"310114106000","zip_code":"201801","city_code":"021","name":"\u9a6c\u9646\u9547","short_name":"\u9a6c\u9646","merger_name":"\u4e0a\u6d77,\u5609\u5b9a,\u9a6c\u9646","pinyin":"MaLu","lng":"121.283435","lat":"31.333199"},{"id":167197,"parent_id":167196,"level":4,"area_code":"310114106001","zip_code":"201801","city_code":"021","name":"\u80b2\u5170\u793e\u533a\u5c45\u59d4\u4f1a","short_name":"\u80b2\u5170","merger_name":"\u4e0a\u6d77,\u5609\u5b9a,\u9a6c\u9646,\u80b2\u5170","pinyin":"YuLan","lng":"121.282840","lat":"31.329170"},{"id":167198,"parent_id":167196,"level":4,"area_code":"310114106002","zip_code":"201801","city_code":"021","name":"\u5929\u9a6c\u793e\u533a\u5c45\u59d4\u4f1a","short_name":"\u5929\u9a6c","merger_name":"\u4e0a\u6d77,\u5609\u5b9a,\u9a6c\u9646,\u5929\u9a6c","pinyin":"TianMa","lng":"121.284020","lat":"31.334230"},{"id":167199,"parent_id":167196,"level":4,"area_code":"310114106004","zip_code":"201801","city_code":"021","name":"\u9a6c\u9646\u65b0\u6751\u5c45\u59d4\u4f1a","short_name":"\u9a6c\u9646\u65b0\u6751","merger_name":"\u4e0a\u6d77,\u5609\u5b9a,\u9a6c\u9646,\u9a6c\u9646\u65b0\u6751","pinyin":"MaLuXinCun","lng":"121.277570","lat":"31.326780"},{"id":167200,"parent_id":167196,"level":4,"area_code":"310114106006","zip_code":"201822","city_code":"021","name":"\u622c\u6d5c\u793e\u533a\u5c45\u59d4\u4f1a","short_name":"\u622c\u6d5c","merger_name":"\u4e0a\u6d77,\u5609\u5b9a,\u9a6c\u9646,\u622c\u6d5c","pinyin":"JianBang","lng":"121.292130","lat":"31.377920"},{"id":167201,"parent_id":167196,"level":4,"area_code":"310114106007","zip_code":"201801","city_code":"021","name":"\u80b2\u82d1\u793e\u533a\u5c45\u59d4\u4f1a","short_name":"\u80b2\u82d1","merger_name":"\u4e0a\u6d77,\u5609\u5b9a,\u9a6c\u9646,\u80b2\u82d1","pinyin":"YuYuan","lng":"121.292450","lat":"31.323620"},{"id":167202,"parent_id":167196,"level":4,"area_code":"310114106008","zip_code":"201801","city_code":"021","name":"\u6a0a\u5bb6\u793e\u533a\u5c45\u59d4\u4f1a","short_name":"\u6a0a\u5bb6","merger_name":"\u4e0a\u6d77,\u5609\u5b9a,\u9a6c\u9646,\u6a0a\u5bb6","pinyin":"FanJia","lng":"121.297510","lat":"31.331930"},{"id":167203,"parent_id":167196,"level":4,"area_code":"310114106009","zip_code":"201801","city_code":"021","name":"\u5305\u6865\u793e\u533a\u5c45\u59d4\u4f1a","short_name":"\u5305\u6865","merger_name":"\u4e0a\u6d77,\u5609\u5b9a,\u9a6c\u9646,\u5305\u6865","pinyin":"BaoQiao","lng":"121.295990","lat":"31.338270"},{"id":167204,"parent_id":167196,"level":4,"area_code":"310114106010","zip_code":"201801","city_code":"021","name":"\u6ca5\u82d1\u793e\u533a\u5c45\u59d4\u4f1a","short_name":"\u6ca5\u82d1","merger_name":"\u4e0a\u6d77,\u5609\u5b9a,\u9a6c\u9646,\u6ca5\u82d1","pinyin":"LiYuan","lng":"121.286220","lat":"31.337790"},{"id":167205,"parent_id":167196,"level":4,"area_code":"310114106011","zip_code":"201801","city_code":"021","name":"\u5f6d\u8d75\u793e\u533a\u5c45\u59d4\u4f1a","short_name":"\u5f6d\u8d75","merger_name":"\u4e0a\u6d77,\u5609\u5b9a,\u9a6c\u9646,\u5f6d\u8d75","pinyin":"PengZhao","lng":"121.276730","lat":"31.350620"},{"id":167206,"parent_id":167196,"level":4,"area_code":"310114106012","zip_code":"201801","city_code":"021","name":"\u4ed3\u65b0\u793e\u533a\u5c45\u59d4\u4f1a","short_name":"\u4ed3\u65b0","merger_name":"\u4e0a\u6d77,\u5609\u5b9a,\u9a6c\u9646,\u4ed3\u65b0","pinyin":"CangXin","lng":"121.276730","lat":"31.350620"},{"id":167207,"parent_id":167196,"level":4,"area_code":"310114106013","zip_code":"201801","city_code":"021","name":"\u5609\u65b0\u793e\u533a\u5c45\u59d4\u4f1a","short_name":"\u5609\u65b0","merger_name":"\u4e0a\u6d77,\u5609\u5b9a,\u9a6c\u9646,\u5609\u65b0","pinyin":"JiaXin","lng":"121.291490","lat":"31.389300"},{"id":167208,"parent_id":167196,"level":4,"area_code":"310114106014","zip_code":"201801","city_code":"021","name":"\u6d2a\u5fb7\u4e00\u574a\u793e\u533a\u5c45\u59d4\u4f1a","short_name":"\u6d2a\u5fb7\u4e00\u574a","merger_name":"\u4e0a\u6d77,\u5609\u5b9a,\u9a6c\u9646,\u6d2a\u5fb7\u4e00\u574a","pinyin":"HongDeYiFang","lng":"121.260500","lat":"31.357520"},{"id":167209,"parent_id":167196,"level":4,"area_code":"310114106015","zip_code":"201801","city_code":"021","name":"\u8fdc\u9999\u4e00\u574a\u793e\u533a\u5c45\u59d4\u4f1a","short_name":"\u8fdc\u9999\u4e00\u574a","merger_name":"\u4e0a\u6d77,\u5609\u5b9a,\u9a6c\u9646,\u8fdc\u9999\u4e00\u574a","pinyin":"YuanXiangYiFang","lng":"121.259940","lat":"31.359120"},{"id":167210,"parent_id":167196,"level":4,"area_code":"310114106016","zip_code":"201801","city_code":"021","name":"\u5fb7\u7acb\u793e\u533a\u5c45\u59d4\u4f1a","short_name":"\u5fb7\u7acb","merger_name":"\u4e0a\u6d77,\u5609\u5b9a,\u9a6c\u9646,\u5fb7\u7acb","pinyin":"DeLi","lng":"121.278952","lat":"31.333582"},{"id":167211,"parent_id":167196,"level":4,"area_code":"310114106017","zip_code":"201801","city_code":"021","name":"\u5c01\u5468\u4e00\u574a\u793e\u533a\u5c45\u59d4\u4f1a","short_name":"\u5c01\u5468\u4e00\u574a","merger_name":"\u4e0a\u6d77,\u5609\u5b9a,\u9a6c\u9646,\u5c01\u5468\u4e00\u574a","pinyin":"FengZhouYiFang","lng":"121.277560","lat":"31.326790"},{"id":167212,"parent_id":167196,"level":4,"area_code":"310114106018","zip_code":"201801","city_code":"021","name":"\u8fdc\u9999\u4e8c\u574a\u793e\u533a\u5c45\u59d4\u4f1a","short_name":"\u8fdc\u9999\u4e8c\u574a","merger_name":"\u4e0a\u6d77,\u5609\u5b9a,\u9a6c\u9646,\u8fdc\u9999\u4e8c\u574a","pinyin":"YuanXiangErFang","lng":"121.262320","lat":"31.358690"},{"id":167213,"parent_id":167196,"level":4,"area_code":"310114106019","zip_code":"201801","city_code":"021","name":"\u767d\u94f6\u4e00\u574a\u793e\u533a\u5c45\u59d4\u4f1a","short_name":"\u767d\u94f6\u4e00\u574a","merger_name":"\u4e0a\u6d77,\u5609\u5b9a,\u9a6c\u9646,\u767d\u94f6\u4e00\u574a","pinyin":"BaiYinYiFang","lng":"121.239680","lat":"31.343620"},{"id":167214,"parent_id":167196,"level":4,"area_code":"310114106020","zip_code":"201821","city_code":"021","name":"\u5d07\u4fe1\u793e\u533a\u5c45\u59d4\u4f1a","short_name":"\u5d07\u4fe1","merger_name":"\u4e0a\u6d77,\u5609\u5b9a,\u9a6c\u9646,\u5d07\u4fe1","pinyin":"ChongXin","lng":"121.283435","lat":"31.333199"},{"id":167215,"parent_id":167196,"level":4,"area_code":"310114106021","zip_code":"201801","city_code":"021","name":"\u53cc\u5355\u4e00\u574a\u793e\u533a\u5c45\u59d4","short_name":"\u53cc\u5355\u4e00\u574a\u5c45\u59d4","merger_name":"\u4e0a\u6d77,\u5609\u5b9a,\u9a6c\u9646,\u53cc\u5355\u4e00\u574a\u5c45\u59d4","pinyin":"ShuangDanYiFangJuWei","lng":"121.252928","lat":"31.327213"},{"id":167216,"parent_id":167196,"level":4,"area_code":"310114106022","zip_code":"201801","city_code":"021","name":"\u4e91\u8c37\u4e00\u574a\u793e\u533a\u5c45\u59d4","short_name":"\u4e91\u8c37\u4e00\u574a\u5c45\u59d4","merger_name":"\u4e0a\u6d77,\u5609\u5b9a,\u9a6c\u9646,\u4e91\u8c37\u4e00\u574a\u5c45\u59d4","pinyin":"YunGuYiFangJuWei","lng":"121.257710","lat":"31.328030"},{"id":167217,"parent_id":167196,"level":4,"area_code":"310114106023","zip_code":"201801","city_code":"021","name":"\u5eb7\u4e30\u793e\u533a\u5c45\u59d4\u4f1a","short_name":"\u5eb7\u4e30","merger_name":"\u4e0a\u6d77,\u5609\u5b9a,\u9a6c\u9646,\u5eb7\u4e30","pinyin":"KangFeng","lng":"121.273650","lat":"31.321790"},{"id":167218,"parent_id":167196,"level":4,"area_code":"310114106024","zip_code":"201801","city_code":"021","name":"\u767d\u94f6\u4e8c\u574a\u793e\u533a\u5c45\u59d4\u4f1a","short_name":"\u767d\u94f6\u4e8c\u574a","merger_name":"\u4e0a\u6d77,\u5609\u5b9a,\u9a6c\u9646,\u767d\u94f6\u4e8c\u574a","pinyin":"BaiYinErFang","lng":"121.241900","lat":"31.346720"},{"id":167219,"parent_id":167196,"level":4,"area_code":"310114106025","zip_code":"201801","city_code":"021","name":"\u53cc\u4e01\u4e00\u574a\u793e\u533a\u5c45\u59d4\u4f1a","short_name":"\u53cc\u4e01\u4e00\u574a","merger_name":"\u4e0a\u6d77,\u5609\u5b9a,\u9a6c\u9646,\u53cc\u4e01\u4e00\u574a","pinyin":"ShuangDingYiFang","lng":"121.251570","lat":"31.331600"},{"id":167220,"parent_id":167196,"level":4,"area_code":"310114106201","zip_code":"201801","city_code":"021","name":"\u9a6c\u9646\u6751\u6751\u59d4\u4f1a","short_name":"\u9a6c\u9646\u6751","merger_name":"\u4e0a\u6d77,\u5609\u5b9a,\u9a6c\u9646,\u9a6c\u9646\u6751","pinyin":"MaLuCun","lng":"121.299050","lat":"31.332960"},{"id":167221,"parent_id":167196,"level":4,"area_code":"310114106202","zip_code":"201801","city_code":"021","name":"\u6a0a\u5bb6\u6751\u6751\u59d4\u4f1a","short_name":"\u6a0a\u5bb6\u6751","merger_name":"\u4e0a\u6d77,\u5609\u5b9a,\u9a6c\u9646,\u6a0a\u5bb6\u6751","pinyin":"FanJiaCun","lng":"121.299050","lat":"31.332960"},{"id":167222,"parent_id":167196,"level":4,"area_code":"310114106203","zip_code":"201801","city_code":"021","name":"\u5f6d\u8d75\u6751\u6751\u59d4\u4f1a","short_name":"\u5f6d\u8d75\u6751","merger_name":"\u4e0a\u6d77,\u5609\u5b9a,\u9a6c\u9646,\u5f6d\u8d75\u6751","pinyin":"PengZhaoCun","lng":"121.284360","lat":"31.346950"},{"id":167223,"parent_id":167196,"level":4,"area_code":"310114106207","zip_code":"201801","city_code":"021","name":"\u77f3\u5188\u6751\u6751\u59d4\u4f1a","short_name":"\u77f3\u5188\u6751","merger_name":"\u4e0a\u6d77,\u5609\u5b9a,\u9a6c\u9646,\u77f3\u5188\u6751","pinyin":"ShiGangCun","lng":"121.281720","lat":"31.340000"},{"id":167224,"parent_id":167196,"level":4,"area_code":"310114106208","zip_code":"201801","city_code":"021","name":"\u5305\u6865\u6751\u6751\u59d4\u4f1a","short_name":"\u5305\u6865\u6751","merger_name":"\u4e0a\u6d77,\u5609\u5b9a,\u9a6c\u9646,\u5305\u6865\u6751","pinyin":"BaoQiaoCun","lng":"121.328960","lat":"31.352870"},{"id":167225,"parent_id":167196,"level":4,"area_code":"310114106209","zip_code":"201801","city_code":"021","name":"\u674e\u5bb6\u6751\u6751\u59d4\u4f1a","short_name":"\u674e\u5bb6\u6751","merger_name":"\u4e0a\u6d77,\u5609\u5b9a,\u9a6c\u9646,\u674e\u5bb6\u6751","pinyin":"LiJiaCun","lng":"121.325970","lat":"31.347850"},{"id":167226,"parent_id":167196,"level":4,"area_code":"310114106210","zip_code":"201801","city_code":"021","name":"\u9648\u6751\u6751\u59d4\u4f1a","short_name":"\u9648\u6751","merger_name":"\u4e0a\u6d77,\u5609\u5b9a,\u9a6c\u9646,\u9648\u6751","pinyin":"ChenCun","lng":"121.328960","lat":"31.352870"},{"id":167227,"parent_id":167196,"level":4,"area_code":"310114106211","zip_code":"201801","city_code":"021","name":"\u5317\u7ba1\u6751\u6751\u59d4\u4f1a","short_name":"\u5317\u7ba1\u6751","merger_name":"\u4e0a\u6d77,\u5609\u5b9a,\u9a6c\u9646,\u5317\u7ba1\u6751","pinyin":"BeiGuanCun","lng":"121.323340","lat":"31.335000"},{"id":167228,"parent_id":167196,"level":4,"area_code":"310114106212","zip_code":"201822","city_code":"021","name":"\u4ed3\u573a\u6751\u6751\u59d4\u4f1a","short_name":"\u4ed3\u573a\u6751","merger_name":"\u4e0a\u6d77,\u5609\u5b9a,\u9a6c\u9646,\u4ed3\u573a\u6751","pinyin":"CangChangCun","lng":"121.276400","lat":"31.361510"},{"id":167229,"parent_id":167196,"level":4,"area_code":"310114106213","zip_code":"201822","city_code":"021","name":"\u65b0\u8054\u6751\u6751\u59d4\u4f1a","short_name":"\u65b0\u8054\u6751","merger_name":"\u4e0a\u6d77,\u5609\u5b9a,\u9a6c\u9646,\u65b0\u8054\u6751","pinyin":"XinLianCun","lng":"121.273740","lat":"31.362380"},{"id":167230,"parent_id":167196,"level":4,"area_code":"310114106214","zip_code":"201822","city_code":"021","name":"\u7acb\u65b0\u6751\u6751\u59d4\u4f1a","short_name":"\u7acb\u65b0\u6751","merger_name":"\u4e0a\u6d77,\u5609\u5b9a,\u9a6c\u9646,\u7acb\u65b0\u6751","pinyin":"LiXinCun","lng":"121.285280","lat":"31.377730"},{"id":167231,"parent_id":167196,"level":4,"area_code":"310114106216","zip_code":"201822","city_code":"021","name":"\u5927\u88d5\u6751\u6751\u59d4\u4f1a","short_name":"\u5927\u88d5\u6751","merger_name":"\u4e0a\u6d77,\u5609\u5b9a,\u9a6c\u9646,\u5927\u88d5\u6751","pinyin":"DaYuCun","lng":"121.322294","lat":"31.370053"},{"id":167232,"parent_id":167196,"level":4,"area_code":"310114106217","zip_code":"201822","city_code":"021","name":"\u5927\u5b8f\u6751\u6751\u59d4\u4f1a","short_name":"\u5927\u5b8f\u6751","merger_name":"\u4e0a\u6d77,\u5609\u5b9a,\u9a6c\u9646,\u5927\u5b8f\u6751","pinyin":"DaHongCun","lng":"121.305480","lat":"31.368260"},{"id":167233,"parent_id":167196,"level":4,"area_code":"310114106218","zip_code":"201822","city_code":"021","name":"\u622c\u6d5c\u6751\u6751\u59d4\u4f1a","short_name":"\u622c\u6d5c\u6751","merger_name":"\u4e0a\u6d77,\u5609\u5b9a,\u9a6c\u9646,\u622c\u6d5c\u6751","pinyin":"JianBangCun","lng":"121.304980","lat":"31.368190"},{"id":167234,"parent_id":167026,"level":3,"area_code":"310114109000","zip_code":"201808","city_code":"021","name":"\u5f90\u884c\u9547","short_name":"\u5f90\u884c","merger_name":"\u4e0a\u6d77,\u5609\u5b9a,\u5f90\u884c","pinyin":"XuXing","lng":"121.280770","lat":"31.416190"},{"id":167235,"parent_id":167234,"level":4,"area_code":"310114109001","zip_code":"201808","city_code":"021","name":"\u5f90\u884c\u793e\u533a\u5c45\u59d4\u4f1a","short_name":"\u5f90\u884c","merger_name":"\u4e0a\u6d77,\u5609\u5b9a,\u5f90\u884c,\u5f90\u884c","pinyin":"XuXing","lng":"121.279540","lat":"31.415880"},{"id":167236,"parent_id":167234,"level":4,"area_code":"310114109002","zip_code":"201808","city_code":"021","name":"\u66f9\u738b\u793e\u533a\u5c45\u59d4\u4f1a","short_name":"\u66f9\u738b","merger_name":"\u4e0a\u6d77,\u5609\u5b9a,\u5f90\u884c,\u66f9\u738b","pinyin":"CaoWang","lng":"121.304370","lat":"31.432740"},{"id":167237,"parent_id":167234,"level":4,"area_code":"310114109003","zip_code":"201807","city_code":"021","name":"\u5a04\u5858\u793e\u533a\u5c45\u59d4\u4f1a","short_name":"\u5a04\u5858","merger_name":"\u4e0a\u6d77,\u5609\u5b9a,\u5f90\u884c,\u5a04\u5858","pinyin":"LouTang","lng":"121.279540","lat":"31.415880"},{"id":167238,"parent_id":167234,"level":4,"area_code":"310114109004","zip_code":"201808","city_code":"021","name":"\u6c47\u73e0\u793e\u533a\u5c45\u59d4\u4f1a","short_name":"\u6c47\u73e0","merger_name":"\u4e0a\u6d77,\u5609\u5b9a,\u5f90\u884c,\u6c47\u73e0","pinyin":"HuiZhu","lng":"121.193740","lat":"31.410660"},{"id":167239,"parent_id":167234,"level":4,"area_code":"310114109005","zip_code":"201808","city_code":"021","name":"\u542f\u60a6\u793e\u533a\u5c45\u59d4\u4f1a","short_name":"\u542f\u60a6","merger_name":"\u4e0a\u6d77,\u5609\u5b9a,\u5f90\u884c,\u542f\u60a6","pinyin":"QiYue","lng":"121.281670","lat":"31.419020"},{"id":167240,"parent_id":167234,"level":4,"area_code":"310114109006","zip_code":"201808","city_code":"021","name":"\u542f\u6e90\u793e\u533a\u5c45\u59d4\u4f1a","short_name":"\u542f\u6e90","merger_name":"\u4e0a\u6d77,\u5609\u5b9a,\u5f90\u884c,\u542f\u6e90","pinyin":"QiYuan","lng":"121.282380","lat":"31.417590"},{"id":167241,"parent_id":167234,"level":4,"area_code":"310114109201","zip_code":"201808","city_code":"021","name":"\u5c0f\u5e99\u6751\u6751\u59d4\u4f1a","short_name":"\u5c0f\u5e99\u6751","merger_name":"\u4e0a\u6d77,\u5609\u5b9a,\u5f90\u884c,\u5c0f\u5e99\u6751","pinyin":"XiaoMiaoCun","lng":"121.289260","lat":"31.412920"},{"id":167242,"parent_id":167234,"level":4,"area_code":"310114109203","zip_code":"201808","city_code":"021","name":"\u94b1\u6865\u6751\u6751\u59d4\u4f1a","short_name":"\u94b1\u6865\u6751","merger_name":"\u4e0a\u6d77,\u5609\u5b9a,\u5f90\u884c,\u94b1\u6865\u6751","pinyin":"QianQiaoCun","lng":"121.276530","lat":"31.426710"},{"id":167243,"parent_id":167234,"level":4,"area_code":"310114109204","zip_code":"201808","city_code":"021","name":"\u5f90\u884c\u6751\u6751\u59d4\u4f1a","short_name":"\u5f90\u884c\u6751","merger_name":"\u4e0a\u6d77,\u5609\u5b9a,\u5f90\u884c,\u5f90\u884c\u6751","pinyin":"XuXingCun","lng":"121.255660","lat":"31.419330"},{"id":167244,"parent_id":167234,"level":4,"area_code":"310114109206","zip_code":"201808","city_code":"021","name":"\u5927\u77f3\u76ae\u6751\u6751\u59d4\u4f1a","short_name":"\u5927\u77f3\u76ae\u6751","merger_name":"\u4e0a\u6d77,\u5609\u5b9a,\u5f90\u884c,\u5927\u77f3\u76ae\u6751","pinyin":"DaShiPiCun","lng":"121.255660","lat":"31.419330"},{"id":167245,"parent_id":167234,"level":4,"area_code":"310114109210","zip_code":"201808","city_code":"021","name":"\u4f0f\u864e\u6751\u6751\u59d4\u4f1a","short_name":"\u4f0f\u864e\u6751","merger_name":"\u4e0a\u6d77,\u5609\u5b9a,\u5f90\u884c,\u4f0f\u864e\u6751","pinyin":"FuHuCun","lng":"121.261940","lat":"31.444950"},{"id":167246,"parent_id":167234,"level":4,"area_code":"310114109211","zip_code":"201808","city_code":"021","name":"\u7ea2\u661f\u6751\u6751\u59d4\u4f1a","short_name":"\u7ea2\u661f\u6751","merger_name":"\u4e0a\u6d77,\u5609\u5b9a,\u5f90\u884c,\u7ea2\u661f\u6751","pinyin":"HongXingCun","lng":"121.319030","lat":"31.429800"},{"id":167247,"parent_id":167234,"level":4,"area_code":"310114109212","zip_code":"201808","city_code":"021","name":"\u548c\u6865\u6751\u6751\u59d4\u4f1a","short_name":"\u548c\u6865\u6751","merger_name":"\u4e0a\u6d77,\u5609\u5b9a,\u5f90\u884c,\u548c\u6865\u6751","pinyin":"HeQiaoCun","lng":"121.329400","lat":"31.417080"},{"id":167248,"parent_id":167234,"level":4,"area_code":"310114109214","zip_code":"201808","city_code":"021","name":"\u66f9\u738b\u6751\u6751\u59d4\u4f1a","short_name":"\u66f9\u738b\u6751","merger_name":"\u4e0a\u6d77,\u5609\u5b9a,\u5f90\u884c,\u66f9\u738b\u6751","pinyin":"CaoWangCun","lng":"121.319030","lat":"31.429800"},{"id":167249,"parent_id":167234,"level":4,"area_code":"310114109217","zip_code":"201808","city_code":"021","name":"\u5b89\u65b0\u6751\u6751\u59d4\u4f1a","short_name":"\u5b89\u65b0\u6751","merger_name":"\u4e0a\u6d77,\u5609\u5b9a,\u5f90\u884c,\u5b89\u65b0\u6751","pinyin":"AnXinCun","lng":"121.312940","lat":"31.453000"},{"id":167250,"parent_id":167234,"level":4,"area_code":"310114109219","zip_code":"201808","city_code":"021","name":"\u52b3\u52a8\u6751\u6751\u59d4\u4f1a","short_name":"\u52b3\u52a8\u6751","merger_name":"\u4e0a\u6d77,\u5609\u5b9a,\u5f90\u884c,\u52b3\u52a8\u6751","pinyin":"LaoDongCun","lng":"121.322920","lat":"31.444040"},{"id":167251,"parent_id":167234,"level":4,"area_code":"310114109220","zip_code":"201807","city_code":"021","name":"\u5a04\u5858\u6751\u6751\u59d4\u4f1a","short_name":"\u5a04\u5858\u6751","merger_name":"\u4e0a\u6d77,\u5609\u5b9a,\u5f90\u884c,\u5a04\u5858\u6751","pinyin":"LouTangCun","lng":"121.213410","lat":"31.433040"},{"id":167252,"parent_id":167234,"level":4,"area_code":"310114109222","zip_code":"201807","city_code":"021","name":"\u6cfe\u6cb3\u6751\u6751\u59d4\u4f1a","short_name":"\u6cfe\u6cb3\u6751","merger_name":"\u4e0a\u6d77,\u5609\u5b9a,\u5f90\u884c,\u6cfe\u6cb3\u6751","pinyin":"JingHeCun","lng":"121.233600","lat":"31.400090"},{"id":167253,"parent_id":167234,"level":4,"area_code":"310114109223","zip_code":"201807","city_code":"021","name":"\u8d75\u5385\u6751\u6751\u59d4\u4f1a","short_name":"\u8d75\u5385\u6751","merger_name":"\u4e0a\u6d77,\u5609\u5b9a,\u5f90\u884c,\u8d75\u5385\u6751","pinyin":"ZhaoTingCun","lng":"121.235280","lat":"31.409160"},{"id":167254,"parent_id":167234,"level":4,"area_code":"310114109224","zip_code":"201807","city_code":"021","name":"\u5a04\u4e1c\u6751\u6751\u59d4\u4f1a","short_name":"\u5a04\u4e1c\u6751","merger_name":"\u4e0a\u6d77,\u5609\u5b9a,\u5f90\u884c,\u5a04\u4e1c\u6751","pinyin":"LouDongCun","lng":"121.248090","lat":"31.444550"},{"id":167255,"parent_id":167234,"level":4,"area_code":"310114109225","zip_code":"201807","city_code":"021","name":"\u8349\u5eb5\u6751\u6751\u59d4\u4f1a","short_name":"\u8349\u5eb5\u6751","merger_name":"\u4e0a\u6d77,\u5609\u5b9a,\u5f90\u884c,\u8349\u5eb5\u6751","pinyin":"CaoAnCun","lng":"121.214580","lat":"31.450350"},{"id":167256,"parent_id":167234,"level":4,"area_code":"310114109226","zip_code":"201807","city_code":"021","name":"\u9646\u6e21\u6751\u6751\u59d4\u4f1a","short_name":"\u9646\u6e21\u6751","merger_name":"\u4e0a\u6d77,\u5609\u5b9a,\u5f90\u884c,\u9646\u6e21\u6751","pinyin":"LuDuCun","lng":"121.197560","lat":"31.462250"},{"id":167257,"parent_id":167234,"level":4,"area_code":"310114109227","zip_code":"201815","city_code":"021","name":"\u706f\u5854\u6751\u6751\u59d4\u4f1a","short_name":"\u706f\u5854\u6751","merger_name":"\u4e0a\u6d77,\u5609\u5b9a,\u5f90\u884c,\u706f\u5854\u6751","pinyin":"DengTaCun","lng":"121.424270","lat":"30.985220"},{"id":167258,"parent_id":167234,"level":4,"area_code":"310114109228","zip_code":"201815","city_code":"021","name":"\u96e8\u5316\u6751\u6751\u59d4\u4f1a","short_name":"\u96e8\u5316\u6751","merger_name":"\u4e0a\u6d77,\u5609\u5b9a,\u5f90\u884c,\u96e8\u5316\u6751","pinyin":"YuHuaCun","lng":"121.178619","lat":"31.429607"},{"id":167259,"parent_id":167234,"level":4,"area_code":"310114109229","zip_code":"201815","city_code":"021","name":"\u65fa\u6cfe\u6751\u6751\u59d4\u4f1a","short_name":"\u65fa\u6cfe\u6751","merger_name":"\u4e0a\u6d77,\u5609\u5b9a,\u5f90\u884c,\u65fa\u6cfe\u6751","pinyin":"WangJingCun","lng":"121.186580","lat":"31.416370"},{"id":167260,"parent_id":167234,"level":4,"area_code":"310114109230","zip_code":"201815","city_code":"021","name":"\u6731\u5bb6\u6865\u6751\u6751\u59d4\u4f1a","short_name":"\u6731\u5bb6\u6865\u6751","merger_name":"\u4e0a\u6d77,\u5609\u5b9a,\u5f90\u884c,\u6731\u5bb6\u6865\u6751","pinyin":"ZhuJiaQiaoCun","lng":"121.190080","lat":"31.407470"},{"id":167261,"parent_id":167234,"level":4,"area_code":"310114109231","zip_code":"201815","city_code":"021","name":"\u9ece\u660e\u6751\u6751\u59d4\u4f1a","short_name":"\u9ece\u660e\u6751","merger_name":"\u4e0a\u6d77,\u5609\u5b9a,\u5f90\u884c,\u9ece\u660e\u6751","pinyin":"LiMingCun","lng":"121.183930","lat":"31.393230"},{"id":167262,"parent_id":167234,"level":4,"area_code":"310114109233","zip_code":"201815","city_code":"021","name":"\u767d\u5899\u6751\u6751\u59d4\u4f1a","short_name":"\u767d\u5899\u6751","merger_name":"\u4e0a\u6d77,\u5609\u5b9a,\u5f90\u884c,\u767d\u5899\u6751","pinyin":"BaiQiangCun","lng":"121.208360","lat":"31.401270"},{"id":167263,"parent_id":167234,"level":4,"area_code":"310114109234","zip_code":"201815","city_code":"021","name":"\u7af9\u6865\u6751\u6751\u59d4\u4f1a","short_name":"\u7af9\u6865\u6751","merger_name":"\u4e0a\u6d77,\u5609\u5b9a,\u5f90\u884c,\u7af9\u6865\u6751","pinyin":"ZhuQiaoCun","lng":"121.178619","lat":"31.429607"},{"id":167264,"parent_id":167234,"level":4,"area_code":"310114109235","zip_code":"201807","city_code":"021","name":"\u4e09\u91cc\u6751\u6751\u59d4\u4f1a","short_name":"\u4e09\u91cc\u6751","merger_name":"\u4e0a\u6d77,\u5609\u5b9a,\u5f90\u884c,\u4e09\u91cc\u6751","pinyin":"SanLiCun","lng":"121.199970","lat":"31.452930"},{"id":167265,"parent_id":167026,"level":3,"area_code":"310114111000","zip_code":"201811","city_code":"021","name":"\u534e\u4ead\u9547","short_name":"\u534e\u4ead","merger_name":"\u4e0a\u6d77,\u5609\u5b9a,\u534e\u4ead","pinyin":"HuaTing","lng":"121.240460","lat":"31.463050"},{"id":167266,"parent_id":167265,"level":4,"area_code":"310114111001","zip_code":"201811","city_code":"021","name":"\u8881\u5bb6\u6865\u793e\u533a\u5c45\u59d4\u4f1a","short_name":"\u8881\u5bb6\u6865","merger_name":"\u4e0a\u6d77,\u5609\u5b9a,\u534e\u4ead,\u8881\u5bb6\u6865","pinyin":"YuanJiaQiao","lng":"121.284480","lat":"31.469210"},{"id":167267,"parent_id":167265,"level":4,"area_code":"310114111002","zip_code":"201816","city_code":"021","name":"\u6c81\u56ed\u793e\u533a\u5c45\u59d4\u4f1a","short_name":"\u6c81\u56ed","merger_name":"\u4e0a\u6d77,\u5609\u5b9a,\u534e\u4ead,\u6c81\u56ed","pinyin":"QinYuan","lng":"121.240700","lat":"31.462600"},{"id":167268,"parent_id":167265,"level":4,"area_code":"310114111003","zip_code":"201811","city_code":"021","name":"\u534e\u65fa\u793e\u533a\u5c45\u59d4\u4f1a","short_name":"\u534e\u65fa","merger_name":"\u4e0a\u6d77,\u5609\u5b9a,\u534e\u4ead,\u534e\u65fa","pinyin":"HuaWang","lng":"121.284930","lat":"31.473580"},{"id":167269,"parent_id":167265,"level":4,"area_code":"310114111201","zip_code":"201811","city_code":"021","name":"\u8054\u4e00\u6751\u6751\u59d4\u4f1a","short_name":"\u8054\u4e00\u6751","merger_name":"\u4e0a\u6d77,\u5609\u5b9a,\u534e\u4ead,\u8054\u4e00\u6751","pinyin":"LianYiCun","lng":"121.306580","lat":"31.480280"},{"id":167270,"parent_id":167265,"level":4,"area_code":"310114111203","zip_code":"201811","city_code":"021","name":"\u8054\u4e09\u6751\u6751\u59d4\u4f1a","short_name":"\u8054\u4e09\u6751","merger_name":"\u4e0a\u6d77,\u5609\u5b9a,\u534e\u4ead,\u8054\u4e09\u6751","pinyin":"LianSanCun","lng":"121.301950","lat":"31.470660"},{"id":167271,"parent_id":167265,"level":4,"area_code":"310114111209","zip_code":"201811","city_code":"021","name":"\u5317\u65b0\u6751\u6751\u59d4\u4f1a","short_name":"\u5317\u65b0\u6751","merger_name":"\u4e0a\u6d77,\u5609\u5b9a,\u534e\u4ead,\u5317\u65b0\u6751","pinyin":"BeiXinCun","lng":"121.461712","lat":"31.001711"},{"id":167272,"parent_id":167265,"level":4,"area_code":"310114111210","zip_code":"201811","city_code":"021","name":"\u534e\u4ead\u6751\u6751\u59d4\u4f1a","short_name":"\u534e\u4ead\u6751","merger_name":"\u4e0a\u6d77,\u5609\u5b9a,\u534e\u4ead,\u534e\u4ead\u6751","pinyin":"HuaTingCun","lng":"121.284630","lat":"31.456580"},{"id":167273,"parent_id":167265,"level":4,"area_code":"310114111211","zip_code":"201811","city_code":"021","name":"\u91d1\u5415\u6751\u6751\u59d4\u4f1a","short_name":"\u91d1\u5415\u6751","merger_name":"\u4e0a\u6d77,\u5609\u5b9a,\u534e\u4ead,\u91d1\u5415\u6751","pinyin":"JinLvCun","lng":"121.293330","lat":"31.454050"},{"id":167274,"parent_id":167265,"level":4,"area_code":"310114111214","zip_code":"201816","city_code":"021","name":"\u5854\u6865\u6751\u6751\u59d4\u4f1a","short_name":"\u5854\u6865\u6751","merger_name":"\u4e0a\u6d77,\u5609\u5b9a,\u534e\u4ead,\u5854\u6865\u6751","pinyin":"TaQiaoCun","lng":"121.248090","lat":"31.444550"},{"id":167275,"parent_id":167265,"level":4,"area_code":"310114111216","zip_code":"201816","city_code":"021","name":"\u8fde\u4fca\u6751\u6751\u59d4\u4f1a","short_name":"\u8fde\u4fca\u6751","merger_name":"\u4e0a\u6d77,\u5609\u5b9a,\u534e\u4ead,\u8fde\u4fca\u6751","pinyin":"LianJunCun","lng":"121.237510","lat":"31.468950"},{"id":167276,"parent_id":167265,"level":4,"area_code":"310114111218","zip_code":"201816","city_code":"021","name":"\u53cc\u5858\u6751\u6751\u59d4\u4f1a","short_name":"\u53cc\u5858\u6751","merger_name":"\u4e0a\u6d77,\u5609\u5b9a,\u534e\u4ead,\u53cc\u5858\u6751","pinyin":"ShuangTangCun","lng":"121.236850","lat":"31.480280"},{"id":167277,"parent_id":167265,"level":4,"area_code":"310114111220","zip_code":"201816","city_code":"021","name":"\u6bdb\u6865\u6751\u6751\u59d4\u4f1a","short_name":"\u6bdb\u6865\u6751","merger_name":"\u4e0a\u6d77,\u5609\u5b9a,\u534e\u4ead,\u6bdb\u6865\u6751","pinyin":"MaoQiaoCun","lng":"121.236850","lat":"31.480280"},{"id":167278,"parent_id":167265,"level":4,"area_code":"310114111221","zip_code":"201816","city_code":"021","name":"\u5510\u884c\u6751\u6751\u59d4\u4f1a","short_name":"\u5510\u884c\u6751","merger_name":"\u4e0a\u6d77,\u5609\u5b9a,\u534e\u4ead,\u5510\u884c\u6751","pinyin":"TangXingCun","lng":"121.240482","lat":"31.462929"},{"id":167279,"parent_id":167026,"level":3,"area_code":"310114114000","zip_code":"201806","city_code":"021","name":"\u5916\u5188\u9547","short_name":"\u5916\u5188","merger_name":"\u4e0a\u6d77,\u5609\u5b9a,\u5916\u5188","pinyin":"WaiGang","lng":"121.162310","lat":"31.362820"},{"id":167280,"parent_id":167279,"level":4,"area_code":"310114114002","zip_code":"201806","city_code":"021","name":"\u674f\u82b1\u793e\u533a\u5c45\u59d4\u4f1a","short_name":"\u674f\u82b1","merger_name":"\u4e0a\u6d77,\u5609\u5b9a,\u5916\u5188,\u674f\u82b1","pinyin":"XingHua","lng":"121.177548","lat":"31.361009"},{"id":167281,"parent_id":167279,"level":4,"area_code":"310114114003","zip_code":"201806","city_code":"021","name":"\u5916\u5188\u65b0\u82d1\u793e\u533a\u5c45\u59d4\u4f1a","short_name":"\u5916\u5188\u65b0\u82d1","merger_name":"\u4e0a\u6d77,\u5609\u5b9a,\u5916\u5188,\u5916\u5188\u65b0\u82d1","pinyin":"WaiGangXinYuan","lng":"121.161250","lat":"31.365450"},{"id":167282,"parent_id":167279,"level":4,"area_code":"310114114004","zip_code":"201805","city_code":"021","name":"\u4f73\u82d1\u793e\u533a\u5c45\u59d4\u4f1a","short_name":"\u4f73\u82d1","merger_name":"\u4e0a\u6d77,\u5609\u5b9a,\u5916\u5188,\u4f73\u82d1","pinyin":"JiaYuan","lng":"121.154920","lat":"31.364570"},{"id":167283,"parent_id":167279,"level":4,"area_code":"310114114005","zip_code":"201806","city_code":"021","name":"\u5170\u90e1\u793e\u533a\u5c45\u59d4\u4f1a","short_name":"\u5170\u90e1","merger_name":"\u4e0a\u6d77,\u5609\u5b9a,\u5916\u5188,\u5170\u90e1","pinyin":"LanJun","lng":"121.173940","lat":"31.353920"},{"id":167284,"parent_id":167279,"level":4,"area_code":"310114114006","zip_code":"201806","city_code":"021","name":"\u666f\u82d1\u7b2c\u4e00\u793e\u533a\u5c45\u59d4\u4f1a","short_name":"\u666f\u82d1\u7b2c\u4e00","merger_name":"\u4e0a\u6d77,\u5609\u5b9a,\u5916\u5188,\u666f\u82d1\u7b2c\u4e00","pinyin":"JingYuanDiYi","lng":"121.310790","lat":"31.236500"},{"id":167285,"parent_id":167279,"level":4,"area_code":"310114114202","zip_code":"201806","city_code":"021","name":"\u5188\u5cf0\u6751\u6751\u59d4\u4f1a","short_name":"\u5188\u5cf0\u6751","merger_name":"\u4e0a\u6d77,\u5609\u5b9a,\u5916\u5188,\u5188\u5cf0\u6751","pinyin":"GangFengCun","lng":"121.163339","lat":"31.370727"},{"id":167286,"parent_id":167279,"level":4,"area_code":"310114114203","zip_code":"201806","city_code":"021","name":"\u5916\u5188\u6751\u6751\u59d4\u4f1a","short_name":"\u5916\u5188\u6751","merger_name":"\u4e0a\u6d77,\u5609\u5b9a,\u5916\u5188,\u5916\u5188\u6751","pinyin":"WaiGangCun","lng":"121.172580","lat":"31.358200"},{"id":167287,"parent_id":167279,"level":4,"area_code":"310114114204","zip_code":"201806","city_code":"021","name":"\u7ba1\u5bb6\u6751\u6751\u59d4\u4f1a","short_name":"\u7ba1\u5bb6\u6751","merger_name":"\u4e0a\u6d77,\u5609\u5b9a,\u5916\u5188,\u7ba1\u5bb6\u6751","pinyin":"GuanJiaCun","lng":"121.163339","lat":"31.370727"},{"id":167288,"parent_id":167279,"level":4,"area_code":"310114114205","zip_code":"201806","city_code":"021","name":"\u65bd\u664b\u6751\u6751\u59d4\u4f1a","short_name":"\u65bd\u664b\u6751","merger_name":"\u4e0a\u6d77,\u5609\u5b9a,\u5916\u5188,\u65bd\u664b\u6751","pinyin":"ShiJinCun","lng":"121.150790","lat":"31.378280"},{"id":167289,"parent_id":167279,"level":4,"area_code":"310114114206","zip_code":"201823","city_code":"021","name":"\u9648\u5468\u6751\u6751\u59d4\u4f1a","short_name":"\u9648\u5468\u6751","merger_name":"\u4e0a\u6d77,\u5609\u5b9a,\u5916\u5188,\u9648\u5468\u6751","pinyin":"ChenZhouCun","lng":"121.190664","lat":"31.349011"},{"id":167290,"parent_id":167279,"level":4,"area_code":"310114114207","zip_code":"201806","city_code":"021","name":"\u5f90\u79e6\u6751\u6751\u59d4\u4f1a","short_name":"\u5f90\u79e6\u6751","merger_name":"\u4e0a\u6d77,\u5609\u5b9a,\u5916\u5188,\u5f90\u79e6\u6751","pinyin":"XuQinCun","lng":"121.190664","lat":"31.349011"},{"id":167291,"parent_id":167279,"level":4,"area_code":"310114114208","zip_code":"201806","city_code":"021","name":"\u5927\u9646\u6751\u6751\u59d4\u4f1a","short_name":"\u5927\u9646\u6751","merger_name":"\u4e0a\u6d77,\u5609\u5b9a,\u5916\u5188,\u5927\u9646\u6751","pinyin":"DaLuCun","lng":"121.190540","lat":"31.371400"},{"id":167292,"parent_id":167279,"level":4,"area_code":"310114114209","zip_code":"201806","city_code":"021","name":"\u5317\u9f9a\u6751\u6751\u59d4\u4f1a","short_name":"\u5317\u9f9a\u6751","merger_name":"\u4e0a\u6d77,\u5609\u5b9a,\u5916\u5188,\u5317\u9f9a\u6751","pinyin":"BeiGongCun","lng":"121.169830","lat":"31.386894"},{"id":167293,"parent_id":167279,"level":4,"area_code":"310114114211","zip_code":"201806","city_code":"021","name":"\u7518\u67cf\u6751\u6751\u59d4\u4f1a","short_name":"\u7518\u67cf\u6751","merger_name":"\u4e0a\u6d77,\u5609\u5b9a,\u5916\u5188,\u7518\u67cf\u6751","pinyin":"GanBaiCun","lng":"121.172580","lat":"31.358200"},{"id":167294,"parent_id":167279,"level":4,"area_code":"310114114212","zip_code":"201806","city_code":"021","name":"\u845b\u9686\u6751\u6751\u59d4\u4f1a","short_name":"\u845b\u9686\u6751","merger_name":"\u4e0a\u6d77,\u5609\u5b9a,\u5916\u5188,\u845b\u9686\u6751","pinyin":"GeLongCun","lng":"121.150655","lat":"31.389915"},{"id":167295,"parent_id":167279,"level":4,"area_code":"310114114215","zip_code":"201823","city_code":"021","name":"\u53e4\u5858\u6751\u6751\u59d4\u4f1a","short_name":"\u53e4\u5858\u6751","merger_name":"\u4e0a\u6d77,\u5609\u5b9a,\u5916\u5188,\u53e4\u5858\u6751","pinyin":"GuTangCun","lng":"121.129230","lat":"31.367652"},{"id":167296,"parent_id":167279,"level":4,"area_code":"310114114217","zip_code":"201823","city_code":"021","name":"\u6cc9\u6cfe\u6751\u6751\u59d4\u4f1a","short_name":"\u6cc9\u6cfe\u6751","merger_name":"\u4e0a\u6d77,\u5609\u5b9a,\u5916\u5188,\u6cc9\u6cfe\u6751","pinyin":"QuanJingCun","lng":"121.129230","lat":"31.367652"},{"id":167297,"parent_id":167279,"level":4,"area_code":"310114114218","zip_code":"201823","city_code":"021","name":"\u4e2d\u6cfe\u6751\u6751\u59d4\u4f1a","short_name":"\u4e2d\u6cfe\u6751","merger_name":"\u4e0a\u6d77,\u5609\u5b9a,\u5916\u5188,\u4e2d\u6cfe\u6751","pinyin":"ZhongJingCun","lng":"121.129230","lat":"31.367652"},{"id":167298,"parent_id":167279,"level":4,"area_code":"310114114219","zip_code":"201823","city_code":"021","name":"\u671b\u65b0\u6751\u6751\u59d4\u4f1a","short_name":"\u671b\u65b0\u6751","merger_name":"\u4e0a\u6d77,\u5609\u5b9a,\u5916\u5188,\u671b\u65b0\u6751","pinyin":"WangXinCun","lng":"121.154710","lat":"31.337680"},{"id":167299,"parent_id":167279,"level":4,"area_code":"310114114220","zip_code":"201823","city_code":"021","name":"\u5468\u6cfe\u6751\u6751\u59d4\u4f1a","short_name":"\u5468\u6cfe\u6751","merger_name":"\u4e0a\u6d77,\u5609\u5b9a,\u5916\u5188,\u5468\u6cfe\u6751","pinyin":"ZhouJingCun","lng":"121.154710","lat":"31.337680"},{"id":167300,"parent_id":167279,"level":4,"area_code":"310114114221","zip_code":"201823","city_code":"021","name":"\u6768\u7538\u6751\u6751\u59d4\u4f1a","short_name":"\u6768\u7538\u6751","merger_name":"\u4e0a\u6d77,\u5609\u5b9a,\u5916\u5188,\u6768\u7538\u6751","pinyin":"YangDianCun","lng":"121.154710","lat":"31.337680"},{"id":167301,"parent_id":167279,"level":4,"area_code":"310114114222","zip_code":"201823","city_code":"021","name":"\u957f\u6cfe\u6751\u6751\u59d4\u4f1a","short_name":"\u957f\u6cfe\u6751","merger_name":"\u4e0a\u6d77,\u5609\u5b9a,\u5916\u5188,\u957f\u6cfe\u6751","pinyin":"ZhangJingCun","lng":"121.163290","lat":"31.344380"},{"id":167302,"parent_id":167279,"level":4,"area_code":"310114114223","zip_code":"201823","city_code":"021","name":"\u9a6c\u95e8\u6751\u6751\u59d4\u4f1a","short_name":"\u9a6c\u95e8\u6751","merger_name":"\u4e0a\u6d77,\u5609\u5b9a,\u5916\u5188,\u9a6c\u95e8\u6751","pinyin":"MaMenCun","lng":"121.154710","lat":"31.337680"},{"id":167303,"parent_id":167279,"level":4,"area_code":"310114114224","zip_code":"201823","city_code":"021","name":"\u5de8\u95e8\u6751\u6751\u59d4\u4f1a","short_name":"\u5de8\u95e8\u6751","merger_name":"\u4e0a\u6d77,\u5609\u5b9a,\u5916\u5188,\u5de8\u95e8\u6751","pinyin":"JuMenCun","lng":"121.149540","lat":"31.361360"},{"id":167304,"parent_id":167026,"level":3,"area_code":"310114118000","zip_code":"201803","city_code":"021","name":"\u6c5f\u6865\u9547","short_name":"\u6c5f\u6865","merger_name":"\u4e0a\u6d77,\u5609\u5b9a,\u6c5f\u6865","pinyin":"JiangQiao","lng":"121.331620","lat":"31.239130"},{"id":167305,"parent_id":167304,"level":4,"area_code":"310114118001","zip_code":"201803","city_code":"021","name":"\u66f9\u5b89\u793e\u533a\u5c45\u59d4\u4f1a","short_name":"\u66f9\u5b89","merger_name":"\u4e0a\u6d77,\u5609\u5b9a,\u6c5f\u6865,\u66f9\u5b89","pinyin":"CaoAn","lng":"121.339150","lat":"31.258300"},{"id":167306,"parent_id":167304,"level":4,"area_code":"310114118002","zip_code":"201803","city_code":"021","name":"\u6c5f\u5b81\u793e\u533a\u5c45\u59d4\u4f1a","short_name":"\u6c5f\u5b81","merger_name":"\u4e0a\u6d77,\u5609\u5b9a,\u6c5f\u6865,\u6c5f\u5b81","pinyin":"JiangNing","lng":"121.460326","lat":"31.228365"},{"id":167307,"parent_id":167304,"level":4,"area_code":"310114118003","zip_code":"201803","city_code":"021","name":"\u6c5f\u5b89\u793e\u533a\u5c45\u59d4\u4f1a","short_name":"\u6c5f\u5b89","merger_name":"\u4e0a\u6d77,\u5609\u5b9a,\u6c5f\u6865,\u6c5f\u5b89","pinyin":"JiangAn","lng":"121.364310","lat":"31.259610"},{"id":167308,"parent_id":167304,"level":4,"area_code":"310114118005","zip_code":"201803","city_code":"021","name":"\u6768\u67f3\u793e\u533a\u5c45\u59d4\u4f1a","short_name":"\u6768\u67f3","merger_name":"\u4e0a\u6d77,\u5609\u5b9a,\u6c5f\u6865,\u6768\u67f3","pinyin":"YangLiu","lng":"121.298360","lat":"31.270170"},{"id":167309,"parent_id":167304,"level":4,"area_code":"310114118008","zip_code":"201803","city_code":"021","name":"\u6c5f\u4e30\u793e\u533a\u5c45\u59d4\u4f1a","short_name":"\u6c5f\u4e30","merger_name":"\u4e0a\u6d77,\u5609\u5b9a,\u6c5f\u6865,\u6c5f\u4e30","pinyin":"JiangFeng","lng":"121.341760","lat":"31.262830"},