[{"id":267001,"parent_id":266967,"level":4,"area_code":"360111104051","zip_code":"330029","city_code":"0791","name":"\u65fa\u89d2\u793e\u533a","short_name":"\u65fa\u89d2","merger_name":"\u6c5f\u897f,\u5357\u660c,\u9752\u5c71\u6e56,\u6e56\u574a,\u65fa\u89d2","pinyin":"WangJiao","lng":"115.929310","lat":"28.673000"},{"id":267002,"parent_id":266967,"level":4,"area_code":"360111104052","zip_code":"330029","city_code":"0791","name":"\u94a6\u90fd\u8c6b\u666f\u793e\u533a","short_name":"\u94a6\u90fd\u8c6b\u666f","merger_name":"\u6c5f\u897f,\u5357\u660c,\u9752\u5c71\u6e56,\u6e56\u574a,\u94a6\u90fd\u8c6b\u666f","pinyin":"QinDouYuJing","lng":"115.951640","lat":"28.672130"},{"id":267003,"parent_id":266967,"level":4,"area_code":"360111104053","zip_code":"330029","city_code":"0791","name":"\u5885\u6eaa\u793e\u533a\u5c45\u6c11\u59d4\u5458\u4f1a","short_name":"\u5885\u6eaa","merger_name":"\u6c5f\u897f,\u5357\u660c,\u9752\u5c71\u6e56,\u6e56\u574a,\u5885\u6eaa","pinyin":"ShuXi","lng":"115.955380","lat":"28.637050"},{"id":267004,"parent_id":266967,"level":4,"area_code":"360111104200","zip_code":"330029","city_code":"0791","name":"\u6e56\u574a\u6751\u59d4\u4f1a","short_name":"\u6e56\u574a","merger_name":"\u6c5f\u897f,\u5357\u660c,\u9752\u5c71\u6e56,\u6e56\u574a,\u6e56\u574a","pinyin":"HuFang","lng":"115.931710","lat":"28.674560"},{"id":267005,"parent_id":266967,"level":4,"area_code":"360111104201","zip_code":"330029","city_code":"0791","name":"\u8096\u574a\u6751\u59d4\u4f1a","short_name":"\u8096\u574a","merger_name":"\u6c5f\u897f,\u5357\u660c,\u9752\u5c71\u6e56,\u6e56\u574a,\u8096\u574a","pinyin":"XiaoFang","lng":"115.953050","lat":"28.660140"},{"id":267006,"parent_id":266967,"level":4,"area_code":"360111104202","zip_code":"330029","city_code":"0791","name":"\u5f20\u71d5\u6751\u59d4\u4f1a","short_name":"\u5f20\u71d5","merger_name":"\u6c5f\u897f,\u5357\u660c,\u9752\u5c71\u6e56,\u6e56\u574a,\u5f20\u71d5","pinyin":"ZhangYan","lng":"115.947090","lat":"28.666640"},{"id":267007,"parent_id":266967,"level":4,"area_code":"360111104203","zip_code":"330029","city_code":"0791","name":"\u77f3\u6cc9\u6751\u59d4\u4f1a","short_name":"\u77f3\u6cc9","merger_name":"\u6c5f\u897f,\u5357\u660c,\u9752\u5c71\u6e56,\u6e56\u574a,\u77f3\u6cc9","pinyin":"ShiQuan","lng":"115.954060","lat":"28.677600"},{"id":267008,"parent_id":266967,"level":4,"area_code":"360111104204","zip_code":"330029","city_code":"0791","name":"\u957f\u6625\u6751\u59d4\u4f1a","short_name":"\u957f\u6625","merger_name":"\u6c5f\u897f,\u5357\u660c,\u9752\u5c71\u6e56,\u6e56\u574a,\u957f\u6625","pinyin":"ChangChun","lng":"115.943350","lat":"28.681950"},{"id":267009,"parent_id":266967,"level":4,"area_code":"360111104205","zip_code":"330029","city_code":"0791","name":"\u6c38\u4eba\u6751\u59d4\u4f1a","short_name":"\u6c38\u4eba","merger_name":"\u6c5f\u897f,\u5357\u660c,\u9752\u5c71\u6e56,\u6e56\u574a,\u6c38\u4eba","pinyin":"YongRen","lng":"115.939490","lat":"28.678560"},{"id":267010,"parent_id":266967,"level":4,"area_code":"360111104206","zip_code":"330029","city_code":"0791","name":"\u5f6d\u6865\u6751\u59d4\u4f1a","short_name":"\u5f6d\u6865","merger_name":"\u6c5f\u897f,\u5357\u660c,\u9752\u5c71\u6e56,\u6e56\u574a,\u5f6d\u6865","pinyin":"PengQiao","lng":"115.931710","lat":"28.674560"},{"id":267011,"parent_id":266967,"level":4,"area_code":"360111104207","zip_code":"330029","city_code":"0791","name":"\u987a\u5916\u6751\u59d4\u4f1a","short_name":"\u987a\u5916","merger_name":"\u6c5f\u897f,\u5357\u660c,\u9752\u5c71\u6e56,\u6e56\u574a,\u987a\u5916","pinyin":"ShunWai","lng":"115.944176","lat":"28.664445"},{"id":267012,"parent_id":266967,"level":4,"area_code":"360111104208","zip_code":"330029","city_code":"0791","name":"\u8fdb\u987a\u6751\u59d4\u4f1a","short_name":"\u8fdb\u987a","merger_name":"\u6c5f\u897f,\u5357\u660c,\u9752\u5c71\u6e56,\u6e56\u574a,\u8fdb\u987a","pinyin":"JinShun","lng":"115.955870","lat":"28.651250"},{"id":267013,"parent_id":266967,"level":4,"area_code":"360111104209","zip_code":"330026","city_code":"0791","name":"\u8fdb\u660e\u6751\u59d4\u4f1a","short_name":"\u8fdb\u660e","merger_name":"\u6c5f\u897f,\u5357\u660c,\u9752\u5c71\u6e56,\u6e56\u574a,\u8fdb\u660e","pinyin":"JinMing","lng":"115.928809","lat":"28.659771"},{"id":267014,"parent_id":266967,"level":4,"area_code":"360111104210","zip_code":"330002","city_code":"0791","name":"\u8fdb\u5916\u6751\u59d4\u4f1a","short_name":"\u8fdb\u5916","merger_name":"\u6c5f\u897f,\u5357\u660c,\u9752\u5c71\u6e56,\u6e56\u574a,\u8fdb\u5916","pinyin":"JinWai","lng":"115.922870","lat":"28.654920"},{"id":267015,"parent_id":266967,"level":4,"area_code":"360111104211","zip_code":"330029","city_code":"0791","name":"\u674e\u5df7\u6751\u59d4\u4f1a","short_name":"\u674e\u5df7","merger_name":"\u6c5f\u897f,\u5357\u660c,\u9752\u5c71\u6e56,\u6e56\u574a,\u674e\u5df7","pinyin":"LiXiang","lng":"115.950660","lat":"28.643870"},{"id":267016,"parent_id":266967,"level":4,"area_code":"360111104212","zip_code":"330029","city_code":"0791","name":"\u79e6\u80dc\u6751\u59d4\u4f1a","short_name":"\u79e6\u80dc","merger_name":"\u6c5f\u897f,\u5357\u660c,\u9752\u5c71\u6e56,\u6e56\u574a,\u79e6\u80dc","pinyin":"QinSheng","lng":"115.958700","lat":"28.650820"},{"id":267017,"parent_id":266967,"level":4,"area_code":"360111104213","zip_code":"330026","city_code":"0791","name":"\u6d2a\u90fd\u6751\u59d4\u4f1a","short_name":"\u6d2a\u90fd","merger_name":"\u6c5f\u897f,\u5357\u660c,\u9752\u5c71\u6e56,\u6e56\u574a,\u6d2a\u90fd","pinyin":"HongDou","lng":"115.930612","lat":"28.668355"},{"id":267018,"parent_id":266967,"level":4,"area_code":"360111104214","zip_code":"330029","city_code":"0791","name":"\u8f9b\u5bb6\u5eb5\u6751\u59d4\u4f1a","short_name":"\u8f9b\u5bb6\u5eb5","merger_name":"\u6c5f\u897f,\u5357\u660c,\u9752\u5c71\u6e56,\u6e56\u574a,\u8f9b\u5bb6\u5eb5","pinyin":"XinJiaAn","lng":"115.943530","lat":"28.650700"},{"id":267019,"parent_id":266861,"level":3,"area_code":"360111105000","zip_code":"330077","city_code":"0791","name":"\u5858\u5c71\u9547","short_name":"\u5858\u5c71","merger_name":"\u6c5f\u897f,\u5357\u660c,\u9752\u5c71\u6e56,\u5858\u5c71","pinyin":"TangShan","lng":"115.949630","lat":"28.709850"},{"id":267020,"parent_id":267019,"level":4,"area_code":"360111105001","zip_code":"330077","city_code":"0791","name":"\u6e56\u666f\u793e\u533a\u5c45\u6c11\u59d4\u5458\u4f1a","short_name":"\u6e56\u666f","merger_name":"\u6c5f\u897f,\u5357\u660c,\u9752\u5c71\u6e56,\u5858\u5c71,\u6e56\u666f","pinyin":"HuJing","lng":"115.943380","lat":"28.696390"},{"id":267021,"parent_id":267019,"level":4,"area_code":"360111105002","zip_code":"330077","city_code":"0791","name":"\u71d5\u9e23\u793e\u533a\u5c45\u6c11\u59d4\u5458\u4f1a","short_name":"\u71d5\u9e23","merger_name":"\u6c5f\u897f,\u5357\u660c,\u9752\u5c71\u6e56,\u5858\u5c71,\u71d5\u9e23","pinyin":"YanMing","lng":"115.942030","lat":"28.695820"},{"id":267022,"parent_id":267019,"level":4,"area_code":"360111105003","zip_code":"330077","city_code":"0791","name":"\u4e00\u516b\u4e03\u5bb6\u59d4\u4f1a","short_name":"\u4e00\u516b\u4e03\u5bb6","merger_name":"\u6c5f\u897f,\u5357\u660c,\u9752\u5c71\u6e56,\u5858\u5c71,\u4e00\u516b\u4e03\u5bb6","pinyin":"YiBaQiJia","lng":"115.949630","lat":"28.709850"},{"id":267023,"parent_id":267019,"level":4,"area_code":"360111105004","zip_code":"330029","city_code":"0791","name":"\u9ad8\u65b0\u793e\u533a\u5c45\u59d4\u4f1a","short_name":"\u9ad8\u65b0","merger_name":"\u6c5f\u897f,\u5357\u660c,\u9752\u5c71\u6e56,\u5858\u5c71,\u9ad8\u65b0","pinyin":"GaoXin","lng":"115.950800","lat":"28.684940"},{"id":267024,"parent_id":267019,"level":4,"area_code":"360111105005","zip_code":"330077","city_code":"0791","name":"\u5357\u5927\u5317\u9662\u5bb6\u59d4\u4f1a","short_name":"\u5357\u5927\u5317\u9662\u5bb6","merger_name":"\u6c5f\u897f,\u5357\u660c,\u9752\u5c71\u6e56,\u5858\u5c71,\u5357\u5927\u5317\u9662\u5bb6","pinyin":"NanDaBeiYuanJia","lng":"115.949630","lat":"28.709850"},{"id":267025,"parent_id":267019,"level":4,"area_code":"360111105006","zip_code":"330077","city_code":"0791","name":"\u9752\u5c71\u6e56\u793e\u533a\u5c45\u59d4\u4f1a","short_name":"\u9752\u5c71\u6e56","merger_name":"\u6c5f\u897f,\u5357\u660c,\u9752\u5c71\u6e56,\u5858\u5c71,\u9752\u5c71\u6e56","pinyin":"QingShanHu","lng":"115.942030","lat":"28.695820"},{"id":267026,"parent_id":267019,"level":4,"area_code":"360111105007","zip_code":"330077","city_code":"0791","name":"\u8c22\u5bb6\u6751\u793e\u533a\u5c45\u59d4\u4f1a","short_name":"\u8c22\u5bb6\u6751","merger_name":"\u6c5f\u897f,\u5357\u660c,\u9752\u5c71\u6e56,\u5858\u5c71,\u8c22\u5bb6\u6751","pinyin":"XieJiaCun","lng":"115.947510","lat":"28.672950"},{"id":267027,"parent_id":267019,"level":4,"area_code":"360111105008","zip_code":"330029","city_code":"0791","name":"\u661f\u5149\u793e\u533a\u5c45\u59d4\u4f1a","short_name":"\u661f\u5149","merger_name":"\u6c5f\u897f,\u5357\u660c,\u9752\u5c71\u6e56,\u5858\u5c71,\u661f\u5149","pinyin":"XingGuang","lng":"115.932396","lat":"28.683503"},{"id":267028,"parent_id":267019,"level":4,"area_code":"360111105009","zip_code":"330029","city_code":"0791","name":"\u4e0a\u574a\u8def\u793e\u533a\u5c45\u59d4\u4f1a","short_name":"\u4e0a\u574a\u8def","merger_name":"\u6c5f\u897f,\u5357\u660c,\u9752\u5c71\u6e56,\u5858\u5c71,\u4e0a\u574a\u8def","pinyin":"ShangFangLu","lng":"115.932960","lat":"28.676310"},{"id":267029,"parent_id":267019,"level":4,"area_code":"360111105010","zip_code":"330029","city_code":"0791","name":"\u6c5f\u5927\u5357\u8def\u793e\u533a\u5c45\u59d4\u4f1a","short_name":"\u6c5f\u5927\u5357\u8def","merger_name":"\u6c5f\u897f,\u5357\u660c,\u9752\u5c71\u6e56,\u5858\u5c71,\u6c5f\u5927\u5357\u8def","pinyin":"JiangDaNanLu","lng":"115.938770","lat":"28.680080"},{"id":267030,"parent_id":267019,"level":4,"area_code":"360111105011","zip_code":"330077","city_code":"0791","name":"\u5357\u5927\u5357\u9662\u5bb6\u59d4\u4f1a","short_name":"\u5357\u5927\u5357\u9662\u5bb6","merger_name":"\u6c5f\u897f,\u5357\u660c,\u9752\u5c71\u6e56,\u5858\u5c71,\u5357\u5927\u5357\u9662\u5bb6","pinyin":"NanDaNanYuanJia","lng":"115.945002","lat":"28.674215"},{"id":267031,"parent_id":267019,"level":4,"area_code":"360111105012","zip_code":"330077","city_code":"0791","name":"\u5357\u660c\u5de5\u7a0b\u5b66\u9662\u5bb6\u59d4\u4f1a","short_name":"\u5357\u660c\u5de5\u7a0b\u5b66\u9662\u5bb6","merger_name":"\u6c5f\u897f,\u5357\u660c,\u9752\u5c71\u6e56,\u5858\u5c71,\u5357\u660c\u5de5\u7a0b\u5b66\u9662\u5bb6","pinyin":"NanChangGongChengXueYuanJia","lng":"116.029870","lat":"28.688780"},{"id":267032,"parent_id":267019,"level":4,"area_code":"360111105013","zip_code":"330077","city_code":"0791","name":"\u6e56\u6ee8\u793e\u533a","short_name":"\u6e56\u6ee8","merger_name":"\u6c5f\u897f,\u5357\u660c,\u9752\u5c71\u6e56,\u5858\u5c71,\u6e56\u6ee8","pinyin":"HuBin","lng":"115.949267","lat":"28.700398"},{"id":267033,"parent_id":267019,"level":4,"area_code":"360111105014","zip_code":"330077","city_code":"0791","name":"\u91d1\u57df\u540d\u90fd\u793e\u533a","short_name":"\u91d1\u57df\u540d\u90fd","merger_name":"\u6c5f\u897f,\u5357\u660c,\u9752\u5c71\u6e56,\u5858\u5c71,\u91d1\u57df\u540d\u90fd","pinyin":"JinYuMingDou","lng":"115.928400","lat":"28.677940"},{"id":267034,"parent_id":267019,"level":4,"area_code":"360111105015","zip_code":"330077","city_code":"0791","name":"\u4e39\u971e\u793e\u533a","short_name":"\u4e39\u971e","merger_name":"\u6c5f\u897f,\u5357\u660c,\u9752\u5c71\u6e56,\u5858\u5c71,\u4e39\u971e","pinyin":"DanXia","lng":"115.941960","lat":"28.712580"},{"id":267035,"parent_id":267019,"level":4,"area_code":"360111105016","zip_code":"330077","city_code":"0791","name":"\u79c0\u6cca\u7ecf\u5178\u793e\u533a","short_name":"\u79c0\u6cca\u7ecf\u5178","merger_name":"\u6c5f\u897f,\u5357\u660c,\u9752\u5c71\u6e56,\u5858\u5c71,\u79c0\u6cca\u7ecf\u5178","pinyin":"XiuPoJingDian","lng":"115.946250","lat":"28.696250"},{"id":267036,"parent_id":267019,"level":4,"area_code":"360111105017","zip_code":"330077","city_code":"0791","name":"\u5fa1\u6e56\u56fd\u9645\u793e\u533a","short_name":"\u5fa1\u6e56\u56fd\u9645","merger_name":"\u6c5f\u897f,\u5357\u660c,\u9752\u5c71\u6e56,\u5858\u5c71,\u5fa1\u6e56\u56fd\u9645","pinyin":"YuHuGuoJi","lng":"115.951201","lat":"28.709443"},{"id":267037,"parent_id":267019,"level":4,"area_code":"360111105018","zip_code":"330077","city_code":"0791","name":"\u4e1c\u95e8\u793e\u533a\u5c45\u59d4\u4f1a","short_name":"\u4e1c\u95e8","merger_name":"\u6c5f\u897f,\u5357\u660c,\u9752\u5c71\u6e56,\u5858\u5c71,\u4e1c\u95e8","pinyin":"DongMen","lng":"115.886827","lat":"28.670956"},{"id":267038,"parent_id":267019,"level":4,"area_code":"360111105200","zip_code":"330096","city_code":"0791","name":"\u4e94\u8054\u6751\u59d4\u4f1a","short_name":"\u4e94\u8054","merger_name":"\u6c5f\u897f,\u5357\u660c,\u9752\u5c71\u6e56,\u5858\u5c71,\u4e94\u8054","pinyin":"WuLian","lng":"115.955330","lat":"28.709660"},{"id":267039,"parent_id":267019,"level":4,"area_code":"360111105201","zip_code":"330077","city_code":"0791","name":"\u5858\u5c71\u6751\u59d4\u4f1a","short_name":"\u5858\u5c71","merger_name":"\u6c5f\u897f,\u5357\u660c,\u9752\u5c71\u6e56,\u5858\u5c71,\u5858\u5c71","pinyin":"TangShan","lng":"115.953930","lat":"28.700831"},{"id":267040,"parent_id":267019,"level":4,"area_code":"360111105202","zip_code":"330077","city_code":"0791","name":"\u6c38\u7ea2\u6751\u59d4\u4f1a","short_name":"\u6c38\u7ea2","merger_name":"\u6c5f\u897f,\u5357\u660c,\u9752\u5c71\u6e56,\u5858\u5c71,\u6c38\u7ea2","pinyin":"YongHong","lng":"115.946950","lat":"28.723240"},{"id":267041,"parent_id":267019,"level":4,"area_code":"360111105203","zip_code":"330077","city_code":"0791","name":"\u661f\u8f89\u6751\u59d4\u4f1a","short_name":"\u661f\u8f89","merger_name":"\u6c5f\u897f,\u5357\u660c,\u9752\u5c71\u6e56,\u5858\u5c71,\u661f\u8f89","pinyin":"XingHui","lng":"115.955410","lat":"28.711380"},{"id":267042,"parent_id":267019,"level":4,"area_code":"360111105204","zip_code":"330029","city_code":"0791","name":"\u661f\u5149\u6751\u59d4\u4f1a","short_name":"\u661f\u5149","merger_name":"\u6c5f\u897f,\u5357\u660c,\u9752\u5c71\u6e56,\u5858\u5c71,\u661f\u5149","pinyin":"XingGuang","lng":"115.941490","lat":"28.687350"},{"id":267043,"parent_id":267019,"level":4,"area_code":"360111105205","zip_code":"330029","city_code":"0791","name":"\u9752\u6e56\u6751\u59d4\u4f1a","short_name":"\u9752\u6e56","merger_name":"\u6c5f\u897f,\u5357\u660c,\u9752\u5c71\u6e56,\u5858\u5c71,\u9752\u6e56","pinyin":"QingHu","lng":"116.226660","lat":"28.440390"},{"id":267044,"parent_id":267019,"level":4,"area_code":"360111105206","zip_code":"330029","city_code":"0791","name":"\u5357\u9547\u6751\u59d4\u4f1a","short_name":"\u5357\u9547","merger_name":"\u6c5f\u897f,\u5357\u660c,\u9752\u5c71\u6e56,\u5858\u5c71,\u5357\u9547","pinyin":"NanZhen","lng":"115.948370","lat":"28.684940"},{"id":267045,"parent_id":267019,"level":4,"area_code":"360111105207","zip_code":"330077","city_code":"0791","name":"\u6d82\u9ec4\u6751\u59d4\u4f1a","short_name":"\u6d82\u9ec4","merger_name":"\u6c5f\u897f,\u5357\u660c,\u9752\u5c71\u6e56,\u5858\u5c71,\u6d82\u9ec4","pinyin":"TuHuang","lng":"115.953930","lat":"28.700831"},{"id":267046,"parent_id":267019,"level":4,"area_code":"360111105208","zip_code":"330096","city_code":"0791","name":"\u7f57\u4e07\u6751\u59d4\u4f1a","short_name":"\u7f57\u4e07","merger_name":"\u6c5f\u897f,\u5357\u660c,\u9752\u5c71\u6e56,\u5858\u5c71,\u7f57\u4e07","pinyin":"LuoWan","lng":"115.959360","lat":"28.693670"},{"id":267047,"parent_id":267019,"level":4,"area_code":"360111105400","zip_code":"330077","city_code":"0791","name":"\u6c11\u8425\u79d1\u6280\u56ed\u793e\u533a","short_name":"\u6c11\u8425\u79d1\u6280\u56ed","merger_name":"\u6c5f\u897f,\u5357\u660c,\u9752\u5c71\u6e56,\u5858\u5c71,\u6c11\u8425\u79d1\u6280\u56ed","pinyin":"MinYingKeJiYuan","lng":"115.960075","lat":"28.696333"},{"id":267048,"parent_id":266861,"level":3,"area_code":"360111180000","zip_code":"330044","city_code":"0791","name":"\u86df\u6865\u9547\uff08\u5357\u660c\u7ecf\u6d4e\u6280\u672f\u5f00\u53d1\u533a\uff09","short_name":"\u86df\u6865","merger_name":"\u6c5f\u897f,\u5357\u660c,\u9752\u5c71\u6e56,\u86df\u6865","pinyin":"JiaoQiao","lng":"115.840890","lat":"28.734580"},{"id":267049,"parent_id":267048,"level":4,"area_code":"360111180001","zip_code":"330044","city_code":"0791","name":"\u820d\u91cc\u7532\u793e\u533a\u5c45\u6c11\u59d4\u5458\u4f1a\uff08\u5357\u660c\u7ecf\u6d4e\u6280\u672f\u5f00\u53d1\u533a\uff09","short_name":"\u820d\u91cc\u7532","merger_name":"\u6c5f\u897f,\u5357\u660c,\u9752\u5c71\u6e56,\u86df\u6865,\u820d\u91cc\u7532","pinyin":"SheLiJia","lng":"115.852190","lat":"28.723910"},{"id":267050,"parent_id":267048,"level":4,"area_code":"360111180002","zip_code":"330044","city_code":"0791","name":"\u9f50\u6d1b\u74e6\u793e\u533a\u5c45\u6c11\u59d4\u5458\u4f1a\uff08\u5357\u660c\u7ecf\u6d4e\u6280\u672f\u5f00\u53d1\u533a\uff09","short_name":"\u9f50\u6d1b\u74e6","merger_name":"\u6c5f\u897f,\u5357\u660c,\u9752\u5c71\u6e56,\u86df\u6865,\u9f50\u6d1b\u74e6","pinyin":"QiLuoWa","lng":"115.840890","lat":"28.734580"},{"id":267051,"parent_id":267048,"level":4,"area_code":"360111180003","zip_code":"330032","city_code":"0791","name":"\u9ec4\u5bb6\u6e56\u793e\u533a\u5c45\u6c11\u59d4\u5458\u4f1a\uff08\u5357\u660c\u7ecf\u6d4e\u6280\u672f\u5f00\u53d1\u533a\uff09","short_name":"\u9ec4\u5bb6\u6e56","merger_name":"\u6c5f\u897f,\u5357\u660c,\u9752\u5c71\u6e56,\u86df\u6865,\u9ec4\u5bb6\u6e56","pinyin":"HuangJiaHu","lng":"115.820970","lat":"28.717340"},{"id":267052,"parent_id":267048,"level":4,"area_code":"360111180004","zip_code":"330044","city_code":"0791","name":"\u4e3d\u666f\u82d1\u793e\u533a\u5c45\u6c11\u59d4\u5458\u4f1a\uff08\u5357\u660c\u7ecf\u6d4e\u6280\u672f\u5f00\u53d1\u533a\uff09","short_name":"\u4e3d\u666f\u82d1","merger_name":"\u6c5f\u897f,\u5357\u660c,\u9752\u5c71\u6e56,\u86df\u6865,\u4e3d\u666f\u82d1","pinyin":"LiJingYuan","lng":"115.976590","lat":"28.692840"},{"id":267053,"parent_id":267048,"level":4,"area_code":"360111180005","zip_code":"330044","city_code":"0791","name":"\u65b0\u5b87\u793e\u533a\u5c45\u6c11\u59d4\u5458\u4f1a\uff08\u5357\u660c\u7ecf\u6d4e\u6280\u672f\u5f00\u53d1\u533a\uff09","short_name":"\u65b0\u5b87","merger_name":"\u6c5f\u897f,\u5357\u660c,\u9752\u5c71\u6e56,\u86df\u6865,\u65b0\u5b87","pinyin":"XinYu","lng":"115.976590","lat":"28.692840"},{"id":267054,"parent_id":267048,"level":4,"area_code":"360111180006","zip_code":"330044","city_code":"0791","name":"\u6c5f\u4eea\u793e\u533a\u5c45\u6c11\u59d4\u5458\u4f1a\uff08\u5357\u660c\u7ecf\u6d4e\u6280\u672f\u5f00\u53d1\u533a\uff09","short_name":"\u6c5f\u4eea","merger_name":"\u6c5f\u897f,\u5357\u660c,\u9752\u5c71\u6e56,\u86df\u6865,\u6c5f\u4eea","pinyin":"JiangYi","lng":"115.857960","lat":"28.743830"},{"id":267055,"parent_id":267048,"level":4,"area_code":"360111180007","zip_code":"330044","city_code":"0791","name":"\u6c5f\u897f\u5ba2\u8f66\u5382\u5bb6\u59d4\u4f1a\uff08\u5357\u660c\u7ecf\u6d4e\u6280\u672f\u5f00\u53d1\u533a\uff09","short_name":"\u6c5f\u897f\u5ba2\u8f66\u5382\u5bb6","merger_name":"\u6c5f\u897f,\u5357\u660c,\u9752\u5c71\u6e56,\u86df\u6865,\u6c5f\u897f\u5ba2\u8f66\u5382\u5bb6","pinyin":"JiangXiKeCheChangJia","lng":"115.840890","lat":"28.734580"},{"id":267056,"parent_id":267048,"level":4,"area_code":"360111180008","zip_code":"330044","city_code":"0791","name":"\u6c5f\u897f\u519c\u5927\u5bb6\u59d4\u4f1a\uff08\u5357\u660c\u7ecf\u6d4e\u6280\u672f\u5f00\u53d1\u533a\uff09","short_name":"\u6c5f\u897f\u519c\u5927\u5bb6","merger_name":"\u6c5f\u897f,\u5357\u660c,\u9752\u5c71\u6e56,\u86df\u6865,\u6c5f\u897f\u519c\u5927\u5bb6","pinyin":"JiangXiNongDaJia","lng":"115.840890","lat":"28.734580"},{"id":267057,"parent_id":267048,"level":4,"area_code":"360111180009","zip_code":"330044","city_code":"0791","name":"\u6c5f\u897f\u8d22\u5927\u5bb6\u59d4\u4f1a\uff08\u5357\u660c\u7ecf\u6d4e\u6280\u672f\u5f00\u53d1\u533a\uff09","short_name":"\u6c5f\u897f\u8d22\u5927\u5bb6","merger_name":"\u6c5f\u897f,\u5357\u660c,\u9752\u5c71\u6e56,\u86df\u6865,\u6c5f\u897f\u8d22\u5927\u5bb6","pinyin":"JiangXiCaiDaJia","lng":"115.840890","lat":"28.734580"},{"id":267058,"parent_id":267048,"level":4,"area_code":"360111180010","zip_code":"330044","city_code":"0791","name":"\u5357\u5929\u9633\u5149\u793e\u533a\u5c45\u59d4\u4f1a\uff08\u5357\u660c\u7ecf\u6d4e\u6280\u672f\u5f00\u53d1\u533a\uff09","short_name":"\u5357\u5929\u9633\u5149","merger_name":"\u6c5f\u897f,\u5357\u660c,\u9752\u5c71\u6e56,\u86df\u6865,\u5357\u5929\u9633\u5149","pinyin":"NanTianYangGuang","lng":"115.840890","lat":"28.734580"},{"id":267059,"parent_id":267048,"level":4,"area_code":"360111180011","zip_code":"330044","city_code":"0791","name":"\u91d1\u5609\u540d\u7b51\u793e\u533a\u5c45\u59d4\u4f1a\uff08\u5357\u660c\u7ecf\u6d4e\u6280\u672f\u5f00\u53d1\u533a\uff09","short_name":"\u91d1\u5609\u540d\u7b51","merger_name":"\u6c5f\u897f,\u5357\u660c,\u9752\u5c71\u6e56,\u86df\u6865,\u91d1\u5609\u540d\u7b51","pinyin":"JinJiaMingZhu","lng":"115.840890","lat":"28.734580"},{"id":267060,"parent_id":267048,"level":4,"area_code":"360111180012","zip_code":"330044","city_code":"0791","name":"\u91d1\u6865\u6167\u666f\u793e\u533a\u5c45\u59d4\u4f1a\uff08\u5357\u660c\u7ecf\u6d4e\u6280\u672f\u5f00\u53d1\u533a\uff09","short_name":"\u91d1\u6865\u6167\u666f","merger_name":"\u6c5f\u897f,\u5357\u660c,\u9752\u5c71\u6e56,\u86df\u6865,\u91d1\u6865\u6167\u666f","pinyin":"JinQiaoHuiJing","lng":"115.840890","lat":"28.734580"},{"id":267061,"parent_id":267048,"level":4,"area_code":"360111180013","zip_code":"330044","city_code":"0791","name":"\u9752\u5c9a\u5609\u56ed\u793e\u533a\u5c45\u59d4\u4f1a\uff08\u5357\u660c\u7ecf\u6d4e\u6280\u672f\u5f00\u53d1\u533a\uff09","short_name":"\u9752\u5c9a\u5609\u56ed","merger_name":"\u6c5f\u897f,\u5357\u660c,\u9752\u5c71\u6e56,\u86df\u6865,\u9752\u5c9a\u5609\u56ed","pinyin":"QingLanJiaYuan","lng":"115.823880","lat":"28.754900"},{"id":267062,"parent_id":267048,"level":4,"area_code":"360111180014","zip_code":"330044","city_code":"0791","name":"\u8305\u539f\u6865\u793e\u533a\u5c45\u6c11\u59d4\u5458\u4f1a\uff08\u5357\u660c\u7ecf\u6d4e\u6280\u672f\u5f00\u53d1\u533a\uff09","short_name":"\u8305\u539f\u6865","merger_name":"\u6c5f\u897f,\u5357\u660c,\u9752\u5c71\u6e56,\u86df\u6865,\u8305\u539f\u6865","pinyin":"MaoYuanQiao","lng":"115.976590","lat":"28.692840"},{"id":267063,"parent_id":267048,"level":4,"area_code":"360111180015","zip_code":"330044","city_code":"0791","name":"\u65b0\u6e2f\u91cc\u793e\u533a\u5c45\u6c11\u59d4\u5458\u4f1a\uff08\u5357\u660c\u7ecf\u6d4e\u6280\u672f\u5f00\u53d1\u533a\uff09","short_name":"\u65b0\u6e2f\u91cc","merger_name":"\u6c5f\u897f,\u5357\u660c,\u9752\u5c71\u6e56,\u86df\u6865,\u65b0\u6e2f\u91cc","pinyin":"XinGangLi","lng":"115.840890","lat":"28.734580"},{"id":267064,"parent_id":267048,"level":4,"area_code":"360111180016","zip_code":"330044","city_code":"0791","name":"\u99a8\u96c5\u82d1\u793e\u533a\u5c45\u6c11\u59d4\u5458\u4f1a\uff08\u5357\u660c\u7ecf\u6d4e\u6280\u672f\u5f00\u53d1\u533a\uff09","short_name":"\u99a8\u96c5\u82d1","merger_name":"\u6c5f\u897f,\u5357\u660c,\u9752\u5c71\u6e56,\u86df\u6865,\u99a8\u96c5\u82d1","pinyin":"XinYaYuan","lng":"115.840890","lat":"28.734580"},{"id":267065,"parent_id":267048,"level":4,"area_code":"360111180017","zip_code":"330044","city_code":"0791","name":"\u67ab\u8054\u793e\u533a\u5c45\u6c11\u59d4\u5458\u4f1a\uff08\u5357\u660c\u7ecf\u6d4e\u6280\u672f\u5f00\u53d1\u533a\uff09","short_name":"\u67ab\u8054","merger_name":"\u6c5f\u897f,\u5357\u660c,\u9752\u5c71\u6e56,\u86df\u6865,\u67ab\u8054","pinyin":"FengLian","lng":"115.840890","lat":"28.734580"},{"id":267066,"parent_id":267048,"level":4,"area_code":"360111180018","zip_code":"330044","city_code":"0791","name":"\u76db\u534e\u793e\u533a\u5c45\u6c11\u59d4\u5458\u4f1a\uff08\u5357\u660c\u7ecf\u6d4e\u6280\u672f\u5f00\u53d1\u533a\uff09","short_name":"\u76db\u534e","merger_name":"\u6c5f\u897f,\u5357\u660c,\u9752\u5c71\u6e56,\u86df\u6865,\u76db\u534e","pinyin":"ShengHua","lng":"115.840890","lat":"28.734580"},{"id":267067,"parent_id":267048,"level":4,"area_code":"360111180200","zip_code":"330013","city_code":"0791","name":"\u4e0b\u7f57\u6751\u59d4\u4f1a\uff08\u5357\u660c\u7ecf\u6d4e\u6280\u672f\u5f00\u53d1\u533a\uff09","short_name":"\u4e0b\u7f57","merger_name":"\u6c5f\u897f,\u5357\u660c,\u9752\u5c71\u6e56,\u86df\u6865,\u4e0b\u7f57","pinyin":"XiaLuo","lng":"115.851090","lat":"28.732383"},{"id":267068,"parent_id":267048,"level":4,"area_code":"360111180201","zip_code":"330032","city_code":"0791","name":"\u8303\u5bb6\u6751\u59d4\u4f1a\uff08\u5357\u660c\u7ecf\u6d4e\u6280\u672f\u5f00\u53d1\u533a\uff09","short_name":"\u8303\u5bb6","merger_name":"\u6c5f\u897f,\u5357\u660c,\u9752\u5c71\u6e56,\u86df\u6865,\u8303\u5bb6","pinyin":"FanJia","lng":"115.822490","lat":"28.712090"},{"id":267069,"parent_id":267048,"level":4,"area_code":"360111180202","zip_code":"330044","city_code":"0791","name":"\u9ea6\u5143\u6751\u59d4\u4f1a\uff08\u5357\u660c\u7ecf\u6d4e\u6280\u672f\u5f00\u53d1\u533a\uff09","short_name":"\u9ea6\u5143","merger_name":"\u6c5f\u897f,\u5357\u660c,\u9752\u5c71\u6e56,\u86df\u6865,\u9ea6\u5143","pinyin":"MaiYuan","lng":"115.812260","lat":"28.721110"},{"id":267070,"parent_id":267048,"level":4,"area_code":"360111180203","zip_code":"330032","city_code":"0791","name":"\u9752\u5c9a\u6751\u59d4\u4f1a\uff08\u5357\u660c\u7ecf\u6d4e\u6280\u672f\u5f00\u53d1\u533a\uff09","short_name":"\u9752\u5c9a","merger_name":"\u6c5f\u897f,\u5357\u660c,\u9752\u5c71\u6e56,\u86df\u6865,\u9752\u5c9a","pinyin":"QingLan","lng":"115.823880","lat":"28.754900"},{"id":267071,"parent_id":267048,"level":4,"area_code":"360111180204","zip_code":"330033","city_code":"0791","name":"\u8d64\u5e9c\u6751\u59d4\u4f1a\uff08\u5357\u660c\u7ecf\u6d4e\u6280\u672f\u5f00\u53d1\u533a\uff09","short_name":"\u8d64\u5e9c","merger_name":"\u6c5f\u897f,\u5357\u660c,\u9752\u5c71\u6e56,\u86df\u6865,\u8d64\u5e9c","pinyin":"ChiFu","lng":"115.823880","lat":"28.754900"},{"id":267072,"parent_id":267048,"level":4,"area_code":"360111180205","zip_code":"330013","city_code":"0791","name":"\u4e0a\u7f57\u6751\u59d4\u4f1a\uff08\u5357\u660c\u7ecf\u6d4e\u6280\u672f\u5f00\u53d1\u533a\uff09","short_name":"\u4e0a\u7f57","merger_name":"\u6c5f\u897f,\u5357\u660c,\u9752\u5c71\u6e56,\u86df\u6865,\u4e0a\u7f57","pinyin":"ShangLuo","lng":"115.839800","lat":"28.743030"},{"id":267073,"parent_id":267048,"level":4,"area_code":"360111180206","zip_code":"330045","city_code":"0791","name":"\u67ab\u666f\u6751\u59d4\u4f1a\uff08\u5357\u660c\u7ecf\u6d4e\u6280\u672f\u5f00\u53d1\u533a\uff09","short_name":"\u67ab\u666f","merger_name":"\u6c5f\u897f,\u5357\u660c,\u9752\u5c71\u6e56,\u86df\u6865,\u67ab\u666f","pinyin":"FengJing","lng":"115.833240","lat":"28.773320"},{"id":267074,"parent_id":267048,"level":4,"area_code":"360111180207","zip_code":"330045","city_code":"0791","name":"\u4e0a\u67ab\u666f\u6751\u59d4\u4f1a\uff08\u5357\u660c\u7ecf\u6d4e\u6280\u672f\u5f00\u53d1\u533a\uff09","short_name":"\u4e0a\u67ab\u666f","merger_name":"\u6c5f\u897f,\u5357\u660c,\u9752\u5c71\u6e56,\u86df\u6865,\u4e0a\u67ab\u666f","pinyin":"ShangFengJing","lng":"115.976590","lat":"28.692840"},{"id":267075,"parent_id":267048,"level":4,"area_code":"360111180208","zip_code":"330013","city_code":"0791","name":"\u701b\u4e0a\u6751\u59d4\u4f1a\uff08\u5357\u660c\u7ecf\u6d4e\u6280\u672f\u5f00\u53d1\u533a\uff09","short_name":"\u701b\u4e0a","merger_name":"\u6c5f\u897f,\u5357\u660c,\u9752\u5c71\u6e56,\u86df\u6865,\u701b\u4e0a","pinyin":"YingShang","lng":"115.850590","lat":"28.714350"},{"id":267076,"parent_id":267048,"level":4,"area_code":"360111180209","zip_code":"330033","city_code":"0791","name":"\u524d\u8fdb\u6751\u59d4\u4f1a\uff08\u5357\u660c\u7ecf\u6d4e\u6280\u672f\u5f00\u53d1\u533a\uff09","short_name":"\u524d\u8fdb","merger_name":"\u6c5f\u897f,\u5357\u660c,\u9752\u5c71\u6e56,\u86df\u6865,\u524d\u8fdb","pinyin":"QianJin","lng":"115.976590","lat":"28.692840"},{"id":267077,"parent_id":267048,"level":4,"area_code":"360111180210","zip_code":"330044","city_code":"0791","name":"\u9f99\u6f6d\u6751\u59d4\u4f1a\uff08\u5357\u660c\u7ecf\u6d4e\u6280\u672f\u5f00\u53d1\u533a\uff09","short_name":"\u9f99\u6f6d","merger_name":"\u6c5f\u897f,\u5357\u660c,\u9752\u5c71\u6e56,\u86df\u6865,\u9f99\u6f6d","pinyin":"LongTan","lng":"115.840890","lat":"28.734580"},{"id":267078,"parent_id":267048,"level":4,"area_code":"360111180211","zip_code":"330044","city_code":"0791","name":"\u536b\u56fd\u6751\u59d4\u4f1a\uff08\u5357\u660c\u7ecf\u6d4e\u6280\u672f\u5f00\u53d1\u533a\uff09","short_name":"\u536b\u56fd","merger_name":"\u6c5f\u897f,\u5357\u660c,\u9752\u5c71\u6e56,\u86df\u6865,\u536b\u56fd","pinyin":"WeiGuo","lng":"116.020700","lat":"28.698400"},{"id":267079,"parent_id":267048,"level":4,"area_code":"360111180212","zip_code":"330044","city_code":"0791","name":"\u53cc\u5cad\u6751\u59d4\u4f1a\uff08\u5357\u660c\u7ecf\u6d4e\u6280\u672f\u5f00\u53d1\u533a\uff09","short_name":"\u53cc\u5cad","merger_name":"\u6c5f\u897f,\u5357\u660c,\u9752\u5c71\u6e56,\u86df\u6865,\u53cc\u5cad","pinyin":"ShuangLing","lng":"115.840890","lat":"28.734580"},{"id":267080,"parent_id":267048,"level":4,"area_code":"360111180500","zip_code":"330044","city_code":"0791","name":"\u4e1c\u98ce\u519c\u573a\u751f\u6d3b\u533a\uff08\u5357\u660c\u7ecf\u6d4e\u6280\u672f\u5f00\u53d1\u533a\uff09","short_name":"\u4e1c\u98ce\u519c\u573a","merger_name":"\u6c5f\u897f,\u5357\u660c,\u9752\u5c71\u6e56,\u86df\u6865,\u4e1c\u98ce\u519c\u573a","pinyin":"DongFengNongChang","lng":"115.840890","lat":"28.734580"},{"id":267081,"parent_id":267048,"level":4,"area_code":"360111180501","zip_code":"330044","city_code":"0791","name":"\u6c34\u4ea7\u573a\u751f\u6d3b\u533a\uff08\u5357\u660c\u7ecf\u6d4e\u6280\u672f\u5f00\u53d1\u533a\uff09","short_name":"\u6c34\u4ea7\u573a","merger_name":"\u6c5f\u897f,\u5357\u660c,\u9752\u5c71\u6e56,\u86df\u6865,\u6c34\u4ea7\u573a","pinyin":"ShuiChanChang","lng":"115.840890","lat":"28.734580"},{"id":267082,"parent_id":267048,"level":4,"area_code":"360111180502","zip_code":"330044","city_code":"0791","name":"\u9ea6\u56ed\u6797\u573a\u751f\u6d3b\u533a\uff08\u5357\u660c\u7ecf\u6d4e\u6280\u672f\u5f00\u53d1\u533a\uff09","short_name":"\u9ea6\u56ed\u6797\u573a","merger_name":"\u6c5f\u897f,\u5357\u660c,\u9752\u5c71\u6e56,\u86df\u6865,\u9ea6\u56ed\u6797\u573a","pinyin":"MaiYuanLinChang","lng":"115.840890","lat":"28.734580"},{"id":267083,"parent_id":267048,"level":4,"area_code":"360111180503","zip_code":"330044","city_code":"0791","name":"\u82b1\u5349\u573a\u751f\u6d3b\u533a\uff08\u5357\u660c\u7ecf\u6d4e\u6280\u672f\u5f00\u53d1\u533a\uff09","short_name":"\u82b1\u5349\u573a","merger_name":"\u6c5f\u897f,\u5357\u660c,\u9752\u5c71\u6e56,\u86df\u6865,\u82b1\u5349\u573a","pinyin":"HuaHuiChang","lng":"115.840890","lat":"28.734580"},{"id":267084,"parent_id":266861,"level":3,"area_code":"360111400000","zip_code":"330046","city_code":"0791","name":"\u5357\u660c\u660c\u4e1c\u5de5\u4e1a\u533a","short_name":"\u5357\u660c\u660c\u4e1c\u5de5\u4e1a\u533a","merger_name":"\u6c5f\u897f,\u5357\u660c,\u9752\u5c71\u6e56,\u5357\u660c\u660c\u4e1c\u5de5\u4e1a\u533a","pinyin":"NanChangChangDongGongYeQu","lng":"115.979290","lat":"28.626900"},{"id":267085,"parent_id":267084,"level":4,"area_code":"360111400001","zip_code":"330046","city_code":"0791","name":"\u4e39\u77f3\u793e\u533a","short_name":"\u4e39\u77f3","merger_name":"\u6c5f\u897f,\u5357\u660c,\u9752\u5c71\u6e56,\u5357\u660c\u660c\u4e1c\u5de5\u4e1a\u533a,\u4e39\u77f3","pinyin":"DanShi","lng":"115.945740","lat":"28.600410"},{"id":267086,"parent_id":267084,"level":4,"area_code":"360111400002","zip_code":"330012","city_code":"0791","name":"\u4e1c\u5347\u793e\u533a\u5c45\u59d4\u4f1a","short_name":"\u4e1c\u5347","merger_name":"\u6c5f\u897f,\u5357\u660c,\u9752\u5c71\u6e56,\u5357\u660c\u660c\u4e1c\u5de5\u4e1a\u533a,\u4e1c\u5347","pinyin":"DongSheng","lng":"115.965668","lat":"28.638336"},{"id":267087,"parent_id":267084,"level":4,"area_code":"360111400003","zip_code":"330012","city_code":"0791","name":"\u4e1c\u57ce\u793e\u533a\u5c45\u59d4\u4f1a","short_name":"\u4e1c\u57ce","merger_name":"\u6c5f\u897f,\u5357\u660c,\u9752\u5c71\u6e56,\u5357\u660c\u660c\u4e1c\u5de5\u4e1a\u533a,\u4e1c\u57ce","pinyin":"DongCheng","lng":"115.965668","lat":"28.638336"},{"id":267088,"parent_id":267084,"level":4,"area_code":"360111400200","zip_code":"330012","city_code":"0791","name":"\u68a7\u5c97\u6751\u59d4\u4f1a","short_name":"\u68a7\u5c97","merger_name":"\u6c5f\u897f,\u5357\u660c,\u9752\u5c71\u6e56,\u5357\u660c\u660c\u4e1c\u5de5\u4e1a\u533a,\u68a7\u5c97","pinyin":"WuGang","lng":"115.977010","lat":"28.598680"},{"id":267089,"parent_id":267084,"level":4,"area_code":"360111400201","zip_code":"330012","city_code":"0791","name":"\u80e1\u5bb6\u6751\u59d4\u4f1a","short_name":"\u80e1\u5bb6","merger_name":"\u6c5f\u897f,\u5357\u660c,\u9752\u5c71\u6e56,\u5357\u660c\u660c\u4e1c\u5de5\u4e1a\u533a,\u80e1\u5bb6","pinyin":"HuJia","lng":"115.957840","lat":"28.598560"},{"id":267090,"parent_id":267084,"level":4,"area_code":"360111400202","zip_code":"330012","city_code":"0791","name":"\u4f5b\u5854\u6751\u59d4\u4f1a","short_name":"\u4f5b\u5854","merger_name":"\u6c5f\u897f,\u5357\u660c,\u9752\u5c71\u6e56,\u5357\u660c\u660c\u4e1c\u5de5\u4e1a\u533a,\u4f5b\u5854","pinyin":"FoTa","lng":"115.945120","lat":"28.603150"},{"id":267091,"parent_id":267084,"level":4,"area_code":"360111400203","zip_code":"330012","city_code":"0791","name":"\u4eac\u5ddd\u6751\u59d4\u4f1a","short_name":"\u4eac\u5ddd","merger_name":"\u6c5f\u897f,\u5357\u660c,\u9752\u5c71\u6e56,\u5357\u660c\u660c\u4e1c\u5de5\u4e1a\u533a,\u4eac\u5ddd","pinyin":"JingChuan","lng":"115.940460","lat":"28.599510"},{"id":267092,"parent_id":267084,"level":4,"area_code":"360111400204","zip_code":"330012","city_code":"0791","name":"\u77f3\u6865\u6751\u59d4\u4f1a","short_name":"\u77f3\u6865","merger_name":"\u6c5f\u897f,\u5357\u660c,\u9752\u5c71\u6e56,\u5357\u660c\u660c\u4e1c\u5de5\u4e1a\u533a,\u77f3\u6865","pinyin":"ShiQiao","lng":"115.960420","lat":"28.633940"},{"id":267093,"parent_id":267084,"level":4,"area_code":"360111400205","zip_code":"330012","city_code":"0791","name":"\u4e49\u574a\u6751\u59d4\u4f1a","short_name":"\u4e49\u574a","merger_name":"\u6c5f\u897f,\u5357\u660c,\u9752\u5c71\u6e56,\u5357\u660c\u660c\u4e1c\u5de5\u4e1a\u533a,\u4e49\u574a","pinyin":"YiFang","lng":"115.970949","lat":"28.620414"},{"id":267094,"parent_id":267084,"level":4,"area_code":"360111400206","zip_code":"330012","city_code":"0791","name":"\u6c88\u6865\u6751\u59d4\u4f1a","short_name":"\u6c88\u6865","merger_name":"\u6c5f\u897f,\u5357\u660c,\u9752\u5c71\u6e56,\u5357\u660c\u660c\u4e1c\u5de5\u4e1a\u533a,\u6c88\u6865","pinyin":"ShenQiao","lng":"115.966020","lat":"28.648210"},{"id":267095,"parent_id":267084,"level":4,"area_code":"360111400207","zip_code":"330012","city_code":"0791","name":"\u9ece\u660e\u6751\u59d4\u4f1a","short_name":"\u9ece\u660e","merger_name":"\u6c5f\u897f,\u5357\u660c,\u9752\u5c71\u6e56,\u5357\u660c\u660c\u4e1c\u5de5\u4e1a\u533a,\u9ece\u660e","pinyin":"LiMing","lng":"115.973150","lat":"28.633200"},{"id":267096,"parent_id":267084,"level":4,"area_code":"360111400400","zip_code":"330012","city_code":"0791","name":"\u660c\u4e1c\u4e00\u533a","short_name":"\u660c\u4e1c\u4e00\u533a","merger_name":"\u6c5f\u897f,\u5357\u660c,\u9752\u5c71\u6e56,\u5357\u660c\u660c\u4e1c\u5de5\u4e1a\u533a,\u660c\u4e1c\u4e00\u533a","pinyin":"ChangDongYiQu","lng":"115.970530","lat":"28.640000"},{"id":267097,"parent_id":267084,"level":4,"area_code":"360111400401","zip_code":"330029","city_code":"0791","name":"\u660c\u4e1c\u4e8c\u533a","short_name":"\u660c\u4e1c\u4e8c\u533a","merger_name":"\u6c5f\u897f,\u5357\u660c,\u9752\u5c71\u6e56,\u5357\u660c\u660c\u4e1c\u5de5\u4e1a\u533a,\u660c\u4e1c\u4e8c\u533a","pinyin":"ChangDongErQu","lng":"115.963150","lat":"28.642260"},{"id":267098,"parent_id":266861,"level":3,"area_code":"360111481000","zip_code":"330046","city_code":"0791","name":"\u767d\u6c34\u6e56\u7ba1\u7406\u5904\uff08\u5357\u660c\u7ecf\u6d4e\u6280\u672f\u5f00\u53d1\u533a\uff09","short_name":"\u767d\u6c34\u6e56\u7ba1\u7406\u5904","merger_name":"\u6c5f\u897f,\u5357\u660c,\u9752\u5c71\u6e56,\u767d\u6c34\u6e56\u7ba1\u7406\u5904","pinyin":"BaiShuiHuGuanLiChu","lng":"115.851990","lat":"28.764660"},{"id":267099,"parent_id":267098,"level":4,"area_code":"360111481001","zip_code":"330012","city_code":"0791","name":"\u5357\u9f7f\u793e\u533a\u5c45\u6c11\u59d4\u5458\u4f1a\uff08\u5357\u660c\u7ecf\u6d4e\u6280\u672f\u5f00\u53d1\u533a\uff09","short_name":"\u5357\u9f7f","merger_name":"\u6c5f\u897f,\u5357\u660c,\u9752\u5c71\u6e56,\u767d\u6c34\u6e56\u7ba1\u7406\u5904,\u5357\u9f7f","pinyin":"NanChi","lng":"115.851680","lat":"28.769560"},{"id":267100,"parent_id":267098,"level":4,"area_code":"360111481002","zip_code":"330046","city_code":"0791","name":"\u946b\u6e2f\u793e\u533a\u5c45\u6c11\u59d4\u5458\u4f1a\uff08\u5357\u660c\u7ecf\u6d4e\u6280\u672f\u5f00\u53d1\u533a\uff09","short_name":"\u946b\u6e2f","merger_name":"\u6c5f\u897f,\u5357\u660c,\u9752\u5c71\u6e56,\u767d\u6c34\u6e56\u7ba1\u7406\u5904,\u946b\u6e2f","pinyin":"XinGang","lng":"115.840890","lat":"28.734580"},{"id":267101,"parent_id":267098,"level":4,"area_code":"360111481003","zip_code":"330046","city_code":"0791","name":"\u91d1\u6e2f\u793e\u4f1a\u5c45\u6c11\u59d4\u5458\u4f1a\uff08\u5357\u660c\u7ecf\u6d4e\u6280\u672f\u5f00\u53d1\u533a\uff09","short_name":"\u91d1\u6e2f\u793e\u4f1a\u5c45\u6c11\u59d4\u5458\u4f1a","merger_name":"\u6c5f\u897f,\u5357\u660c,\u9752\u5c71\u6e56,\u767d\u6c34\u6e56\u7ba1\u7406\u5904,\u91d1\u6e2f\u793e\u4f1a\u5c45\u6c11\u59d4\u5458\u4f1a","pinyin":"JinGangSheHuiJuMinWeiYuanHui","lng":"115.840890","lat":"28.734580"},{"id":267102,"parent_id":267098,"level":4,"area_code":"360111481004","zip_code":"330046","city_code":"0791","name":"\u534e\u4e1c\u4ea4\u5927\u5bb6\u59d4\u4f1a\uff08\u5357\u660c\u7ecf\u6d4e\u6280\u672f\u5f00\u53d1\u533a\uff09","short_name":"\u534e\u4e1c\u4ea4\u5927\u5bb6","merger_name":"\u6c5f\u897f,\u5357\u660c,\u9752\u5c71\u6e56,\u767d\u6c34\u6e56\u7ba1\u7406\u5904,\u534e\u4e1c\u4ea4\u5927\u5bb6","pinyin":"HuaDongJiaoDaJia","lng":"115.840890","lat":"28.734580"},{"id":267103,"parent_id":267098,"level":4,"area_code":"360111481005","zip_code":"330046","city_code":"0791","name":"\u6d2a\u57ce\u9526\u82d1\u793e\u533a\u5c45\u59d4\u4f1a\uff08\u5357\u660c\u7ecf\u6d4e\u6280\u672f\u5f00\u53d1\u533a\uff09","short_name":"\u6d2a\u57ce\u9526\u82d1","merger_name":"\u6c5f\u897f,\u5357\u660c,\u9752\u5c71\u6e56,\u767d\u6c34\u6e56\u7ba1\u7406\u5904,\u6d2a\u57ce\u9526\u82d1","pinyin":"HongChengJinYuan","lng":"115.851990","lat":"28.764660"},{"id":267104,"parent_id":267098,"level":4,"area_code":"360111481006","zip_code":"330046","city_code":"0791","name":"\u5409\u90fd\u5c45\u793e\u533a\u5c45\u6c11\u59d4\u5458\u4f1a\uff08\u5357\u660c\u7ecf\u6d4e\u6280\u672f\u5f00\u53d1\u533a\uff09","short_name":"\u5409\u90fd\u5c45","merger_name":"\u6c5f\u897f,\u5357\u660c,\u9752\u5c71\u6e56,\u767d\u6c34\u6e56\u7ba1\u7406\u5904,\u5409\u90fd\u5c45","pinyin":"JiDouJu","lng":"115.840890","lat":"28.734580"},{"id":267105,"parent_id":267098,"level":4,"area_code":"360111481201","zip_code":"330013","city_code":"0791","name":"\u6e2f\u53e3\u6751\u59d4\u4f1a\uff08\u5357\u660c\u7ecf\u6d4e\u6280\u672f\u5f00\u53d1\u533a\uff09","short_name":"\u6e2f\u53e3","merger_name":"\u6c5f\u897f,\u5357\u660c,\u9752\u5c71\u6e56,\u767d\u6c34\u6e56\u7ba1\u7406\u5904,\u6e2f\u53e3","pinyin":"GangKou","lng":"115.886850","lat":"28.751260"},{"id":267106,"parent_id":267098,"level":4,"area_code":"360111481202","zip_code":"330013","city_code":"0791","name":"\u53cc\u6e2f\u6751\u59d4\u4f1a\uff08\u5357\u660c\u7ecf\u6d4e\u6280\u672f\u5f00\u53d1\u533a\uff09","short_name":"\u53cc\u6e2f","merger_name":"\u6c5f\u897f,\u5357\u660c,\u9752\u5c71\u6e56,\u767d\u6c34\u6e56\u7ba1\u7406\u5904,\u53cc\u6e2f","pinyin":"ShuangGang","lng":"115.840890","lat":"28.734580"},{"id":267107,"parent_id":267098,"level":4,"area_code":"360111481203","zip_code":"330013","city_code":"0791","name":"\u9e21\u5c71\u6751\u59d4\u4f1a\uff08\u5357\u660c\u7ecf\u6d4e\u6280\u672f\u5f00\u53d1\u533a\uff09","short_name":"\u9e21\u5c71","merger_name":"\u6c5f\u897f,\u5357\u660c,\u9752\u5c71\u6e56,\u767d\u6c34\u6e56\u7ba1\u7406\u5904,\u9e21\u5c71","pinyin":"JiShan","lng":"115.898007","lat":"28.759138"},{"id":267108,"parent_id":267098,"level":4,"area_code":"360111481204","zip_code":"330013","city_code":"0791","name":"\u5317\u5c71\u6751\u59d4\u4f1a\uff08\u5357\u660c\u7ecf\u6d4e\u6280\u672f\u5f00\u53d1\u533a\uff09","short_name":"\u5317\u5c71","merger_name":"\u6c5f\u897f,\u5357\u660c,\u9752\u5c71\u6e56,\u767d\u6c34\u6e56\u7ba1\u7406\u5904,\u5317\u5c71","pinyin":"BeiShan","lng":"115.889750","lat":"28.757970"},{"id":267109,"parent_id":267098,"level":4,"area_code":"360111481205","zip_code":"330044","city_code":"0791","name":"\u86df\u6865\u6751\u59d4\u4f1a\uff08\u5357\u660c\u7ecf\u6d4e\u6280\u672f\u5f00\u53d1\u533a\uff09","short_name":"\u86df\u6865","merger_name":"\u6c5f\u897f,\u5357\u660c,\u9752\u5c71\u6e56,\u767d\u6c34\u6e56\u7ba1\u7406\u5904,\u86df\u6865","pinyin":"JiaoQiao","lng":"115.850560","lat":"28.766820"},{"id":267110,"parent_id":267098,"level":4,"area_code":"360111481206","zip_code":"330046","city_code":"0791","name":"\u9ec4\u5802\u6751\u59d4\u4f1a\uff08\u5357\u660c\u7ecf\u6d4e\u6280\u672f\u5f00\u53d1\u533a\uff09","short_name":"\u9ec4\u5802","merger_name":"\u6c5f\u897f,\u5357\u660c,\u9752\u5c71\u6e56,\u767d\u6c34\u6e56\u7ba1\u7406\u5904,\u9ec4\u5802","pinyin":"HuangTang","lng":"115.851990","lat":"28.764660"},{"id":267111,"parent_id":267098,"level":4,"area_code":"360111481207","zip_code":"330012","city_code":"0791","name":"\u5357\u574a\u6751\u59d4\u4f1a\uff08\u5357\u660c\u7ecf\u6d4e\u6280\u672f\u5f00\u53d1\u533a\uff09","short_name":"\u5357\u574a","merger_name":"\u6c5f\u897f,\u5357\u660c,\u9752\u5c71\u6e56,\u767d\u6c34\u6e56\u7ba1\u7406\u5904,\u5357\u574a","pinyin":"NanFang","lng":"115.851990","lat":"28.764660"},{"id":267112,"parent_id":267098,"level":4,"area_code":"360111481208","zip_code":"330013","city_code":"0791","name":"\u4e2d\u8054\u6751\u59d4\u4f1a\uff08\u5357\u660c\u7ecf\u6d4e\u6280\u672f\u5f00\u53d1\u533a\uff09","short_name":"\u4e2d\u8054","merger_name":"\u6c5f\u897f,\u5357\u660c,\u9752\u5c71\u6e56,\u767d\u6c34\u6e56\u7ba1\u7406\u5904,\u4e2d\u8054","pinyin":"ZhongLian","lng":"115.851990","lat":"28.764660"},{"id":267113,"parent_id":267098,"level":4,"area_code":"360111481209","zip_code":"330046","city_code":"0791","name":"\u74dc\u6d32\u6751\u59d4\u4f1a\uff08\u5357\u660c\u7ecf\u6d4e\u6280\u672f\u5f00\u53d1\u533a\uff09","short_name":"\u74dc\u6d32","merger_name":"\u6c5f\u897f,\u5357\u660c,\u9752\u5c71\u6e56,\u767d\u6c34\u6e56\u7ba1\u7406\u5904,\u74dc\u6d32","pinyin":"GuaZhou","lng":"115.851990","lat":"28.764660"},{"id":267114,"parent_id":266861,"level":3,"area_code":"360111482000","zip_code":"330046","city_code":"0791","name":"\u51a0\u5c71\u7ba1\u7406\u5904\uff08\u5357\u660c\u7ecf\u6d4e\u6280\u672f\u5f00\u53d1\u533a\uff09","short_name":"\u51a0\u5c71\u7ba1\u7406\u5904","merger_name":"\u6c5f\u897f,\u5357\u660c,\u9752\u5c71\u6e56,\u51a0\u5c71\u7ba1\u7406\u5904","pinyin":"GuanShanGuanLiChu","lng":"115.858690","lat":"28.767380"},{"id":267115,"parent_id":267114,"level":4,"area_code":"360111482001","zip_code":"330046","city_code":"0791","name":"\u91d1\u4e30\u793e\u533a\u5c45\u59d4\u4f1a\uff08\u5357\u660c\u7ecf\u6d4e\u6280\u672f\u5f00\u53d1\u533a\uff09","short_name":"\u91d1\u4e30","merger_name":"\u6c5f\u897f,\u5357\u660c,\u9752\u5c71\u6e56,\u51a0\u5c71\u7ba1\u7406\u5904,\u91d1\u4e30","pinyin":"JinFeng","lng":"115.849620","lat":"28.774070"},{"id":267116,"parent_id":267114,"level":4,"area_code":"360111482002","zip_code":"330046","city_code":"0791","name":"\u6c5f\u897f\u65b9\u5411\u673a\u5382\u5bb6\u59d4\u4f1a\uff08\u5357\u660c\u7ecf\u6d4e\u6280\u672f\u5f00\u53d1\u533a\uff09","short_name":"\u6c5f\u897f\u65b9\u5411\u673a\u5382\u5bb6","merger_name":"\u6c5f\u897f,\u5357\u660c,\u9752\u5c71\u6e56,\u51a0\u5c71\u7ba1\u7406\u5904,\u6c5f\u897f\u65b9\u5411\u673a\u5382\u5bb6","pinyin":"JiangXiFangXiangJiChangJia","lng":"115.840890","lat":"28.734580"},{"id":267117,"parent_id":267114,"level":4,"area_code":"360111482003","zip_code":"330046","city_code":"0791","name":"\u6c5f\u897f\u53d8\u538b\u5668\u6709\u9650\u516c\u53f8\u5bb6\u59d4\u4f1a\uff08\u5357\u660c\u7ecf\u6d4e\u6280\u672f\u5f00\u53d1\u533a\uff09","short_name":"\u6c5f\u897f\u53d8\u538b\u5668\u6709\u9650\u516c\u53f8\u5bb6","merger_name":"\u6c5f\u897f,\u5357\u660c,\u9752\u5c71\u6e56,\u51a0\u5c71\u7ba1\u7406\u5904,\u6c5f\u897f\u53d8\u538b\u5668\u6709\u9650\u516c\u53f8\u5bb6","pinyin":"JiangXiBianYaQiYouXianGongSiJi","lng":"115.840890","lat":"28.734580"},{"id":267118,"parent_id":267114,"level":4,"area_code":"360111482004","zip_code":"330046","city_code":"0791","name":"\u519c\u4e1a\u673a\u6784\u7814\u7a76\u6240\u5bb6\u59d4\u4f1a\uff08\u5357\u660c\u7ecf\u6d4e\u6280\u672f\u5f00\u53d1\u533a\uff09","short_name":"\u519c\u4e1a\u673a\u6784\u7814\u7a76\u6240\u5bb6","merger_name":"\u6c5f\u897f,\u5357\u660c,\u9752\u5c71\u6e56,\u51a0\u5c71\u7ba1\u7406\u5904,\u519c\u4e1a\u673a\u6784\u7814\u7a76\u6240\u5bb6","pinyin":"NongYeJiGouYanJiuSuoJia","lng":"115.840890","lat":"28.734580"},{"id":267119,"parent_id":267114,"level":4,"area_code":"360111482005","zip_code":"330046","city_code":"0791","name":"\u91d1\u725b\u793e\u533a\u5c45\u59d4\u4f1a\uff08\u5357\u660c\u7ecf\u6d4e\u6280\u672f\u5f00\u53d1\u533a\uff09","short_name":"\u91d1\u725b","merger_name":"\u6c5f\u897f,\u5357\u660c,\u9752\u5c71\u6e56,\u51a0\u5c71\u7ba1\u7406\u5904,\u91d1\u725b","pinyin":"JinNiu","lng":"115.855690","lat":"28.776090"},{"id":267120,"parent_id":267114,"level":4,"area_code":"360111482006","zip_code":"330046","city_code":"0791","name":"\u91d1\u7267\u793e\u533a\u5c45\u6c11\u59d4\u5458\u4f1a\uff08\u5357\u660c\u7ecf\u6d4e\u6280\u672f\u5f00\u53d1\u533a\uff09","short_name":"\u91d1\u7267","merger_name":"\u6c5f\u897f,\u5357\u660c,\u9752\u5c71\u6e56,\u51a0\u5c71\u7ba1\u7406\u5904,\u91d1\u7267","pinyin":"JinMu","lng":"115.867550","lat":"28.774594"},{"id":267121,"parent_id":267114,"level":4,"area_code":"360111482200","zip_code":"330044","city_code":"0791","name":"\u4e94\u8054\u6751\u59d4\u4f1a\uff08\u5357\u660c\u7ecf\u6d4e\u6280\u672f\u5f00\u53d1\u533a\uff09","short_name":"\u4e94\u8054","merger_name":"\u6c5f\u897f,\u5357\u660c,\u9752\u5c71\u6e56,\u51a0\u5c71\u7ba1\u7406\u5904,\u4e94\u8054","pinyin":"WuLian","lng":"115.976590","lat":"28.692840"},{"id":267122,"parent_id":267114,"level":4,"area_code":"360111482201","zip_code":"330046","city_code":"0791","name":"\u90ed\u53f0\u6751\u59d4\u4f1a\uff08\u5357\u660c\u7ecf\u6d4e\u6280\u672f\u5f00\u53d1\u533a\uff09","short_name":"\u90ed\u53f0","merger_name":"\u6c5f\u897f,\u5357\u660c,\u9752\u5c71\u6e56,\u51a0\u5c71\u7ba1\u7406\u5904,\u90ed\u53f0","pinyin":"GuoTai","lng":"115.976590","lat":"28.692840"},{"id":267123,"parent_id":267114,"level":4,"area_code":"360111482202","zip_code":"330046","city_code":"0791","name":"\u5929\u6e90\u6751\u59d4\u4f1a\uff08\u5357\u660c\u7ecf\u6d4e\u6280\u672f\u5f00\u53d1\u533a\uff09","short_name":"\u5929\u6e90","merger_name":"\u6c5f\u897f,\u5357\u660c,\u9752\u5c71\u6e56,\u51a0\u5c71\u7ba1\u7406\u5904,\u5929\u6e90","pinyin":"TianYuan","lng":"115.840890","lat":"28.734580"},{"id":267124,"parent_id":267114,"level":4,"area_code":"360111482203","zip_code":"330013","city_code":"0791","name":"\u67ab\u6797\u6751\u59d4\u4f1a\uff08\u5357\u660c\u7ecf\u6d4e\u6280\u672f\u5f00\u53d1\u533a\uff09","short_name":"\u67ab\u6797","merger_name":"\u6c5f\u897f,\u5357\u660c,\u9752\u5c71\u6e56,\u51a0\u5c71\u7ba1\u7406\u5904,\u67ab\u6797","pinyin":"FengLin","lng":"115.850370","lat":"28.778260"},{"id":267125,"parent_id":267114,"level":4,"area_code":"360111482400","zip_code":"330046","city_code":"0791","name":"\u51a0\u5c71\u793e\u533a\uff08\u5357\u660c\u7ecf\u6d4e\u6280\u672f\u5f00\u53d1\u533a\uff09","short_name":"\u51a0\u5c71","merger_name":"\u6c5f\u897f,\u5357\u660c,\u9752\u5c71\u6e56,\u51a0\u5c71\u7ba1\u7406\u5904,\u51a0\u5c71","pinyin":"GuanShan","lng":"115.855730","lat":"28.775990"},{"id":267126,"parent_id":267114,"level":4,"area_code":"360111482500","zip_code":"330046","city_code":"0791","name":"\u51a0\u5c71\u5206\u573a\u751f\u6d3b\u533a\uff08\u5357\u660c\u7ecf\u6d4e\u6280\u672f\u5f00\u53d1\u533a\uff09","short_name":"\u51a0\u5c71\u5206\u573a","merger_name":"\u6c5f\u897f,\u5357\u660c,\u9752\u5c71\u6e56,\u51a0\u5c71\u7ba1\u7406\u5904,\u51a0\u5c71\u5206\u573a","pinyin":"GuanShanFenChang","lng":"115.976530","lat":"28.692880"},{"id":267127,"parent_id":267114,"level":4,"area_code":"360111482501","zip_code":"330012","city_code":"0791","name":"\u5357\u6e56\u5206\u573a\u751f\u6d3b\u533a\uff08\u5357\u660c\u7ecf\u6d4e\u6280\u672f\u5f00\u53d1\u533a\uff09","short_name":"\u5357\u6e56\u5206\u573a","merger_name":"\u6c5f\u897f,\u5357\u660c,\u9752\u5c71\u6e56,\u51a0\u5c71\u7ba1\u7406\u5904,\u5357\u6e56\u5206\u573a","pinyin":"NanHuFenChang","lng":"115.840890","lat":"28.734580"},{"id":267128,"parent_id":266861,"level":3,"area_code":"360111490000","zip_code":"330096","city_code":"0791","name":"\u827e\u6eaa\u6e56\u7ba1\u7406\u5904\uff08\u5357\u660c\u9ad8\u65b0\u5f00\u53d1\u533a\uff09","short_name":"\u827e\u6eaa\u6e56\u7ba1\u7406\u5904","merger_name":"\u6c5f\u897f,\u5357\u660c,\u9752\u5c71\u6e56,\u827e\u6eaa\u6e56\u7ba1\u7406\u5904","pinyin":"AiXiHuGuanLiChu","lng":"115.977031","lat":"28.692998"},{"id":267129,"parent_id":267128,"level":4,"area_code":"360111490200","zip_code":"330096","city_code":"0791","name":"\u5e7f\u9633\u6751\u59d4\u4f1a\uff08\u5357\u660c\u9ad8\u65b0\u5f00\u53d1\u533a\uff09","short_name":"\u5e7f\u9633","merger_name":"\u6c5f\u897f,\u5357\u660c,\u9752\u5c71\u6e56,\u827e\u6eaa\u6e56\u7ba1\u7406\u5904,\u5e7f\u9633","pinyin":"GuangYang","lng":"115.949550","lat":"28.813870"},{"id":267130,"parent_id":267128,"level":4,"area_code":"360111490201","zip_code":"330096","city_code":"0791","name":"\u827e\u6eaa\u6751\u59d4\u4f1a\uff08\u5357\u660c\u9ad8\u65b0\u5f00\u53d1\u533a\uff09","short_name":"\u827e\u6eaa","merger_name":"\u6c5f\u897f,\u5357\u660c,\u9752\u5c71\u6e56,\u827e\u6eaa\u6e56\u7ba1\u7406\u5904,\u827e\u6eaa","pinyin":"AiXi","lng":"115.976590","lat":"28.692840"},{"id":267131,"parent_id":267128,"level":4,"area_code":"360111490202","zip_code":"330096","city_code":"0791","name":"\u5357\u5858\u6751\u59d4\u4f1a\uff08\u5357\u660c\u9ad8\u65b0\u5f00\u53d1\u533a\uff09","short_name":"\u5357\u5858","merger_name":"\u6c5f\u897f,\u5357\u660c,\u9752\u5c71\u6e56,\u827e\u6eaa\u6e56\u7ba1\u7406\u5904,\u5357\u5858","pinyin":"NanTang","lng":"115.976590","lat":"28.692840"},{"id":267132,"parent_id":267128,"level":4,"area_code":"360111490203","zip_code":"330096","city_code":"0791","name":"\u9093\u574a\u6751\u59d4\u4f1a\uff08\u5357\u660c\u9ad8\u65b0\u5f00\u53d1\u533a\uff09","short_name":"\u9093\u574a","merger_name":"\u6c5f\u897f,\u5357\u660c,\u9752\u5c71\u6e56,\u827e\u6eaa\u6e56\u7ba1\u7406\u5904,\u9093\u574a","pinyin":"DengFang","lng":"115.976590","lat":"28.692840"},{"id":267133,"parent_id":267128,"level":4,"area_code":"360111490204","zip_code":"330096","city_code":"0791","name":"\u9c7c\u5c3e\u6751\u59d4\u4f1a\uff08\u5357\u660c\u9ad8\u65b0\u5f00\u53d1\u533a\uff09","short_name":"\u9c7c\u5c3e","merger_name":"\u6c5f\u897f,\u5357\u660c,\u9752\u5c71\u6e56,\u827e\u6eaa\u6e56\u7ba1\u7406\u5904,\u9c7c\u5c3e","pinyin":"YuWei","lng":"115.976590","lat":"28.692840"},{"id":267134,"parent_id":267128,"level":4,"area_code":"360111490205","zip_code":"330096","city_code":"0791","name":"\u5317\u6ca5\u6751\u59d4\u4f1a\uff08\u5357\u660c\u9ad8\u65b0\u5f00\u53d1\u533a\uff09","short_name":"\u5317\u6ca5","merger_name":"\u6c5f\u897f,\u5357\u660c,\u9752\u5c71\u6e56,\u827e\u6eaa\u6e56\u7ba1\u7406\u5904,\u5317\u6ca5","pinyin":"BeiLi","lng":"115.972810","lat":"28.719030"},{"id":267135,"parent_id":267128,"level":4,"area_code":"360111490206","zip_code":"330096","city_code":"0791","name":"\u827e\u6e56\u6751\u59d4\u4f1a\uff08\u5357\u660c\u9ad8\u65b0\u5f00\u53d1\u533a\uff09","short_name":"\u827e\u6e56","merger_name":"\u6c5f\u897f,\u5357\u660c,\u9752\u5c71\u6e56,\u827e\u6eaa\u6e56\u7ba1\u7406\u5904,\u827e\u6e56","pinyin":"AiHu","lng":"115.971200","lat":"28.695340"},{"id":267136,"parent_id":267128,"level":4,"area_code":"360111490500","zip_code":"330096","city_code":"0791","name":"\u827e\u6eaa\u6e56\u6c34\u4ea7\u573a\u751f\u6d3b\u533a","short_name":"\u827e\u6eaa\u6e56\u6c34\u4ea7\u573a","merger_name":"\u6c5f\u897f,\u5357\u660c,\u9752\u5c71\u6e56,\u827e\u6eaa\u6e56\u7ba1\u7406\u5904,\u827e\u6eaa\u6e56\u6c34\u4ea7\u573a","pinyin":"AiXiHuShuiChanChang","lng":"115.918140","lat":"28.709060"},{"id":267137,"parent_id":266861,"level":3,"area_code":"360111493000","zip_code":"330046","city_code":"0791","name":"\u6e56\u897f\u65b0\u5efa\u533a\uff08\u5357\u660c\u9ad8\u65b0\u5f00\u53d1\u533a\uff09","short_name":"\u6e56\u897f\u65b0\u5efa\u533a","merger_name":"\u6c5f\u897f,\u5357\u660c,\u9752\u5c71\u6e56,\u6e56\u897f\u65b0\u5efa\u533a","pinyin":"HuXiXinJianQu","lng":"115.948520","lat":"28.689990"},{"id":267138,"parent_id":267137,"level":4,"area_code":"360111493001","zip_code":"330046","city_code":"0791","name":"\u4e07\u79d1\u5357\u793e\u533a\u5c45\u6c11\u59d4\u5458\u4f1a\uff08\u5357\u660c\u9ad8\u65b0\u5f00\u53d1\u533a\uff09","short_name":"\u4e07\u79d1\u5357","merger_name":"\u6c5f\u897f,\u5357\u660c,\u9752\u5c71\u6e56,\u6e56\u897f\u65b0\u5efa\u533a,\u4e07\u79d1\u5357","pinyin":"WanKeNan","lng":"115.979900","lat":"28.695950"},{"id":267139,"parent_id":267137,"level":4,"area_code":"360111493002","zip_code":"330046","city_code":"0791","name":"\u4e07\u79d1\u5317\u793e\u533a\u5c45\u6c11\u59d4\u5458\u4f1a\uff08\u5357\u660c\u9ad8\u65b0\u5f00\u53d1\u533a\uff09","short_name":"\u4e07\u79d1\u5317","merger_name":"\u6c5f\u897f,\u5357\u660c,\u9752\u5c71\u6e56,\u6e56\u897f\u65b0\u5efa\u533a,\u4e07\u79d1\u5317","pinyin":"WanKeBei","lng":"115.979900","lat":"28.695950"},{"id":267140,"parent_id":267137,"level":4,"area_code":"360111493003","zip_code":"330046","city_code":"0791","name":"\u51ef\u7f8e\u6021\u548c\u793e\u533a\u5c45\u6c11\u59d4\u5458\u4f1a\uff08\u5357\u660c\u9ad8\u65b0\u5f00\u53d1\u533a\uff09","short_name":"\u51ef\u7f8e\u6021\u548c","merger_name":"\u6c5f\u897f,\u5357\u660c,\u9752\u5c71\u6e56,\u6e56\u897f\u65b0\u5efa\u533a,\u51ef\u7f8e\u6021\u548c","pinyin":"KaiMeiYiHe","lng":"115.979900","lat":"28.695950"},{"id":267141,"parent_id":267137,"level":4,"area_code":"360111493004","zip_code":"330096","city_code":"0791","name":"\u4e2d\u51ef\u84dd\u57df\u793e\u533a\u5c45\u6c11\u59d4\u5458\u4f1a\uff08\u5357\u660c\u9ad8\u65b0\u5f00\u53d1\u533a\uff09","short_name":"\u4e2d\u51ef\u84dd\u57df","merger_name":"\u6c5f\u897f,\u5357\u660c,\u9752\u5c71\u6e56,\u6e56\u897f\u65b0\u5efa\u533a,\u4e2d\u51ef\u84dd\u57df","pinyin":"ZhongKaiLanYu","lng":"115.979900","lat":"28.695950"},{"id":267142,"parent_id":267137,"level":4,"area_code":"360111493005","zip_code":"330046","city_code":"0791","name":"\u7af9\u82d1\u5c45\u6c11\u59d4\u5458\u4f1a\uff08\u5357\u660c\u9ad8\u65b0\u5f00\u53d1\u533a\uff09","short_name":"\u7af9\u82d1\u5c45\u6c11\u59d4\u5458\u4f1a","merger_name":"\u6c5f\u897f,\u5357\u660c,\u9752\u5c71\u6e56,\u6e56\u897f\u65b0\u5efa\u533a,\u7af9\u82d1\u5c45\u6c11\u59d4\u5458\u4f1a","pinyin":"ZhuYuanJuMinWeiYuanHui","lng":"115.948680","lat":"28.686070"},{"id":267143,"parent_id":267137,"level":4,"area_code":"360111493006","zip_code":"330046","city_code":"0791","name":"\u5357\u660c\u9ad8\u65b0\u6280\u672f\u4ea7\u4e1a\u5f00\u53d1\u533a\u827e\u6eaa\u6e56\u7ba1\u7406\u5904\u5b7a\u5b50\u793e\u533a\u5c45\u59d4\u4f1a\uff08\u5357\u660c\u9ad8\u65b0\u5f00\u53d1\u533a\uff09","short_name":"\u5357\u660c\u9ad8\u65b0\u533a\u827e\u6eaa\u6e56\u7ba1\u7406\u5904\u5b7a\u5b50\u793e\u533a\u5c45\u59d4\u4f1a","merger_name":"\u6c5f\u897f,\u5357\u660c,\u9752\u5c71\u6e56,\u6e56\u897f\u65b0\u5efa\u533a,\u5357\u660c\u9ad8\u65b0\u533a\u827e\u6eaa\u6e56\u7ba1\u7406\u5904\u5b7a\u5b50\u793e\u533a\u5c45\u59d4\u4f1a","pinyin":"NanChangGaoXinQuAiXiHuGuanLiCh","lng":"115.983711","lat":"28.655578"},{"id":267144,"parent_id":267137,"level":4,"area_code":"360111493007","zip_code":"330046","city_code":"0791","name":"\u5357\u660c\u9ad8\u65b0\u6280\u672f\u4ea7\u4e1a\u5f00\u53d1\u533a\u827e\u6eaa\u6e56\u7ba1\u7406\u5904\u6eaa\u6e56\u5357\u793e\u533a\u5c45\u59d4\u4f1a\uff08\u5357\u660c\u9ad8\u65b0\u5f00\u53d1\u533a\uff09","short_name":"\u5357\u660c\u9ad8\u65b0\u533a\u827e\u6eaa\u6e56\u7ba1\u7406\u5904\u6eaa\u6e56\u5357\u793e\u533a\u5c45\u59d4\u4f1a","merger_name":"\u6c5f\u897f,\u5357\u660c,\u9752\u5c71\u6e56,\u6e56\u897f\u65b0\u5efa\u533a,\u5357\u660c\u9ad8\u65b0\u533a\u827e\u6eaa\u6e56\u7ba1\u7406\u5904\u6eaa\u6e56\u5357\u793e\u533a\u5c45\u59d4\u4f1a","pinyin":"NanChangGaoXinQuAiXiHuGuanLiCh","lng":"115.960150","lat":"28.698030"},{"id":267145,"parent_id":267137,"level":4,"area_code":"360111493008","zip_code":"330046","city_code":"0791","name":"\u5357\u660c\u9ad8\u65b0\u6280\u672f\u4ea7\u4e1a\u5f00\u53d1\u533a\u827e\u6eaa\u6e56\u7ba1\u7406\u5904\u9f99\u6c5f\u793e\u533a\u5c45\u59d4\u4f1a\uff08\u5357\u660c\u9ad8\u65b0\u5f00\u53d1\u533a\uff09","short_name":"\u5357\u660c\u9ad8\u65b0\u533a\u827e\u6eaa\u6e56\u7ba1\u7406\u5904\u9f99\u6c5f\u793e\u533a\u5c45\u59d4\u4f1a","merger_name":"\u6c5f\u897f,\u5357\u660c,\u9752\u5c71\u6e56,\u6e56\u897f\u65b0\u5efa\u533a,\u5357\u660c\u9ad8\u65b0\u533a\u827e\u6eaa\u6e56\u7ba1\u7406\u5904\u9f99\u6c5f\u793e\u533a\u5c45\u59d4\u4f1a","pinyin":"NanChangGaoXinQuAiXiHuGuanLiCh","lng":"115.979900","lat":"28.695950"},{"id":267146,"parent_id":267137,"level":4,"area_code":"360111493009","zip_code":"330046","city_code":"0791","name":"\u5357\u660c\u9ad8\u65b0\u6280\u672f\u4ea7\u4e1a\u5f00\u53d1\u533a\u827e\u6eaa\u6e56\u7ba1\u7406\u5904\u65b0\u90fd\u793e\u533a\u5c45\u59d4\u4f1a\uff08\u5357\u660c\u9ad8\u65b0\u5f00\u53d1\u533a\uff09","short_name":"\u5357\u660c\u9ad8\u65b0\u533a\u827e\u6eaa\u6e56\u7ba1\u7406\u5904\u65b0\u90fd\u793e\u533a\u5c45\u59d4\u4f1a","merger_name":"\u6c5f\u897f,\u5357\u660c,\u9752\u5c71\u6e56,\u6e56\u897f\u65b0\u5efa\u533a,\u5357\u660c\u9ad8\u65b0\u533a\u827e\u6eaa\u6e56\u7ba1\u7406\u5904\u65b0\u90fd\u793e\u533a\u5c45\u59d4\u4f1a","pinyin":"NanChangGaoXinQuAiXiHuGuanLiCh","lng":"115.960150","lat":"28.698030"},{"id":267147,"parent_id":267137,"level":4,"area_code":"360111493010","zip_code":"330046","city_code":"0791","name":"\u5357\u660c\u9ad8\u65b0\u6280\u672f\u4ea7\u4e1a\u5f00\u53d1\u533a\u827e\u6eaa\u6e56\u7ba1\u7406\u5904\u6e56\u69df\u793e\u533a\u5c45\u59d4\u4f1a\uff08\u5357\u660c\u9ad8\u65b0\u5f00\u53d1\u533a\uff09","short_name":"\u5357\u660c\u9ad8\u65b0\u533a\u827e\u6eaa\u6e56\u7ba1\u7406\u5904\u6e56\u69df\u793e\u533a\u5c45\u59d4\u4f1a","merger_name":"\u6c5f\u897f,\u5357\u660c,\u9752\u5c71\u6e56,\u6e56\u897f\u65b0\u5efa\u533a,\u5357\u660c\u9ad8\u65b0\u533a\u827e\u6eaa\u6e56\u7ba1\u7406\u5904\u6e56\u69df\u793e\u533a\u5c45\u59d4\u4f1a","pinyin":"NanChangGaoXinQuAiXiHuGuanLiCh","lng":"115.932396","lat":"28.683503"},{"id":267148,"parent_id":267137,"level":4,"area_code":"360111493011","zip_code":"330046","city_code":"0791","name":"\u5357\u660c\u9ad8\u65b0\u6280\u672f\u4ea7\u4e1a\u5f00\u53d1\u533a\u827e\u6eaa\u6e56\u7ba1\u7406\u5904\u4e0a\u4e0a\u57ce\u793e\u533a","short_name":"\u5357\u660c\u9ad8\u65b0\u533a\u827e\u6eaa\u6e56\u7ba1\u7406\u5904\u4e0a\u4e0a\u57ce\u793e\u533a","merger_name":"\u6c5f\u897f,\u5357\u660c,\u9752\u5c71\u6e56,\u6e56\u897f\u65b0\u5efa\u533a,\u5357\u660c\u9ad8\u65b0\u533a\u827e\u6eaa\u6e56\u7ba1\u7406\u5904\u4e0a\u4e0a\u57ce\u793e\u533a","pinyin":"NanChangGaoXinQuAiXiHuGuanLiCh","lng":"115.960150","lat":"28.698030"},{"id":267149,"parent_id":267137,"level":4,"area_code":"360111493012","zip_code":"330046","city_code":"0791","name":"\u5357\u660c\u9ad8\u65b0\u6280\u672f\u4ea7\u4e1a\u5f00\u53d1\u533a\u827e\u6eaa\u6e56\u7ba1\u7406\u5904\u6e29\u838e\u793e\u533a","short_name":"\u5357\u660c\u9ad8\u65b0\u533a\u827e\u6eaa\u6e56\u7ba1\u7406\u5904\u6e29\u838e\u793e\u533a","merger_name":"\u6c5f\u897f,\u5357\u660c,\u9752\u5c71\u6e56,\u6e56\u897f\u65b0\u5efa\u533a,\u5357\u660c\u9ad8\u65b0\u533a\u827e\u6eaa\u6e56\u7ba1\u7406\u5904\u6e29\u838e\u793e\u533a","pinyin":"NanChangGaoXinQuAiXiHuGuanLiCh","lng":"115.998859","lat":"28.687663"},{"id":267150,"parent_id":267137,"level":4,"area_code":"360111493013","zip_code":"330046","city_code":"0791","name":"\u541b\u60a6\u6e56\u793e\u533a\u5c45\u59d4\u4f1a\uff08\u5357\u660c\u9ad8\u65b0\u5f00\u53d1\u533a\uff09","short_name":"\u541b\u60a6\u6e56","merger_name":"\u6c5f\u897f,\u5357\u660c,\u9752\u5c71\u6e56,\u6e56\u897f\u65b0\u5efa\u533a,\u541b\u60a6\u6e56","pinyin":"JunYueHu","lng":"115.948680","lat":"28.686070"},{"id":267151,"parent_id":267137,"level":4,"area_code":"360111493014","zip_code":"330046","city_code":"0791","name":"\u6e56\u97f5\u5929\u57ce\u793e\u533a\u5c45\u59d4\u4f1a\uff08\u5357\u660c\u9ad8\u65b0\u5f00\u53d1\u533a\uff09","short_name":"\u6e56\u97f5\u5929\u57ce","merger_name":"\u6c5f\u897f,\u5357\u660c,\u9752\u5c71\u6e56,\u6e56\u897f\u65b0\u5efa\u533a,\u6e56\u97f5\u5929\u57ce","pinyin":"HuYunTianCheng","lng":"115.948680","lat":"28.686070"},{"id":267152,"parent_id":267137,"level":4,"area_code":"360111493015","zip_code":"330046","city_code":"0791","name":"\u548c\u56ed\u793e\u533a\u5c45\u59d4\u4f1a\uff08\u5357\u660c\u9ad8\u65b0\u5f00\u53d1\u533a\uff09","short_name":"\u548c\u56ed","merger_name":"\u6c5f\u897f,\u5357\u660c,\u9752\u5c71\u6e56,\u6e56\u897f\u65b0\u5efa\u533a,\u548c\u56ed","pinyin":"HeYuan","lng":"115.948680","lat":"28.686070"},{"id":267153,"parent_id":267137,"level":4,"area_code":"360111493016","zip_code":"330096","city_code":"0791","name":"\u827e\u6eaa\u5eb7\u6865\u793e\u533a\u5c45\u59d4\u4f1a\uff08\u5357\u660c\u9ad8\u65b0\u5f00\u53d1\u533a\uff09","short_name":"\u827e\u6eaa\u5eb7\u6865","merger_name":"\u6c5f\u897f,\u5357\u660c,\u9752\u5c71\u6e56,\u6e56\u897f\u65b0\u5efa\u533a,\u827e\u6eaa\u5eb7\u6865","pinyin":"AiXiKangQiao","lng":"115.948680","lat":"28.686070"},{"id":267154,"parent_id":267137,"level":4,"area_code":"360111493017","zip_code":"330096","city_code":"0791","name":"\u6eaa\u6e56\u5317\u793e\u533a\u5c45\u59d4\u4f1a\uff08\u5357\u660c\u9ad8\u65b0\u5f00\u53d1\u533a\uff09","short_name":"\u6eaa\u6e56\u5317","merger_name":"\u6c5f\u897f,\u5357\u660c,\u9752\u5c71\u6e56,\u6e56\u897f\u65b0\u5efa\u533a,\u6eaa\u6e56\u5317","pinyin":"XiHuBei","lng":"115.984380","lat":"28.711650"},{"id":267155,"parent_id":267137,"level":4,"area_code":"360111493401","zip_code":"330046","city_code":"0791","name":"\u6e56\u897f\u65b0\u5efa\u533a\u793e\u533a\uff08\u5357\u660c\u9ad8\u65b0\u5f00\u53d1\u533a\uff09","short_name":"\u6e56\u897f\u65b0\u5efa\u533a","merger_name":"\u6c5f\u897f,\u5357\u660c,\u9752\u5c71\u6e56,\u6e56\u897f\u65b0\u5efa\u533a,\u6e56\u897f\u65b0\u5efa\u533a","pinyin":"HuXiXinJianQu","lng":"115.979900","lat":"28.695950"},{"id":267156,"parent_id":266338,"level":2,"area_code":"360112000000","zip_code":"330100","city_code":"0791","name":"\u65b0\u5efa\u533a","short_name":"\u65b0\u5efa","merger_name":"\u6c5f\u897f,\u5357\u660c,\u65b0\u5efa","pinyin":"XinJian","lng":"115.815278","lat":"28.692864"},{"id":267157,"parent_id":267156,"level":3,"area_code":"360112100000","zip_code":"330199","city_code":"0791","name":"\u957f\u580e\u9547","short_name":"\u957f\u580e","merger_name":"\u6c5f\u897f,\u5357\u660c,\u65b0\u5efa,\u957f\u580e","pinyin":"ZhangLeng","lng":"115.821270","lat":"28.696970"},{"id":267158,"parent_id":267157,"level":4,"area_code":"360112100001","zip_code":"330199","city_code":"0791","name":"\u51e4\u51f0\u5c71\u5c45\u59d4\u4f1a","short_name":"\u51e4\u51f0\u5c71","merger_name":"\u6c5f\u897f,\u5357\u660c,\u65b0\u5efa,\u957f\u580e,\u51e4\u51f0\u5c71","pinyin":"FengHuangShan","lng":"115.819670","lat":"28.693290"},{"id":267159,"parent_id":267157,"level":4,"area_code":"360112100002","zip_code":"330199","city_code":"0791","name":"\u82b1\u679c\u5c71\u5c45\u59d4\u4f1a","short_name":"\u82b1\u679c\u5c71","merger_name":"\u6c5f\u897f,\u5357\u660c,\u65b0\u5efa,\u957f\u580e,\u82b1\u679c\u5c71","pinyin":"HuaGuoShan","lng":"115.826131","lat":"28.693518"},{"id":267160,"parent_id":267157,"level":4,"area_code":"360112100003","zip_code":"330199","city_code":"0791","name":"\u5e7f\u573a\u5c45\u59d4\u4f1a","short_name":"\u5e7f\u573a","merger_name":"\u6c5f\u897f,\u5357\u660c,\u65b0\u5efa,\u957f\u580e,\u5e7f\u573a","pinyin":"GuangChang","lng":"115.687950","lat":"28.644780"},{"id":267161,"parent_id":267157,"level":4,"area_code":"360112100004","zip_code":"330199","city_code":"0791","name":"\u5317\u6797\u5c45\u59d4\u4f1a","short_name":"\u5317\u6797","merger_name":"\u6c5f\u897f,\u5357\u660c,\u65b0\u5efa,\u957f\u580e,\u5317\u6797","pinyin":"BeiLin","lng":"115.813478","lat":"28.689248"},{"id":267162,"parent_id":267157,"level":4,"area_code":"360112100005","zip_code":"330199","city_code":"0791","name":"\u81ea\u5f3a\u8def\u5c45\u59d4\u4f1a","short_name":"\u81ea\u5f3a\u8def","merger_name":"\u6c5f\u897f,\u5357\u660c,\u65b0\u5efa,\u957f\u580e,\u81ea\u5f3a\u8def","pinyin":"ZiQiangLu","lng":"115.817272","lat":"28.687908"},{"id":267163,"parent_id":267157,"level":4,"area_code":"360112100006","zip_code":"330199","city_code":"0791","name":"\u6587\u6559\u8def\u5c45\u59d4\u4f1a","short_name":"\u6587\u6559\u8def","merger_name":"\u6c5f\u897f,\u5357\u660c,\u65b0\u5efa,\u957f\u580e,\u6587\u6559\u8def","pinyin":"WenJiaoLu","lng":"115.818310","lat":"28.688780"},{"id":267164,"parent_id":267157,"level":4,"area_code":"360112100007","zip_code":"330199","city_code":"0791","name":"\u7acb\u65b0\u8def\u5c45\u59d4\u4f1a","short_name":"\u7acb\u65b0\u8def","merger_name":"\u6c5f\u897f,\u5357\u660c,\u65b0\u5efa,\u957f\u580e,\u7acb\u65b0\u8def","pinyin":"LiXinLu","lng":"115.821970","lat":"28.690580"},{"id":267165,"parent_id":267157,"level":4,"area_code":"360112100008","zip_code":"330199","city_code":"0791","name":"\u5efa\u8bbe\u8def\u5c45\u59d4\u4f1a","short_name":"\u5efa\u8bbe\u8def","merger_name":"\u6c5f\u897f,\u5357\u660c,\u65b0\u5efa,\u957f\u580e,\u5efa\u8bbe\u8def","pinyin":"JianSheLu","lng":"115.817260","lat":"28.688010"},{"id":267166,"parent_id":267157,"level":4,"area_code":"360112100009","zip_code":"330199","city_code":"0791","name":"\u4e1c\u6e56\u5df7\u5c45\u59d4\u4f1a","short_name":"\u4e1c\u6e56\u5df7","merger_name":"\u6c5f\u897f,\u5357\u660c,\u65b0\u5efa,\u957f\u580e,\u4e1c\u6e56\u5df7","pinyin":"DongHuXiang","lng":"115.827099","lat":"28.683810"},{"id":267167,"parent_id":267157,"level":4,"area_code":"360112100010","zip_code":"330199","city_code":"0791","name":"\u96c6\u8d38\u5c45\u59d4\u4f1a","short_name":"\u96c6\u8d38","merger_name":"\u6c5f\u897f,\u5357\u660c,\u65b0\u5efa,\u957f\u580e,\u96c6\u8d38","pinyin":"JiMao","lng":"115.687950","lat":"28.644780"},{"id":267168,"parent_id":267157,"level":4,"area_code":"360112100011","zip_code":"330199","city_code":"0791","name":"\u957f\u5b89\u5c45\u59d4\u4f1a","short_name":"\u957f\u5b89","merger_name":"\u6c5f\u897f,\u5357\u660c,\u65b0\u5efa,\u957f\u580e,\u957f\u5b89","pinyin":"ChangAn","lng":"115.822173","lat":"28.682919"},{"id":267169,"parent_id":267157,"level":4,"area_code":"360112100012","zip_code":"330199","city_code":"0791","name":"\u67d8\u6e56\u5c71\u5c45\u59d4\u4f1a","short_name":"\u67d8\u6e56\u5c71","merger_name":"\u6c5f\u897f,\u5357\u660c,\u65b0\u5efa,\u957f\u580e,\u67d8\u6e56\u5c71","pinyin":"ZheHuShan","lng":"115.821030","lat":"28.678640"},{"id":267170,"parent_id":267157,"level":4,"area_code":"360112100013","zip_code":"330199","city_code":"0791","name":"\u57ce\u5f00\u5b66\u56ed\u5c45\u59d4\u4f1a","short_name":"\u57ce\u5f00\u5b66\u56ed","merger_name":"\u6c5f\u897f,\u5357\u660c,\u65b0\u5efa,\u957f\u580e,\u57ce\u5f00\u5b66\u56ed","pinyin":"ChengKaiXueYuan","lng":"115.983711","lat":"28.655578"},{"id":267171,"parent_id":267157,"level":4,"area_code":"360112100014","zip_code":"330199","city_code":"0791","name":"\u83b1\u5361\u5c0f\u9547\u5c45\u59d4\u4f1a","short_name":"\u83b1\u5361\u5c0f\u9547","merger_name":"\u6c5f\u897f,\u5357\u660c,\u65b0\u5efa,\u957f\u580e,\u83b1\u5361\u5c0f\u9547","pinyin":"LaiKaXiaoZhen","lng":"115.802020","lat":"28.701220"},{"id":267172,"parent_id":267157,"level":4,"area_code":"360112100015","zip_code":"330199","city_code":"0791","name":"\u6cbf\u6d77\u4e3d\u6c34\u4f73\u56ed\u5c45\u59d4\u4f1a","short_name":"\u6cbf\u6d77\u4e3d\u6c34\u4f73\u56ed","merger_name":"\u6c5f\u897f,\u5357\u660c,\u65b0\u5efa,\u957f\u580e,\u6cbf\u6d77\u4e3d\u6c34\u4f73\u56ed","pinyin":"YanHaiLiShuiJiaYuan","lng":"115.857263","lat":"28.679846"},{"id":267173,"parent_id":267157,"level":4,"area_code":"360112100016","zip_code":"330199","city_code":"0791","name":"\u6717\u775b\u56ed\u5c45\u59d4\u4f1a","short_name":"\u6717\u775b\u56ed","merger_name":"\u6c5f\u897f,\u5357\u660c,\u65b0\u5efa,\u957f\u580e,\u6717\u775b\u56ed","pinyin":"LangJingYuan","lng":"115.687950","lat":"28.644780"},{"id":267174,"parent_id":267157,"level":4,"area_code":"360112100200","zip_code":"330199","city_code":"0791","name":"\u793c\u6b65\u6751\u59d4\u4f1a","short_name":"\u793c\u6b65","merger_name":"\u6c5f\u897f,\u5357\u660c,\u65b0\u5efa,\u957f\u580e,\u793c\u6b65","pinyin":"LiBu","lng":"115.832065","lat":"28.689759"},{"id":267175,"parent_id":267157,"level":4,"area_code":"360112100201","zip_code":"330199","city_code":"0791","name":"\u957f\u580e\u6751\u59d4\u4f1a","short_name":"\u957f\u580e","merger_name":"\u6c5f\u897f,\u5357\u660c,\u65b0\u5efa,\u957f\u580e,\u957f\u580e","pinyin":"ZhangLeng","lng":"115.687950","lat":"28.644780"},{"id":267176,"parent_id":267157,"level":4,"area_code":"360112100202","zip_code":"330199","city_code":"0791","name":"\u524d\u8fdb\u6751\u59d4\u4f1a","short_name":"\u524d\u8fdb","merger_name":"\u6c5f\u897f,\u5357\u660c,\u65b0\u5efa,\u957f\u580e,\u524d\u8fdb","pinyin":"QianJin","lng":"115.796520","lat":"28.688800"},{"id":267177,"parent_id":267157,"level":4,"area_code":"360112100500","zip_code":"330199","city_code":"0791","name":"\u5b9e\u9a8c\u519c\u573a\u751f\u6d3b\u533a","short_name":"\u5b9e\u9a8c\u519c\u573a","merger_name":"\u6c5f\u897f,\u5357\u660c,\u65b0\u5efa,\u957f\u580e,\u5b9e\u9a8c\u519c\u573a","pinyin":"ShiYanNongChang","lng":"115.835436","lat":"28.685630"},{"id":267178,"parent_id":267157,"level":4,"area_code":"360112100501","zip_code":"330199","city_code":"0791","name":"\u5317\u90ca\u6797\u573a\u751f\u6d3b\u533a","short_name":"\u5317\u90ca\u6797\u573a","merger_name":"\u6c5f\u897f,\u5357\u660c,\u65b0\u5efa,\u957f\u580e,\u5317\u90ca\u6797\u573a","pinyin":"BeiJiaoLinChang","lng":"115.989170","lat":"28.653930"},{"id":267179,"parent_id":267156,"level":3,"area_code":"360112101000","zip_code":"330103","city_code":"0791","name":"\u671b\u57ce\u9547","short_name":"\u671b\u57ce","merger_name":"\u6c5f\u897f,\u5357\u660c,\u65b0\u5efa,\u671b\u57ce","pinyin":"WangCheng","lng":"115.763700","lat":"28.672780"},{"id":267180,"parent_id":267179,"level":4,"area_code":"360112101001","zip_code":"330103","city_code":"0791","name":"\u671b\u57ce\u8857\u5c45\u59d4\u4f1a","short_name":"\u671b\u57ce\u8857","merger_name":"\u6c5f\u897f,\u5357\u660c,\u65b0\u5efa,\u671b\u57ce,\u671b\u57ce\u8857","pinyin":"WangChengJie","lng":"115.782072","lat":"28.673809"},{"id":267181,"parent_id":267179,"level":4,"area_code":"360112101002","zip_code":"330103","city_code":"0791","name":"\u749c\u6eaa\u8857\u5c45\u59d4\u4f1a","short_name":"\u749c\u6eaa\u8857","merger_name":"\u6c5f\u897f,\u5357\u660c,\u65b0\u5efa,\u671b\u57ce,\u749c\u6eaa\u8857","pinyin":"HuangXiJie","lng":"115.736350","lat":"28.627540"},{"id":267182,"parent_id":267179,"level":4,"area_code":"360112101003","zip_code":"330103","city_code":"0791","name":"\u5c0f\u5e73\u5c0f\u9053\u793e\u533a\u5c45\u59d4\u4f1a","short_name":"\u5c0f\u5e73\u5c0f\u9053","merger_name":"\u6c5f\u897f,\u5357\u660c,\u65b0\u5efa,\u671b\u57ce,\u5c0f\u5e73\u5c0f\u9053","pinyin":"XiaoPingXiaoDao","lng":"115.785021","lat":"28.701879"},{"id":267183,"parent_id":267179,"level":4,"area_code":"360112101200","zip_code":"330103","city_code":"0791","name":"\u7701\u5e84\u6751\u59d4\u4f1a","short_name":"\u7701\u5e84","merger_name":"\u6c5f\u897f,\u5357\u660c,\u65b0\u5efa,\u671b\u57ce,\u7701\u5e84","pinyin":"ShengZhuang","lng":"115.803220","lat":"28.672980"},{"id":267184,"parent_id":267179,"level":4,"area_code":"360112101201","zip_code":"330103","city_code":"0791","name":"\u5c0f\u6865\u6751\u59d4\u4f1a","short_name":"\u5c0f\u6865","merger_name":"\u6c5f\u897f,\u5357\u660c,\u65b0\u5efa,\u671b\u57ce,\u5c0f\u6865","pinyin":"XiaoQiao","lng":"116.029087","lat":"28.540898"},{"id":267185,"parent_id":267179,"level":4,"area_code":"360112101202","zip_code":"330103","city_code":"0791","name":"\u4e09\u8054\u6751\u59d4\u4f1a","short_name":"\u4e09\u8054","merger_name":"\u6c5f\u897f,\u5357\u660c,\u65b0\u5efa,\u671b\u57ce,\u4e09\u8054","pinyin":"SanLian","lng":"115.758600","lat":"28.649850"},{"id":267186,"parent_id":267179,"level":4,"area_code":"360112101203","zip_code":"330103","city_code":"0791","name":"\u56db\u8054\u6751\u59d4\u4f1a","short_name":"\u56db\u8054","merger_name":"\u6c5f\u897f,\u5357\u660c,\u65b0\u5efa,\u671b\u57ce,\u56db\u8054","pinyin":"SiLian","lng":"115.753570","lat":"28.652540"},{"id":267187,"parent_id":267179,"level":4,"area_code":"360112101204","zip_code":"330103","city_code":"0791","name":"\u9752\u897f\u6751\u59d4\u4f1a","short_name":"\u9752\u897f","merger_name":"\u6c5f\u897f,\u5357\u660c,\u65b0\u5efa,\u671b\u57ce,\u9752\u897f","pinyin":"QingXi","lng":"115.731820","lat":"28.658510"},{"id":267188,"parent_id":267179,"level":4,"area_code":"360112101205","zip_code":"330103","city_code":"0791","name":"\u9752\u5c71\u6751\u59d4\u4f1a","short_name":"\u9752\u5c71","merger_name":"\u6c5f\u897f,\u5357\u660c,\u65b0\u5efa,\u671b\u57ce,\u9752\u5c71","pinyin":"QingShan","lng":"115.731820","lat":"28.658510"},{"id":267189,"parent_id":267179,"level":4,"area_code":"360112101206","zip_code":"330103","city_code":"0791","name":"\u5e78\u798f\u6751\u59d4\u4f1a","short_name":"\u5e78\u798f","merger_name":"\u6c5f\u897f,\u5357\u660c,\u65b0\u5efa,\u671b\u57ce,\u5e78\u798f","pinyin":"XingFu","lng":"115.699270","lat":"28.675620"},{"id":267190,"parent_id":267179,"level":4,"area_code":"360112101207","zip_code":"330103","city_code":"0791","name":"\u94dc\u6e90\u6751\u59d4\u4f1a","short_name":"\u94dc\u6e90","merger_name":"\u6c5f\u897f,\u5357\u660c,\u65b0\u5efa,\u671b\u57ce,\u94dc\u6e90","pinyin":"TongYuan","lng":"115.699270","lat":"28.675620"},{"id":267191,"parent_id":267179,"level":4,"area_code":"360112101208","zip_code":"330103","city_code":"0791","name":"\u6587\u5168\u6751\u59d4\u4f1a","short_name":"\u6587\u5168","merger_name":"\u6c5f\u897f,\u5357\u660c,\u65b0\u5efa,\u671b\u57ce,\u6587\u5168","pinyin":"WenQuan","lng":"115.796520","lat":"28.688800"},{"id":267192,"parent_id":267156,"level":3,"area_code":"360112102000","zip_code":"330108","city_code":"0791","name":"\u751f\u7c73\u9547\uff08\u7ea2\u8c37\u6ee9\u65b0\u533a\uff09","short_name":"\u751f\u7c73","merger_name":"\u6c5f\u897f,\u5357\u660c,\u65b0\u5efa,\u751f\u7c73","pinyin":"ShengMi","lng":"115.797810","lat":"28.570180"},{"id":267193,"parent_id":267192,"level":4,"area_code":"360112102001","zip_code":"330108","city_code":"0791","name":"\u751f\u7c73\u8857\u4e00\u5c45\u59d4\u4f1a\uff08\u7ea2\u8c37\u6ee9\u65b0\u533a\uff09","short_name":"\u751f\u7c73\u8857\u4e00","merger_name":"\u6c5f\u897f,\u5357\u660c,\u65b0\u5efa,\u751f\u7c73,\u751f\u7c73\u8857\u4e00","pinyin":"ShengMiJieYi","lng":"115.841497","lat":"28.677828"},{"id":267194,"parent_id":267192,"level":4,"area_code":"360112102002","zip_code":"330108","city_code":"0791","name":"\u751f\u7c73\u8857\u4e8c\u5c45\u59d4\u4f1a\uff08\u7ea2\u8c37\u6ee9\u65b0\u533a\uff09","short_name":"\u751f\u7c73\u8857\u4e8c","merger_name":"\u6c5f\u897f,\u5357\u660c,\u65b0\u5efa,\u751f\u7c73,\u751f\u7c73\u8857\u4e8c","pinyin":"ShengMiJieEr","lng":"115.841497","lat":"28.677828"},{"id":267195,"parent_id":267192,"level":4,"area_code":"360112102003","zip_code":"330108","city_code":"0791","name":"\u751f\u7c73\u8857\u4e09\u5c45\u59d4\u4f1a\uff08\u7ea2\u8c37\u6ee9\u65b0\u533a\uff09","short_name":"\u751f\u7c73\u8857\u4e09","merger_name":"\u6c5f\u897f,\u5357\u660c,\u65b0\u5efa,\u751f\u7c73,\u751f\u7c73\u8857\u4e09","pinyin":"ShengMiJieSan","lng":"115.841497","lat":"28.677828"},{"id":267196,"parent_id":267192,"level":4,"area_code":"360112102004","zip_code":"330108","city_code":"0791","name":"\u4f1a\u4ed9\u6f6d\u793e\u533a\uff08\u7ea2\u8c37\u6ee9\u65b0\u57ce\uff09","short_name":"\u4f1a\u4ed9\u6f6d","merger_name":"\u6c5f\u897f,\u5357\u660c,\u65b0\u5efa,\u751f\u7c73,\u4f1a\u4ed9\u6f6d","pinyin":"HuiXianTan","lng":"115.860670","lat":"28.632470"},{"id":267197,"parent_id":267192,"level":4,"area_code":"360112102005","zip_code":"330108","city_code":"0791","name":"\u677e\u67cf\u56ed\u793e\u533a\uff08\u7ea2\u8c37\u6ee9\u65b0\u57ce\uff09","short_name":"\u677e\u67cf\u56ed","merger_name":"\u6c5f\u897f,\u5357\u660c,\u65b0\u5efa,\u751f\u7c73,\u677e\u67cf\u56ed","pinyin":"SongBaiYuan","lng":"115.798140","lat":"28.570090"},{"id":267198,"parent_id":267192,"level":4,"area_code":"360112102200","zip_code":"330199","city_code":"0791","name":"\u749c\u6eaa\u6751\u59d4\u4f1a\uff08\u7ea2\u8c37\u6ee9\u65b0\u533a\uff09","short_name":"\u749c\u6eaa","merger_name":"\u6c5f\u897f,\u5357\u660c,\u65b0\u5efa,\u751f\u7c73,\u749c\u6eaa","pinyin":"HuangXi","lng":"115.822690","lat":"28.659100"},{"id":267199,"parent_id":267192,"level":4,"area_code":"360112102201","zip_code":"330108","city_code":"0791","name":"\u4e2d\u5821\u6751\u59d4\u4f1a\uff08\u7ea2\u8c37\u6ee9\u65b0\u533a\uff09","short_name":"\u4e2d\u5821","merger_name":"\u6c5f\u897f,\u5357\u660c,\u65b0\u5efa,\u751f\u7c73,\u4e2d\u5821","pinyin":"ZhongBao","lng":"115.841497","lat":"28.677828"},{"id":267200,"parent_id":267192,"level":4,"area_code":"360112102202","zip_code":"330108","city_code":"0791","name":"\u94c1\u8def\u6751\u59d4\u4f1a\uff08\u7ea2\u8c37\u6ee9\u65b0\u533a\uff09","short_name":"\u94c1\u8def","merger_name":"\u6c5f\u897f,\u5357\u660c,\u65b0\u5efa,\u751f\u7c73,\u94c1\u8def","pinyin":"TieLu","lng":"115.841497","lat":"28.677828"},{"id":267201,"parent_id":267192,"level":4,"area_code":"360112102203","zip_code":"330108","city_code":"0791","name":"\u5c71\u56fe\u6751\u59d4\u4f1a\uff08\u7ea2\u8c37\u6ee9\u65b0\u533a\uff09","short_name":"\u5c71\u56fe","merger_name":"\u6c5f\u897f,\u5357\u660c,\u65b0\u5efa,\u751f\u7c73,\u5c71\u56fe","pinyin":"ShanTu","lng":"115.841497","lat":"28.677828"},{"id":267202,"parent_id":267192,"level":4,"area_code":"360112102204","zip_code":"330108","city_code":"0791","name":"\u4e1c\u57ce\u6751\u59d4\u4f1a\uff08\u7ea2\u8c37\u6ee9\u65b0\u533a\uff09","short_name":"\u4e1c\u57ce","merger_name":"\u6c5f\u897f,\u5357\u660c,\u65b0\u5efa,\u751f\u7c73,\u4e1c\u57ce","pinyin":"DongCheng","lng":"115.841497","lat":"28.677828"},{"id":267203,"parent_id":267192,"level":4,"area_code":"360112102205","zip_code":"330108","city_code":"0791","name":"\u6731\u5c97\u6751\u59d4\u4f1a\uff08\u7ea2\u8c37\u6ee9\u65b0\u533a\uff09","short_name":"\u6731\u5c97","merger_name":"\u6c5f\u897f,\u5357\u660c,\u65b0\u5efa,\u751f\u7c73,\u6731\u5c97","pinyin":"ZhuGang","lng":"115.836400","lat":"28.679640"},{"id":267204,"parent_id":267192,"level":4,"area_code":"360112102206","zip_code":"330108","city_code":"0791","name":"\u6587\u9752\u6751\u59d4\u4f1a\uff08\u7ea2\u8c37\u6ee9\u65b0\u533a\uff09","short_name":"\u6587\u9752","merger_name":"\u6c5f\u897f,\u5357\u660c,\u65b0\u5efa,\u751f\u7c73,\u6587\u9752","pinyin":"WenQing","lng":"115.841497","lat":"28.677828"},{"id":267205,"parent_id":267192,"level":4,"area_code":"360112102207","zip_code":"330108","city_code":"0791","name":"\u9752\u5c9a\u6751\u59d4\u4f1a\uff08\u7ea2\u8c37\u6ee9\u65b0\u533a\uff09","short_name":"\u9752\u5c9a","merger_name":"\u6c5f\u897f,\u5357\u660c,\u65b0\u5efa,\u751f\u7c73,\u9752\u5c9a","pinyin":"QingLan","lng":"115.841497","lat":"28.677828"},{"id":267206,"parent_id":267192,"level":4,"area_code":"360112102208","zip_code":"330108","city_code":"0791","name":"\u590f\u5b87\u6751\u59d4\u4f1a\uff08\u7ea2\u8c37\u6ee9\u65b0\u533a\uff09","short_name":"\u590f\u5b87","merger_name":"\u6c5f\u897f,\u5357\u660c,\u65b0\u5efa,\u751f\u7c73,\u590f\u5b87","pinyin":"XiaYu","lng":"115.841497","lat":"28.677828"},{"id":267207,"parent_id":267192,"level":4,"area_code":"360112102209","zip_code":"330108","city_code":"0791","name":"\u76f8\u91cc\u6751\u59d4\u4f1a\uff08\u7ea2\u8c37\u6ee9\u65b0\u533a\uff09","short_name":"\u76f8\u91cc","merger_name":"\u6c5f\u897f,\u5357\u660c,\u65b0\u5efa,\u751f\u7c73,\u76f8\u91cc","pinyin":"XiangLi","lng":"115.841497","lat":"28.677828"},{"id":267208,"parent_id":267192,"level":4,"area_code":"360112102210","zip_code":"330108","city_code":"0791","name":"\u6444\u6eaa\u6751\u59d4\u4f1a\uff08\u7ea2\u8c37\u6ee9\u65b0\u533a\uff09","short_name":"\u6444\u6eaa","merger_name":"\u6c5f\u897f,\u5357\u660c,\u65b0\u5efa,\u751f\u7c73,\u6444\u6eaa","pinyin":"SheXi","lng":"115.841160","lat":"28.680180"},{"id":267209,"parent_id":267192,"level":4,"area_code":"360112102211","zip_code":"330108","city_code":"0791","name":"\u611f\u91cc\u6751\u59d4\u4f1a\uff08\u7ea2\u8c37\u6ee9\u65b0\u533a\uff09","short_name":"\u611f\u91cc","merger_name":"\u6c5f\u897f,\u5357\u660c,\u65b0\u5efa,\u751f\u7c73,\u611f\u91cc","pinyin":"GanLi","lng":"115.835600","lat":"28.667090"},{"id":267210,"parent_id":267192,"level":4,"area_code":"360112102212","zip_code":"330108","city_code":"0791","name":"\u5357\u661f\u6751\u59d4\u4f1a\uff08\u7ea2\u8c37\u6ee9\u65b0\u533a\uff09","short_name":"\u5357\u661f","merger_name":"\u6c5f\u897f,\u5357\u660c,\u65b0\u5efa,\u751f\u7c73,\u5357\u661f","pinyin":"NanXing","lng":"115.841497","lat":"28.677828"},{"id":267211,"parent_id":267192,"level":4,"area_code":"360112102213","zip_code":"330108","city_code":"0791","name":"\u90e1\u5858\u6751\u59d4\u4f1a\uff08\u7ea2\u8c37\u6ee9\u65b0\u533a\uff09","short_name":"\u90e1\u5858","merger_name":"\u6c5f\u897f,\u5357\u660c,\u65b0\u5efa,\u751f\u7c73,\u90e1\u5858","pinyin":"JunTang","lng":"115.780750","lat":"28.659610"},{"id":267212,"parent_id":267192,"level":4,"area_code":"360112102214","zip_code":"330108","city_code":"0791","name":"\u80dc\u5229\u6751\u59d4\u4f1a\uff08\u7ea2\u8c37\u6ee9\u65b0\u533a\uff09","short_name":"\u80dc\u5229","merger_name":"\u6c5f\u897f,\u5357\u660c,\u65b0\u5efa,\u751f\u7c73,\u80dc\u5229","pinyin":"ShengLi","lng":"115.841497","lat":"28.677828"},{"id":267213,"parent_id":267192,"level":4,"area_code":"360112102215","zip_code":"330108","city_code":"0791","name":"\u66fe\u6e2f\u6751\u59d4\u4f1a\uff08\u7ea2\u8c37\u6ee9\u65b0\u533a\uff09","short_name":"\u66fe\u6e2f","merger_name":"\u6c5f\u897f,\u5357\u660c,\u65b0\u5efa,\u751f\u7c73,\u66fe\u6e2f","pinyin":"CengGang","lng":"115.841160","lat":"28.680180"},{"id":267214,"parent_id":267192,"level":4,"area_code":"360112102216","zip_code":"330108","city_code":"0791","name":"\u5357\u8def\u6751\u59d4\u4f1a\uff08\u7ea2\u8c37\u6ee9\u65b0\u533a\uff09","short_name":"\u5357\u8def","merger_name":"\u6c5f\u897f,\u5357\u660c,\u65b0\u5efa,\u751f\u7c73,\u5357\u8def","pinyin":"NanLu","lng":"115.836400","lat":"28.679640"},{"id":267215,"parent_id":267192,"level":4,"area_code":"360112102217","zip_code":"330108","city_code":"0791","name":"\u957f\u5c97\u6751\u59d4\u4f1a\uff08\u7ea2\u8c37\u6ee9\u65b0\u533a\uff09","short_name":"\u957f\u5c97","merger_name":"\u6c5f\u897f,\u5357\u660c,\u65b0\u5efa,\u751f\u7c73,\u957f\u5c97","pinyin":"ZhangGang","lng":"115.841497","lat":"28.677828"},{"id":267216,"parent_id":267192,"level":4,"area_code":"360112102218","zip_code":"330108","city_code":"0791","name":"\u751f\u7c73\u6751\u59d4\u4f1a\uff08\u7ea2\u8c37\u6ee9\u65b0\u533a\uff09","short_name":"\u751f\u7c73","merger_name":"\u6c5f\u897f,\u5357\u660c,\u65b0\u5efa,\u751f\u7c73,\u751f\u7c73","pinyin":"ShengMi","lng":"115.841497","lat":"28.677828"},{"id":267217,"parent_id":267156,"level":3,"area_code":"360112103000","zip_code":"330105","city_code":"0791","name":"\u897f\u5c71\u9547","short_name":"\u897f\u5c71","merger_name":"\u6c5f\u897f,\u5357\u660c,\u65b0\u5efa,\u897f\u5c71","pinyin":"XiShan","lng":"115.622690","lat":"28.556280"},{"id":267218,"parent_id":267217,"level":4,"area_code":"360112103001","zip_code":"330105","city_code":"0791","name":"\u897f\u5c71\u8857\u5c45\u59d4\u4f1a","short_name":"\u897f\u5c71\u8857","merger_name":"\u6c5f\u897f,\u5357\u660c,\u65b0\u5efa,\u897f\u5c71,\u897f\u5c71\u8857","pinyin":"XiShanJie","lng":"115.630580","lat":"28.549090"},{"id":267219,"parent_id":267217,"level":4,"area_code":"360112103200","zip_code":"330105","city_code":"0791","name":"\u8305\u5c97\u6751\u59d4\u4f1a","short_name":"\u8305\u5c97","merger_name":"\u6c5f\u897f,\u5357\u660c,\u65b0\u5efa,\u897f\u5c71,\u8305\u5c97","pinyin":"MaoGang","lng":"115.628290","lat":"28.550080"},{"id":267220,"parent_id":267217,"level":4,"area_code":"360112103201","zip_code":"330105","city_code":"0791","name":"\u90ed\u6eaa\u6751\u59d4\u4f1a","short_name":"\u90ed\u6eaa","merger_name":"\u6c5f\u897f,\u5357\u660c,\u65b0\u5efa,\u897f\u5c71,\u90ed\u6eaa","pinyin":"GuoXi","lng":"115.945104","lat":"28.564049"},{"id":267221,"parent_id":267217,"level":4,"area_code":"360112103202","zip_code":"330105","city_code":"0791","name":"\u77f3\u580e\u6751\u59d4\u4f1a","short_name":"\u77f3\u580e","merger_name":"\u6c5f\u897f,\u5357\u660c,\u65b0\u5efa,\u897f\u5c71,\u77f3\u580e","pinyin":"ShiLeng","lng":"115.945104","lat":"28.564049"},{"id":267222,"parent_id":267217,"level":4,"area_code":"360112103203","zip_code":"330105","city_code":"0791","name":"\u6885\u5c97\u6751\u59d4\u4f1a","short_name":"\u6885\u5c97","merger_name":"\u6c5f\u897f,\u5357\u660c,\u65b0\u5efa,\u897f\u5c71,\u6885\u5c97","pinyin":"MeiGang","lng":"116.249400","lat":"28.644383"},{"id":267223,"parent_id":267217,"level":4,"area_code":"360112103204","zip_code":"330105","city_code":"0791","name":"\u82f1\u5c71\u6751\u59d4\u4f1a","short_name":"\u82f1\u5c71","merger_name":"\u6c5f\u897f,\u5357\u660c,\u65b0\u5efa,\u897f\u5c71,\u82f1\u5c71","pinyin":"YingShan","lng":"115.919770","lat":"28.919240"},{"id":267224,"parent_id":267217,"level":4,"area_code":"360112103205","zip_code":"330105","city_code":"0791","name":"\u7fa4\u529b\u6751\u59d4\u4f1a","short_name":"\u7fa4\u529b","merger_name":"\u6c5f\u897f,\u5357\u660c,\u65b0\u5efa,\u897f\u5c71,\u7fa4\u529b","pinyin":"QunLi","lng":"115.596970","lat":"28.603570"},{"id":267225,"parent_id":267217,"level":4,"area_code":"360112103206","zip_code":"330105","city_code":"0791","name":"\u5408\u4e0a\u6751\u59d4\u4f1a","short_name":"\u5408\u4e0a","merger_name":"\u6c5f\u897f,\u5357\u660c,\u65b0\u5efa,\u897f\u5c71,\u5408\u4e0a","pinyin":"HeShang","lng":"115.596970","lat":"28.603570"},{"id":267226,"parent_id":267217,"level":4,"area_code":"360112103207","zip_code":"330103","city_code":"0791","name":"\u8349\u5c71\u6751\u59d4\u4f1a","short_name":"\u8349\u5c71","merger_name":"\u6c5f\u897f,\u5357\u660c,\u65b0\u5efa,\u897f\u5c71,\u8349\u5c71","pinyin":"CaoShan","lng":"116.264191","lat":"28.731139"},{"id":267227,"parent_id":267217,"level":4,"area_code":"360112103208","zip_code":"330105","city_code":"0791","name":"\u7ea2\u6865\u6751\u59d4\u4f1a","short_name":"\u7ea2\u6865","merger_name":"\u6c5f\u897f,\u5357\u660c,\u65b0\u5efa,\u897f\u5c71,\u7ea2\u6865","pinyin":"HongQiao","lng":"116.169460","lat":"28.230080"},{"id":267228,"parent_id":267217,"level":4,"area_code":"360112103209","zip_code":"330105","city_code":"0791","name":"\u897f\u5c71\u6751\u59d4\u4f1a","short_name":"\u897f\u5c71","merger_name":"\u6c5f\u897f,\u5357\u660c,\u65b0\u5efa,\u897f\u5c71,\u897f\u5c71","pinyin":"XiShan","lng":"115.628290","lat":"28.550080"},{"id":267229,"parent_id":267217,"level":4,"area_code":"360112103210","zip_code":"330105","city_code":"0791","name":"\u9f99\u6865\u6751\u59d4\u4f1a","short_name":"\u9f99\u6865","merger_name":"\u6c5f\u897f,\u5357\u660c,\u65b0\u5efa,\u897f\u5c71,\u9f99\u6865","pinyin":"LongQiao","lng":"115.625910","lat":"28.557850"},{"id":267230,"parent_id":267217,"level":4,"area_code":"360112103211","zip_code":"330105","city_code":"0791","name":"\u6cc9\u73e0\u6751\u59d4\u4f1a","short_name":"\u6cc9\u73e0","merger_name":"\u6c5f\u897f,\u5357\u660c,\u65b0\u5efa,\u897f\u5c71,\u6cc9\u73e0","pinyin":"QuanZhu","lng":"115.627290","lat":"28.535820"},{"id":267231,"parent_id":267217,"level":4,"area_code":"360112103212","zip_code":"330105","city_code":"0791","name":"\u741a\u5858\u6751\u59d4\u4f1a","short_name":"\u741a\u5858","merger_name":"\u6c5f\u897f,\u5357\u660c,\u65b0\u5efa,\u897f\u5c71,\u741a\u5858","pinyin":"JuTang","lng":"115.647040","lat":"28.535090"},{"id":267232,"parent_id":267217,"level":4,"area_code":"360112103213","zip_code":"330105","city_code":"0791","name":"\u8a00\u5bb6\u6751\u59d4\u4f1a","short_name":"\u8a00\u5bb6","merger_name":"\u6c5f\u897f,\u5357\u660c,\u65b0\u5efa,\u897f\u5c71,\u8a00\u5bb6","pinyin":"YanJia","lng":"116.094250","lat":"28.666900"},{"id":267233,"parent_id":267217,"level":4,"area_code":"360112103214","zip_code":"330105","city_code":"0791","name":"\u57ce\u5858\u6751\u59d4\u4f1a","short_name":"\u57ce\u5858","merger_name":"\u6c5f\u897f,\u5357\u660c,\u65b0\u5efa,\u897f\u5c71,\u57ce\u5858","pinyin":"ChengTang","lng":"115.675650","lat":"28.524230"},{"id":267234,"parent_id":267217,"level":4,"area_code":"360112103215","zip_code":"330105","city_code":"0791","name":"\u5d69\u5c97\u6751\u59d4\u4f1a","short_name":"\u5d69\u5c97","merger_name":"\u6c5f\u897f,\u5357\u660c,\u65b0\u5efa,\u897f\u5c71,\u5d69\u5c97","pinyin":"SongGang","lng":"115.675020","lat":"28.542470"},{"id":267235,"parent_id":267217,"level":4,"area_code":"360112103216","zip_code":"330105","city_code":"0791","name":"\u6893\u5858\u6751\u59d4\u4f1a","short_name":"\u6893\u5858","merger_name":"\u6c5f\u897f,\u5357\u660c,\u65b0\u5efa,\u897f\u5c71,\u6893\u5858","pinyin":"ZiTang","lng":"115.670090","lat":"28.550160"},{"id":267236,"parent_id":267217,"level":4,"area_code":"360112103217","zip_code":"330105","city_code":"0791","name":"\u6e2f\u7530\u6751\u59d4\u4f1a","short_name":"\u6e2f\u7530","merger_name":"\u6c5f\u897f,\u5357\u660c,\u65b0\u5efa,\u897f\u5c71,\u6e2f\u7530","pinyin":"GangTian","lng":"115.945104","lat":"28.564049"},{"id":267237,"parent_id":267156,"level":3,"area_code":"360112104000","zip_code":"330106","city_code":"0791","name":"\u77f3\u5c97\u9547","short_name":"\u77f3\u5c97","merger_name":"\u6c5f\u897f,\u5357\u660c,\u65b0\u5efa,\u77f3\u5c97","pinyin":"ShiGang","lng":"115.635430","lat":"28.444170"},{"id":267238,"parent_id":267237,"level":4,"area_code":"360112104001","zip_code":"330106","city_code":"0791","name":"\u77f3\u5c97\u8857\u5c45\u59d4\u4f1a","short_name":"\u77f3\u5c97\u8857","merger_name":"\u6c5f\u897f,\u5357\u660c,\u65b0\u5efa,\u77f3\u5c97,\u77f3\u5c97\u8857","pinyin":"ShiGangJie","lng":"116.231590","lat":"28.523690"},{"id":267239,"parent_id":267237,"level":4,"area_code":"360112104002","zip_code":"330106","city_code":"0791","name":"\u957f\u5f81\u793e\u533a\u5c45\u59d4\u4f1a","short_name":"\u957f\u5f81","merger_name":"\u6c5f\u897f,\u5357\u660c,\u65b0\u5efa,\u77f3\u5c97,\u957f\u5f81","pinyin":"ChangZheng","lng":"116.231590","lat":"28.523690"},{"id":267240,"parent_id":267237,"level":4,"area_code":"360112104200","zip_code":"330106","city_code":"0791","name":"\u77f3\u5c97\u6751\u59d4\u4f1a","short_name":"\u77f3\u5c97","merger_name":"\u6c5f\u897f,\u5357\u660c,\u65b0\u5efa,\u77f3\u5c97,\u77f3\u5c97","pinyin":"ShiGang","lng":"115.665050","lat":"28.454490"},{"id":267241,"parent_id":267237,"level":4,"area_code":"360112104201","zip_code":"330106","city_code":"0791","name":"\u5218\u5bb6\u6751\u59d4\u4f1a","short_name":"\u5218\u5bb6","merger_name":"\u6c5f\u897f,\u5357\u660c,\u65b0\u5efa,\u77f3\u5c97,\u5218\u5bb6","pinyin":"LiuJia","lng":"116.175890","lat":"28.499150"},{"id":267242,"parent_id":267237,"level":4,"area_code":"360112104202","zip_code":"330106","city_code":"0791","name":"\u4fdd\u536b\u6751\u59d4\u4f1a","short_name":"\u4fdd\u536b","merger_name":"\u6c5f\u897f,\u5357\u660c,\u65b0\u5efa,\u77f3\u5c97,\u4fdd\u536b","pinyin":"BaoWei","lng":"115.665050","lat":"28.454490"},{"id":267243,"parent_id":267237,"level":4,"area_code":"360112104203","zip_code":"330106","city_code":"0791","name":"\u7530\u5317\u6751\u59d4\u4f1a","short_name":"\u7530\u5317","merger_name":"\u6c5f\u897f,\u5357\u660c,\u65b0\u5efa,\u77f3\u5c97,\u7530\u5317","pinyin":"TianBei","lng":"115.665050","lat":"28.454490"},{"id":267244,"parent_id":267237,"level":4,"area_code":"360112104204","zip_code":"330106","city_code":"0791","name":"\u4e0a\u576a\u6751\u59d4\u4f1a","short_name":"\u4e0a\u576a","merger_name":"\u6c5f\u897f,\u5357\u660c,\u65b0\u5efa,\u77f3\u5c97,\u4e0a\u576a","pinyin":"ShangPing","lng":"116.243470","lat":"28.441370"},{"id":267245,"parent_id":267237,"level":4,"area_code":"360112104205","zip_code":"330106","city_code":"0791","name":"\u65b0\u574a\u6751\u59d4\u4f1a","short_name":"\u65b0\u574a","merger_name":"\u6c5f\u897f,\u5357\u660c,\u65b0\u5efa,\u77f3\u5c97,\u65b0\u574a","pinyin":"XinFang","lng":"115.639250","lat":"28.492310"},{"id":267246,"parent_id":267237,"level":4,"area_code":"360112104206","zip_code":"330106","city_code":"0791","name":"\u91d1\u57ce\u6751\u59d4\u4f1a","short_name":"\u91d1\u57ce","merger_name":"\u6c5f\u897f,\u5357\u660c,\u65b0\u5efa,\u77f3\u5c97,\u91d1\u57ce","pinyin":"JinCheng","lng":"116.203330","lat":"28.730050"},{"id":267247,"parent_id":267237,"level":4,"area_code":"360112104207","zip_code":"330106","city_code":"0791","name":"\u590f\u5bb6\u6751\u59d4\u4f1a","short_name":"\u590f\u5bb6","merger_name":"\u6c5f\u897f,\u5357\u660c,\u65b0\u5efa,\u77f3\u5c97,\u590f\u5bb6","pinyin":"XiaJia","lng":"115.602046","lat":"28.418540"},{"id":267248,"parent_id":267237,"level":4,"area_code":"360112104208","zip_code":"330106","city_code":"0791","name":"\u5c0f\u5cad\u6751\u59d4\u4f1a","short_name":"\u5c0f\u5cad","merger_name":"\u6c5f\u897f,\u5357\u660c,\u65b0\u5efa,\u77f3\u5c97,\u5c0f\u5cad","pinyin":"XiaoLing","lng":"115.602046","lat":"28.418540"},{"id":267249,"parent_id":267237,"level":4,"area_code":"360112104209","zip_code":"330106","city_code":"0791","name":"\u9526\u5357\u6751\u59d4\u4f1a","short_name":"\u9526\u5357","merger_name":"\u6c5f\u897f,\u5357\u660c,\u65b0\u5efa,\u77f3\u5c97,\u9526\u5357","pinyin":"JinNan","lng":"115.610010","lat":"28.435510"},{"id":267250,"parent_id":267237,"level":4,"area_code":"360112104210","zip_code":"330106","city_code":"0791","name":"\u4ecb\u6a80\u6751\u59d4\u4f1a","short_name":"\u4ecb\u6a80","merger_name":"\u6c5f\u897f,\u5357\u660c,\u65b0\u5efa,\u77f3\u5c97,\u4ecb\u6a80","pinyin":"JieTan","lng":"115.627720","lat":"28.420210"},{"id":267251,"parent_id":267237,"level":4,"area_code":"360112104211","zip_code":"330106","city_code":"0791","name":"\u4e94\u661f\u6751\u59d4\u4f1a","short_name":"\u4e94\u661f","merger_name":"\u6c5f\u897f,\u5357\u660c,\u65b0\u5efa,\u77f3\u5c97,\u4e94\u661f","pinyin":"WuXing","lng":"115.977160","lat":"28.554510"},{"id":267252,"parent_id":267237,"level":4,"area_code":"360112104212","zip_code":"330106","city_code":"0791","name":"\u5f90\u5858\u6751\u59d4\u4f1a","short_name":"\u5f90\u5858","merger_name":"\u6c5f\u897f,\u5357\u660c,\u65b0\u5efa,\u77f3\u5c97,\u5f90\u5858","pinyin":"XuTang","lng":"115.639250","lat":"28.492310"},{"id":267253,"parent_id":267237,"level":4,"area_code":"360112104213","zip_code":"330106","city_code":"0791","name":"\u91d1\u5858\u6751\u59d4\u4f1a","short_name":"\u91d1\u5858","merger_name":"\u6c5f\u897f,\u5357\u660c,\u65b0\u5efa,\u77f3\u5c97,\u91d1\u5858","pinyin":"JinTang","lng":"115.639250","lat":"28.492310"},{"id":267254,"parent_id":267237,"level":4,"area_code":"360112104214","zip_code":"330106","city_code":"0791","name":"\u5357\u7530\u6751\u59d4\u4f1a","short_name":"\u5357\u7530","merger_name":"\u6c5f\u897f,\u5357\u660c,\u65b0\u5efa,\u77f3\u5c97,\u5357\u7530","pinyin":"NanTian","lng":"116.243470","lat":"28.441370"},{"id":267255,"parent_id":267237,"level":4,"area_code":"360112104215","zip_code":"330106","city_code":"0791","name":"\u77f3\u57a6\u6751\u59d4\u4f1a","short_name":"\u77f3\u57a6","merger_name":"\u6c5f\u897f,\u5357\u660c,\u65b0\u5efa,\u77f3\u5c97,\u77f3\u57a6","pinyin":"ShiKen","lng":"115.631510","lat":"28.462330"},{"id":267256,"parent_id":267237,"level":4,"area_code":"360112104216","zip_code":"330106","city_code":"0791","name":"\u7f57\u5c71\u6751\u59d4\u4f1a","short_name":"\u7f57\u5c71","merger_name":"\u6c5f\u897f,\u5357\u660c,\u65b0\u5efa,\u77f3\u5c97,\u7f57\u5c71","pinyin":"LuoShan","lng":"116.255349","lat":"28.440976"},{"id":267257,"parent_id":267237,"level":4,"area_code":"360112104217","zip_code":"330106","city_code":"0791","name":"\u4e0a\u7f57\u6751\u59d4\u4f1a","short_name":"\u4e0a\u7f57","merger_name":"\u6c5f\u897f,\u5357\u660c,\u65b0\u5efa,\u77f3\u5c97,\u4e0a\u7f57","pinyin":"ShangLuo","lng":"116.025810","lat":"28.290470"},{"id":267258,"parent_id":267237,"level":4,"area_code":"360112104218","zip_code":"330106","city_code":"0791","name":"\u6731\u574a\u6751\u59d4\u4f1a","short_name":"\u6731\u574a","merger_name":"\u6c5f\u897f,\u5357\u660c,\u65b0\u5efa,\u77f3\u5c97,\u6731\u574a","pinyin":"ZhuFang","lng":"115.639250","lat":"28.492310"},{"id":267259,"parent_id":267237,"level":4,"area_code":"360112104219","zip_code":"330106","city_code":"0791","name":"\u5c0f\u5858\u6751\u59d4\u4f1a","short_name":"\u5c0f\u5858","merger_name":"\u6c5f\u897f,\u5357\u660c,\u65b0\u5efa,\u77f3\u5c97,\u5c0f\u5858","pinyin":"XiaoTang","lng":"116.314021","lat":"28.411713"},{"id":267260,"parent_id":267237,"level":4,"area_code":"360112104220","zip_code":"330106","city_code":"0791","name":"\u7b80\u5c71\u6751\u59d4\u4f1a","short_name":"\u7b80\u5c71","merger_name":"\u6c5f\u897f,\u5357\u660c,\u65b0\u5efa,\u77f3\u5c97,\u7b80\u5c71","pinyin":"JianShan","lng":"115.572840","lat":"28.499210"},{"id":267261,"parent_id":267237,"level":4,"area_code":"360112104221","zip_code":"330106","city_code":"0791","name":"\u9ad8\u576a\u6751\u59d4\u4f1a","short_name":"\u9ad8\u576a","merger_name":"\u6c5f\u897f,\u5357\u660c,\u65b0\u5efa,\u77f3\u5c97,\u9ad8\u576a","pinyin":"GaoPing","lng":"116.243470","lat":"28.441370"},{"id":267262,"parent_id":267237,"level":4,"area_code":"360112104222","zip_code":"330106","city_code":"0791","name":"\u51e4\u5c97\u6751\u59d4\u4f1a","short_name":"\u51e4\u5c97","merger_name":"\u6c5f\u897f,\u5357\u660c,\u65b0\u5efa,\u77f3\u5c97,\u51e4\u5c97","pinyin":"FengGang","lng":"116.243470","lat":"28.441370"},{"id":267263,"parent_id":267237,"level":4,"area_code":"360112104223","zip_code":"330106","city_code":"0791","name":"\u4e1c\u5b89\u6751\u6751\u59d4\u4f1a","short_name":"\u4e1c\u5b89\u6751","merger_name":"\u6c5f\u897f,\u5357\u660c,\u65b0\u5efa,\u77f3\u5c97,\u4e1c\u5b89\u6751","pinyin":"DongAnCun","lng":"116.231590","lat":"28.523690"},{"id":267264,"parent_id":267156,"level":3,"area_code":"360112105000","zip_code":"330107","city_code":"0791","name":"\u677e\u6e56\u9547","short_name":"\u677e\u6e56","merger_name":"\u6c5f\u897f,\u5357\u660c,\u65b0\u5efa,\u677e\u6e56","pinyin":"SongHu","lng":"115.676050","lat":"28.385980"},{"id":267265,"parent_id":267264,"level":4,"area_code":"360112105001","zip_code":"330107","city_code":"0791","name":"\u677e\u6e56\u8857\u5c45\u59d4\u4f1a","short_name":"\u677e\u6e56\u8857","merger_name":"\u6c5f\u897f,\u5357\u660c,\u65b0\u5efa,\u677e\u6e56,\u677e\u6e56\u8857","pinyin":"SongHuJie","lng":"115.797420","lat":"28.461630"},{"id":267266,"parent_id":267264,"level":4,"area_code":"360112105002","zip_code":"330107","city_code":"0791","name":"\u6c99\u6d32\u8857\u5c45\u59d4\u4f1a","short_name":"\u6c99\u6d32\u8857","merger_name":"\u6c5f\u897f,\u5357\u660c,\u65b0\u5efa,\u677e\u6e56,\u6c99\u6d32\u8857","pinyin":"ShaZhouJie","lng":"115.676050","lat":"28.385980"},{"id":267267,"parent_id":267264,"level":4,"area_code":"360112105200","zip_code":"330107","city_code":"0791","name":"\u749c\u574a\u6751\u59d4\u4f1a","short_name":"\u749c\u574a","merger_name":"\u6c5f\u897f,\u5357\u660c,\u65b0\u5efa,\u677e\u6e56,\u749c\u574a","pinyin":"HuangFang","lng":"116.112388","lat":"28.877757"},{"id":267268,"parent_id":267264,"level":4,"area_code":"360112105201","zip_code":"330107","city_code":"0791","name":"\u6e2f\u897f\u6751\u59d4\u4f1a","short_name":"\u6e2f\u897f","merger_name":"\u6c5f\u897f,\u5357\u660c,\u65b0\u5efa,\u677e\u6e56,\u6e2f\u897f","pinyin":"GangXi","lng":"115.627720","lat":"28.420210"},{"id":267269,"parent_id":267264,"level":4,"area_code":"360112105202","zip_code":"330107","city_code":"0791","name":"\u548c\u5e73\u6751\u59d4\u4f1a","short_name":"\u548c\u5e73","merger_name":"\u6c5f\u897f,\u5357\u660c,\u65b0\u5efa,\u677e\u6e56,\u548c\u5e73","pinyin":"HePing","lng":"115.627720","lat":"28.420210"},