[{"id":302001,"parent_id":301965,"level":4,"area_code":"370302102232","zip_code":"255192","city_code":"0533","name":"\u897f\u9ad8\u6751\u59d4\u4f1a","short_name":"\u897f\u9ad8","merger_name":"\u5c71\u4e1c,\u6dc4\u535a,\u6dc4\u5ddd,\u6606\u4ed1,\u897f\u9ad8","pinyin":"XiGao","lng":"118.029240","lat":"36.415440"},{"id":302002,"parent_id":301965,"level":4,"area_code":"370302102233","zip_code":"255192","city_code":"0533","name":"\u5927\u8303\u6751\u59d4\u4f1a","short_name":"\u5927\u8303","merger_name":"\u5c71\u4e1c,\u6dc4\u535a,\u6dc4\u5ddd,\u6606\u4ed1,\u5927\u8303","pinyin":"DaFan","lng":"117.848670","lat":"36.603040"},{"id":302003,"parent_id":301965,"level":4,"area_code":"370302102234","zip_code":"255192","city_code":"0533","name":"\u5c0f\u8303\u6751\u59d4\u4f1a","short_name":"\u5c0f\u8303","merger_name":"\u5c71\u4e1c,\u6dc4\u535a,\u6dc4\u5ddd,\u6606\u4ed1,\u5c0f\u8303","pinyin":"XiaoFan","lng":"117.844200","lat":"36.604940"},{"id":302004,"parent_id":301965,"level":4,"area_code":"370302102235","zip_code":"255192","city_code":"0533","name":"\u9a6c\u68da\u6751\u59d4\u4f1a","short_name":"\u9a6c\u68da","merger_name":"\u5c71\u4e1c,\u6dc4\u535a,\u6dc4\u5ddd,\u6606\u4ed1,\u9a6c\u68da","pinyin":"MaPeng","lng":"117.918640","lat":"36.588740"},{"id":302005,"parent_id":301965,"level":4,"area_code":"370302102236","zip_code":"255192","city_code":"0533","name":"\u6ef4\u6c34\u6cc9\u6751\u59d4\u4f1a","short_name":"\u6ef4\u6c34\u6cc9","merger_name":"\u5c71\u4e1c,\u6dc4\u535a,\u6dc4\u5ddd,\u6606\u4ed1,\u6ef4\u6c34\u6cc9","pinyin":"DiShuiQuan","lng":"117.971320","lat":"36.995470"},{"id":302006,"parent_id":301965,"level":4,"area_code":"370302102237","zip_code":"255192","city_code":"0533","name":"\u8f66\u5cea\u53e3\u6751\u59d4\u4f1a","short_name":"\u8f66\u5cea\u53e3","merger_name":"\u5c71\u4e1c,\u6dc4\u535a,\u6dc4\u5ddd,\u6606\u4ed1,\u8f66\u5cea\u53e3","pinyin":"CheYuKou","lng":"117.828230","lat":"36.595980"},{"id":302007,"parent_id":301965,"level":4,"area_code":"370302102238","zip_code":"255192","city_code":"0533","name":"\u6cb3\u77f3\u575e\u6751\u59d4\u4f1a","short_name":"\u6cb3\u77f3\u575e","merger_name":"\u5c71\u4e1c,\u6dc4\u535a,\u6dc4\u5ddd,\u6606\u4ed1,\u6cb3\u77f3\u575e","pinyin":"HeShiWu","lng":"117.815960","lat":"36.596920"},{"id":302008,"parent_id":301965,"level":4,"area_code":"370302102239","zip_code":"255192","city_code":"0533","name":"\u5317\u5c71\u5bfa\u6751\u59d4\u4f1a","short_name":"\u5317\u5c71\u5bfa","merger_name":"\u5c71\u4e1c,\u6dc4\u535a,\u6dc4\u5ddd,\u6606\u4ed1,\u5317\u5c71\u5bfa","pinyin":"BeiShanSi","lng":"118.129458","lat":"36.824470"},{"id":302009,"parent_id":301965,"level":4,"area_code":"370302102240","zip_code":"255110","city_code":"0533","name":"\u5c71\u5634\u5934\u6751\u59d4\u4f1a","short_name":"\u5c71\u5634\u5934","merger_name":"\u5c71\u4e1c,\u6dc4\u535a,\u6dc4\u5ddd,\u6606\u4ed1,\u5c71\u5634\u5934","pinyin":"ShanZuiTou","lng":"117.932940","lat":"36.601540"},{"id":302010,"parent_id":301965,"level":4,"area_code":"370302102241","zip_code":"255110","city_code":"0533","name":"\u82cf\u738b\u6751\u59d4\u4f1a","short_name":"\u82cf\u738b","merger_name":"\u5c71\u4e1c,\u6dc4\u535a,\u6dc4\u5ddd,\u6606\u4ed1,\u82cf\u738b","pinyin":"SuWang","lng":"117.727979","lat":"36.664323"},{"id":302011,"parent_id":301965,"level":4,"area_code":"370302102242","zip_code":"255129","city_code":"0533","name":"\u5174\u9686\u6751\u59d4\u4f1a","short_name":"\u5174\u9686","merger_name":"\u5c71\u4e1c,\u6dc4\u535a,\u6dc4\u5ddd,\u6606\u4ed1,\u5174\u9686","pinyin":"XingLong","lng":"117.932940","lat":"36.601540"},{"id":302012,"parent_id":301965,"level":4,"area_code":"370302102243","zip_code":"255110","city_code":"0533","name":"\u5357\u77f3\u8c37\u6751\u59d4\u4f1a","short_name":"\u5357\u77f3\u8c37","merger_name":"\u5c71\u4e1c,\u6dc4\u535a,\u6dc4\u5ddd,\u6606\u4ed1,\u5357\u77f3\u8c37","pinyin":"NanShiGu","lng":"117.932940","lat":"36.601540"},{"id":302013,"parent_id":301965,"level":4,"area_code":"370302102244","zip_code":"255110","city_code":"0533","name":"\u897f\u697c\u6751\u59d4\u4f1a","short_name":"\u897f\u697c","merger_name":"\u5c71\u4e1c,\u6dc4\u535a,\u6dc4\u5ddd,\u6606\u4ed1,\u897f\u697c","pinyin":"XiLou","lng":"117.920888","lat":"36.617377"},{"id":302014,"parent_id":301884,"level":3,"area_code":"370302104000","zip_code":"255154","city_code":"0533","name":"\u5cad\u5b50\u9547","short_name":"\u5cad\u5b50","merger_name":"\u5c71\u4e1c,\u6dc4\u535a,\u6dc4\u5ddd,\u5cad\u5b50","pinyin":"LingZi","lng":"117.779300","lat":"36.638430"},{"id":302015,"parent_id":302014,"level":4,"area_code":"370302104001","zip_code":"255154","city_code":"0533","name":"\u5b9d\u5c71\u793e\u533a\u5c45\u59d4\u4f1a","short_name":"\u5b9d\u5c71","merger_name":"\u5c71\u4e1c,\u6dc4\u535a,\u6dc4\u5ddd,\u5cad\u5b50,\u5b9d\u5c71","pinyin":"BaoShan","lng":"118.039615","lat":"36.798579"},{"id":302016,"parent_id":302014,"level":4,"area_code":"370302104002","zip_code":"255154","city_code":"0533","name":"\u4e1c\u6cf0\u793e\u533a\u5c45\u59d4\u4f1a","short_name":"\u4e1c\u6cf0","merger_name":"\u5c71\u4e1c,\u6dc4\u535a,\u6dc4\u5ddd,\u5cad\u5b50,\u4e1c\u6cf0","pinyin":"DongTai","lng":"117.716670","lat":"36.673600"},{"id":302017,"parent_id":302014,"level":4,"area_code":"370302104201","zip_code":"255154","city_code":"0533","name":"\u5cad\u5b50\u6751\u59d4\u4f1a","short_name":"\u5cad\u5b50","merger_name":"\u5c71\u4e1c,\u6dc4\u535a,\u6dc4\u5ddd,\u5cad\u5b50,\u5cad\u5b50","pinyin":"LingZi","lng":"117.804250","lat":"36.635550"},{"id":302018,"parent_id":302014,"level":4,"area_code":"370302104202","zip_code":"255154","city_code":"0533","name":"\u5de9\u5bb6\u6751\u59d4\u4f1a","short_name":"\u5de9\u5bb6","merger_name":"\u5c71\u4e1c,\u6dc4\u535a,\u6dc4\u5ddd,\u5cad\u5b50,\u5de9\u5bb6","pinyin":"GongJia","lng":"117.722007","lat":"36.641001"},{"id":302019,"parent_id":302014,"level":4,"area_code":"370302104203","zip_code":"255154","city_code":"0533","name":"\u5357\u5761\u6751\u59d4\u4f1a","short_name":"\u5357\u5761","merger_name":"\u5c71\u4e1c,\u6dc4\u535a,\u6dc4\u5ddd,\u5cad\u5b50,\u5357\u5761","pinyin":"NanPo","lng":"117.727890","lat":"36.635400"},{"id":302020,"parent_id":302014,"level":4,"area_code":"370302104204","zip_code":"255154","city_code":"0533","name":"\u6c88\u5bb6\u6cb3\u6751\u59d4\u4f1a","short_name":"\u6c88\u5bb6\u6cb3","merger_name":"\u5c71\u4e1c,\u6dc4\u535a,\u6dc4\u5ddd,\u5cad\u5b50,\u6c88\u5bb6\u6cb3","pinyin":"ShenJiaHe","lng":"117.744540","lat":"36.642270"},{"id":302021,"parent_id":302014,"level":4,"area_code":"370302104205","zip_code":"255154","city_code":"0533","name":"\u5b8b\u5bb6\u5e84\u6751\u59d4\u4f1a","short_name":"\u5b8b\u5bb6\u5e84","merger_name":"\u5c71\u4e1c,\u6dc4\u535a,\u6dc4\u5ddd,\u5cad\u5b50,\u5b8b\u5bb6\u5e84","pinyin":"SongJiaZhuang","lng":"117.784520","lat":"36.635850"},{"id":302022,"parent_id":302014,"level":4,"area_code":"370302104206","zip_code":"255154","city_code":"0533","name":"\u5c0f\u738b\u5bb6\u6751\u59d4\u4f1a","short_name":"\u5c0f\u738b\u5bb6","merger_name":"\u5c71\u4e1c,\u6dc4\u535a,\u6dc4\u5ddd,\u5cad\u5b50,\u5c0f\u738b\u5bb6","pinyin":"XiaoWangJia","lng":"118.320680","lat":"36.860490"},{"id":302023,"parent_id":302014,"level":4,"area_code":"370302104207","zip_code":"255154","city_code":"0533","name":"\u6731\u5bb6\u6751\u59d4\u4f1a","short_name":"\u6731\u5bb6","merger_name":"\u5c71\u4e1c,\u6dc4\u535a,\u6dc4\u5ddd,\u5cad\u5b50,\u6731\u5bb6","pinyin":"ZhuJia","lng":"117.779300","lat":"36.638430"},{"id":302024,"parent_id":302014,"level":4,"area_code":"370302104208","zip_code":"255154","city_code":"0533","name":"\u5c0f\u53e3\u6751\u59d4\u4f1a","short_name":"\u5c0f\u53e3","merger_name":"\u5c71\u4e1c,\u6dc4\u535a,\u6dc4\u5ddd,\u5cad\u5b50,\u5c0f\u53e3","pinyin":"XiaoKou","lng":"117.727979","lat":"36.664323"},{"id":302025,"parent_id":302014,"level":4,"area_code":"370302104209","zip_code":"255154","city_code":"0533","name":"\u5927\u53e3\u6751\u59d4\u4f1a","short_name":"\u5927\u53e3","merger_name":"\u5c71\u4e1c,\u6dc4\u535a,\u6dc4\u5ddd,\u5cad\u5b50,\u5927\u53e3","pinyin":"DaKou","lng":"117.761960","lat":"36.648310"},{"id":302026,"parent_id":302014,"level":4,"area_code":"370302104210","zip_code":"255154","city_code":"0533","name":"\u90dd\u5bb6\u6751\u59d4\u4f1a","short_name":"\u90dd\u5bb6","merger_name":"\u5c71\u4e1c,\u6dc4\u535a,\u6dc4\u5ddd,\u5cad\u5b50,\u90dd\u5bb6","pinyin":"HaoJia","lng":"117.891150","lat":"36.664990"},{"id":302027,"parent_id":302014,"level":4,"area_code":"370302104211","zip_code":"255154","city_code":"0533","name":"\u9f99\u6cc9\u6751\u59d4\u4f1a","short_name":"\u9f99\u6cc9","merger_name":"\u5c71\u4e1c,\u6dc4\u535a,\u6dc4\u5ddd,\u5cad\u5b50,\u9f99\u6cc9","pinyin":"LongQuan","lng":"117.978420","lat":"36.613480"},{"id":302028,"parent_id":302014,"level":4,"area_code":"370302104212","zip_code":"255154","city_code":"0533","name":"\u69f2\u6797\u6751\u59d4\u4f1a","short_name":"\u69f2\u6797","merger_name":"\u5c71\u4e1c,\u6dc4\u535a,\u6dc4\u5ddd,\u5cad\u5b50,\u69f2\u6797","pinyin":"HuLin","lng":"117.777400","lat":"36.611900"},{"id":302029,"parent_id":302014,"level":4,"area_code":"370302104213","zip_code":"255154","city_code":"0533","name":"\u5f20\u5bb6\u6751\u59d4\u4f1a","short_name":"\u5f20\u5bb6","merger_name":"\u5c71\u4e1c,\u6dc4\u535a,\u6dc4\u5ddd,\u5cad\u5b50,\u5f20\u5bb6","pinyin":"ZhangJia","lng":"117.784520","lat":"36.635850"},{"id":302030,"parent_id":302014,"level":4,"area_code":"370302104214","zip_code":"255154","city_code":"0533","name":"\u4e0a\u5e97\u6751\u59d4\u4f1a","short_name":"\u4e0a\u5e97","merger_name":"\u5c71\u4e1c,\u6dc4\u535a,\u6dc4\u5ddd,\u5cad\u5b50,\u4e0a\u5e97","pinyin":"ShangDian","lng":"117.727979","lat":"36.664323"},{"id":302031,"parent_id":302014,"level":4,"area_code":"370302104215","zip_code":"255154","city_code":"0533","name":"\u4e0b\u5e97\u6751\u59d4\u4f1a","short_name":"\u4e0b\u5e97","merger_name":"\u5c71\u4e1c,\u6dc4\u535a,\u6dc4\u5ddd,\u5cad\u5b50,\u4e0b\u5e97","pinyin":"XiaDian","lng":"117.796810","lat":"36.633930"},{"id":302032,"parent_id":302014,"level":4,"area_code":"370302104216","zip_code":"255154","city_code":"0533","name":"\u53f8\u5bb6\u6751\u59d4\u4f1a","short_name":"\u53f8\u5bb6","merger_name":"\u5c71\u4e1c,\u6dc4\u535a,\u6dc4\u5ddd,\u5cad\u5b50,\u53f8\u5bb6","pinyin":"SiJia","lng":"117.717253","lat":"36.672083"},{"id":302033,"parent_id":302014,"level":4,"area_code":"370302104217","zip_code":"255154","city_code":"0533","name":"\u5218\u5bb6\u6751\u59d4\u4f1a","short_name":"\u5218\u5bb6","merger_name":"\u5c71\u4e1c,\u6dc4\u535a,\u6dc4\u5ddd,\u5cad\u5b50,\u5218\u5bb6","pinyin":"LiuJia","lng":"117.717253","lat":"36.672083"},{"id":302034,"parent_id":302014,"level":4,"area_code":"370302104218","zip_code":"255154","city_code":"0533","name":"\u4e0b\u6cb3\u6751\u59d4\u4f1a","short_name":"\u4e0b\u6cb3","merger_name":"\u5c71\u4e1c,\u6dc4\u535a,\u6dc4\u5ddd,\u5cad\u5b50,\u4e0b\u6cb3","pinyin":"XiaHe","lng":"117.804250","lat":"36.635550"},{"id":302035,"parent_id":302014,"level":4,"area_code":"370302104219","zip_code":"255154","city_code":"0533","name":"\u8d75\u5bb6\u697c\u6751\u59d4\u4f1a","short_name":"\u8d75\u5bb6\u697c","merger_name":"\u5c71\u4e1c,\u6dc4\u535a,\u6dc4\u5ddd,\u5cad\u5b50,\u8d75\u5bb6\u697c","pinyin":"ZhaoJiaLou","lng":"117.809486","lat":"36.633649"},{"id":302036,"parent_id":302014,"level":4,"area_code":"370302104220","zip_code":"255154","city_code":"0533","name":"\u5b97\u5bb6\u6751\u59d4\u4f1a","short_name":"\u5b97\u5bb6","merger_name":"\u5c71\u4e1c,\u6dc4\u535a,\u6dc4\u5ddd,\u5cad\u5b50,\u5b97\u5bb6","pinyin":"ZongJia","lng":"117.809486","lat":"36.633649"},{"id":302037,"parent_id":302014,"level":4,"area_code":"370302104221","zip_code":"255154","city_code":"0533","name":"\u6768\u5bb6\u5e97\u6751\u59d4\u4f1a","short_name":"\u6768\u5bb6\u5e97","merger_name":"\u5c71\u4e1c,\u6dc4\u535a,\u6dc4\u5ddd,\u5cad\u5b50,\u6768\u5bb6\u5e97","pinyin":"YangJiaDian","lng":"117.809486","lat":"36.633649"},{"id":302038,"parent_id":302014,"level":4,"area_code":"370302104222","zip_code":"255154","city_code":"0533","name":"\u6cb3\u6d3c\u6751\u59d4\u4f1a","short_name":"\u6cb3\u6d3c","merger_name":"\u5c71\u4e1c,\u6dc4\u535a,\u6dc4\u5ddd,\u5cad\u5b50,\u6cb3\u6d3c","pinyin":"HeWa","lng":"117.946372","lat":"36.631248"},{"id":302039,"parent_id":302014,"level":4,"area_code":"370302104223","zip_code":"255154","city_code":"0533","name":"\u53f0\u5934\u5d16\u6751\u59d4\u4f1a","short_name":"\u53f0\u5934\u5d16","merger_name":"\u5c71\u4e1c,\u6dc4\u535a,\u6dc4\u5ddd,\u5cad\u5b50,\u53f0\u5934\u5d16","pinyin":"TaiTouYa","lng":"117.828476","lat":"36.627167"},{"id":302040,"parent_id":302014,"level":4,"area_code":"370302104224","zip_code":"255154","city_code":"0533","name":"\u9ec4\u5bb6\u5cea\u6751\u59d4\u4f1a","short_name":"\u9ec4\u5bb6\u5cea","merger_name":"\u5c71\u4e1c,\u6dc4\u535a,\u6dc4\u5ddd,\u5cad\u5b50,\u9ec4\u5bb6\u5cea","pinyin":"HuangJiaYu","lng":"118.436380","lat":"36.070040"},{"id":302041,"parent_id":302014,"level":4,"area_code":"370302104225","zip_code":"255154","city_code":"0533","name":"\u6797\u5cea\u6751\u59d4\u4f1a","short_name":"\u6797\u5cea","merger_name":"\u5c71\u4e1c,\u6dc4\u535a,\u6dc4\u5ddd,\u5cad\u5b50,\u6797\u5cea","pinyin":"LinYu","lng":"117.796810","lat":"36.633930"},{"id":302042,"parent_id":302014,"level":4,"area_code":"370302104226","zip_code":"255154","city_code":"0533","name":"\u674e\u91cc\u6751\u59d4\u4f1a","short_name":"\u674e\u91cc","merger_name":"\u5c71\u4e1c,\u6dc4\u535a,\u6dc4\u5ddd,\u5cad\u5b50,\u674e\u91cc","pinyin":"LiLi","lng":"117.758390","lat":"36.608580"},{"id":302043,"parent_id":302014,"level":4,"area_code":"370302104227","zip_code":"255154","city_code":"0533","name":"\u5317\u77f3\u6751\u59d4\u4f1a","short_name":"\u5317\u77f3","merger_name":"\u5c71\u4e1c,\u6dc4\u535a,\u6dc4\u5ddd,\u5cad\u5b50,\u5317\u77f3","pinyin":"BeiShi","lng":"117.946270","lat":"36.616870"},{"id":302044,"parent_id":301884,"level":3,"area_code":"370302111000","zip_code":"255161","city_code":"0533","name":"\u897f\u6cb3\u9547","short_name":"\u897f\u6cb3","merger_name":"\u5c71\u4e1c,\u6dc4\u535a,\u6dc4\u5ddd,\u897f\u6cb3","pinyin":"XiHe","lng":"117.947120","lat":"36.507250"},{"id":302045,"parent_id":302044,"level":4,"area_code":"370302111201","zip_code":"255161","city_code":"0533","name":"\u5e7f\u4ec1\u6751\u59d4\u4f1a","short_name":"\u5e7f\u4ec1","merger_name":"\u5c71\u4e1c,\u6dc4\u535a,\u6dc4\u5ddd,\u897f\u6cb3,\u5e7f\u4ec1","pinyin":"GuangRen","lng":"117.947320","lat":"36.508460"},{"id":302046,"parent_id":302044,"level":4,"area_code":"370302111202","zip_code":"255161","city_code":"0533","name":"\u9f99\u6e7e\u5cea\u6751\u59d4\u4f1a","short_name":"\u9f99\u6e7e\u5cea","merger_name":"\u5c71\u4e1c,\u6dc4\u535a,\u6dc4\u5ddd,\u897f\u6cb3,\u9f99\u6e7e\u5cea","pinyin":"LongWanYu","lng":"118.000710","lat":"36.543300"},{"id":302047,"parent_id":302044,"level":4,"area_code":"370302111203","zip_code":"255161","city_code":"0533","name":"\u9a6c\u5bb6\u5e84\u6751\u59d4\u4f1a","short_name":"\u9a6c\u5bb6\u5e84","merger_name":"\u5c71\u4e1c,\u6dc4\u535a,\u6dc4\u5ddd,\u897f\u6cb3,\u9a6c\u5bb6\u5e84","pinyin":"MaJiaZhuang","lng":"118.004405","lat":"36.527023"},{"id":302048,"parent_id":302044,"level":4,"area_code":"370302111204","zip_code":"255161","city_code":"0533","name":"\u5317\u9ec4\u5d16\u6751\u59d4\u4f1a","short_name":"\u5317\u9ec4\u5d16","merger_name":"\u5c71\u4e1c,\u6dc4\u535a,\u6dc4\u5ddd,\u897f\u6cb3,\u5317\u9ec4\u5d16","pinyin":"BeiHuangYa","lng":"118.311494","lat":"36.921456"},{"id":302049,"parent_id":302044,"level":4,"area_code":"370302111205","zip_code":"255161","city_code":"0533","name":"\u4e2d\u9ec4\u5d16\u6751\u59d4\u4f1a","short_name":"\u4e2d\u9ec4\u5d16","merger_name":"\u5c71\u4e1c,\u6dc4\u535a,\u6dc4\u5ddd,\u897f\u6cb3,\u4e2d\u9ec4\u5d16","pinyin":"ZhongHuangYa","lng":"117.991670","lat":"36.527160"},{"id":302050,"parent_id":302044,"level":4,"area_code":"370302111206","zip_code":"255161","city_code":"0533","name":"\u5357\u9ec4\u5d16\u6751\u59d4\u4f1a","short_name":"\u5357\u9ec4\u5d16","merger_name":"\u5c71\u4e1c,\u6dc4\u535a,\u6dc4\u5ddd,\u897f\u6cb3,\u5357\u9ec4\u5d16","pinyin":"NanHuangYa","lng":"117.986690","lat":"36.522300"},{"id":302051,"parent_id":302044,"level":4,"area_code":"370302111207","zip_code":"255161","city_code":"0533","name":"\u4e1c\u5761\u5730\u6751\u59d4\u4f1a","short_name":"\u4e1c\u5761\u5730","merger_name":"\u5c71\u4e1c,\u6dc4\u535a,\u6dc4\u5ddd,\u897f\u6cb3,\u4e1c\u5761\u5730","pinyin":"DongPoDi","lng":"117.975100","lat":"36.519240"},{"id":302052,"parent_id":302044,"level":4,"area_code":"370302111208","zip_code":"255161","city_code":"0533","name":"\u4e2d\u5761\u5730\u6751\u59d4\u4f1a","short_name":"\u4e2d\u5761\u5730","merger_name":"\u5c71\u4e1c,\u6dc4\u535a,\u6dc4\u5ddd,\u897f\u6cb3,\u4e2d\u5761\u5730","pinyin":"ZhongPoDi","lng":"118.117110","lat":"36.769031"},{"id":302053,"parent_id":302044,"level":4,"area_code":"370302111209","zip_code":"255161","city_code":"0533","name":"\u897f\u5761\u5730\u6751\u59d4\u4f1a","short_name":"\u897f\u5761\u5730","merger_name":"\u5c71\u4e1c,\u6dc4\u535a,\u6dc4\u5ddd,\u897f\u6cb3,\u897f\u5761\u5730","pinyin":"XiPoDi","lng":"117.960100","lat":"36.516320"},{"id":302054,"parent_id":302044,"level":4,"area_code":"370302111210","zip_code":"255161","city_code":"0533","name":"\u6566\u4ec1\u6751\u59d4\u4f1a","short_name":"\u6566\u4ec1","merger_name":"\u5c71\u4e1c,\u6dc4\u535a,\u6dc4\u5ddd,\u897f\u6cb3,\u6566\u4ec1","pinyin":"DunRen","lng":"117.937310","lat":"36.497270"},{"id":302055,"parent_id":302044,"level":4,"area_code":"370302111211","zip_code":"255161","city_code":"0533","name":"\u5b89\u4ec1\u6751\u59d4\u4f1a","short_name":"\u5b89\u4ec1","merger_name":"\u5c71\u4e1c,\u6dc4\u535a,\u6dc4\u5ddd,\u897f\u6cb3,\u5b89\u4ec1","pinyin":"AnRen","lng":"117.947120","lat":"36.507250"},{"id":302056,"parent_id":302044,"level":4,"area_code":"370302111212","zip_code":"255161","city_code":"0533","name":"\u6cb3\u5317\u6751\u59d4\u4f1a","short_name":"\u6cb3\u5317","merger_name":"\u5c71\u4e1c,\u6dc4\u535a,\u6dc4\u5ddd,\u897f\u6cb3,\u6cb3\u5317","pinyin":"HeBei","lng":"117.945169","lat":"36.506596"},{"id":302057,"parent_id":302044,"level":4,"area_code":"370302111213","zip_code":"255161","city_code":"0533","name":"\u6d77\u5e99\u6751\u59d4\u4f1a","short_name":"\u6d77\u5e99","merger_name":"\u5c71\u4e1c,\u6dc4\u535a,\u6dc4\u5ddd,\u897f\u6cb3,\u6d77\u5e99","pinyin":"HaiMiao","lng":"117.937310","lat":"36.497270"},{"id":302058,"parent_id":302044,"level":4,"area_code":"370302111214","zip_code":"255161","city_code":"0533","name":"\u6cb3\u5357\u6751\u59d4\u4f1a","short_name":"\u6cb3\u5357","merger_name":"\u5c71\u4e1c,\u6dc4\u535a,\u6dc4\u5ddd,\u897f\u6cb3,\u6cb3\u5357","pinyin":"HeNan","lng":"117.945169","lat":"36.506596"},{"id":302059,"parent_id":302044,"level":4,"area_code":"370302111215","zip_code":"255161","city_code":"0533","name":"\u4e1c\u5cad\u6751\u59d4\u4f1a","short_name":"\u4e1c\u5cad","merger_name":"\u5c71\u4e1c,\u6dc4\u535a,\u6dc4\u5ddd,\u897f\u6cb3,\u4e1c\u5cad","pinyin":"DongLing","lng":"117.913155","lat":"36.481836"},{"id":302060,"parent_id":302044,"level":4,"area_code":"370302111216","zip_code":"255161","city_code":"0533","name":"\u65b0\u5e84\u6751\u59d4\u4f1a","short_name":"\u65b0\u5e84","merger_name":"\u5c71\u4e1c,\u6dc4\u535a,\u6dc4\u5ddd,\u897f\u6cb3,\u65b0\u5e84","pinyin":"XinZhuang","lng":"117.945169","lat":"36.506596"},{"id":302061,"parent_id":302044,"level":4,"area_code":"370302111217","zip_code":"255161","city_code":"0533","name":"\u859b\u5bb6\u5cea\u6751\u59d4\u4f1a","short_name":"\u859b\u5bb6\u5cea","merger_name":"\u5c71\u4e1c,\u6dc4\u535a,\u6dc4\u5ddd,\u897f\u6cb3,\u859b\u5bb6\u5cea","pinyin":"XueJiaYu","lng":"118.328080","lat":"35.978390"},{"id":302062,"parent_id":302044,"level":4,"area_code":"370302111218","zip_code":"255176","city_code":"0533","name":"\u5f20\u5e84\u6751\u59d4\u4f1a","short_name":"\u5f20\u5e84","merger_name":"\u5c71\u4e1c,\u6dc4\u535a,\u6dc4\u5ddd,\u897f\u6cb3,\u5f20\u5e84","pinyin":"ZhangZhuang","lng":"118.067980","lat":"36.523780"},{"id":302063,"parent_id":302044,"level":4,"area_code":"370302111219","zip_code":"255161","city_code":"0533","name":"\u53cc\u80a1\u5cea\u6751\u59d4\u4f1a","short_name":"\u53cc\u80a1\u5cea","merger_name":"\u5c71\u4e1c,\u6dc4\u535a,\u6dc4\u5ddd,\u897f\u6cb3,\u53cc\u80a1\u5cea","pinyin":"ShuangGuYu","lng":"118.042360","lat":"36.496560"},{"id":302064,"parent_id":302044,"level":4,"area_code":"370302111220","zip_code":"255176","city_code":"0533","name":"\u5927\u9a6c\u9675\u6751\u59d4\u4f1a","short_name":"\u5927\u9a6c\u9675","merger_name":"\u5c71\u4e1c,\u6dc4\u535a,\u6dc4\u5ddd,\u897f\u6cb3,\u5927\u9a6c\u9675","pinyin":"DaMaLing","lng":"118.046680","lat":"36.521430"},{"id":302065,"parent_id":302044,"level":4,"area_code":"370302111221","zip_code":"255176","city_code":"0533","name":"\u5317\u5d16\u6751\u59d4\u4f1a","short_name":"\u5317\u5d16","merger_name":"\u5c71\u4e1c,\u6dc4\u535a,\u6dc4\u5ddd,\u897f\u6cb3,\u5317\u5d16","pinyin":"BeiYa","lng":"117.979721","lat":"36.718858"},{"id":302066,"parent_id":302044,"level":4,"area_code":"370302111222","zip_code":"255176","city_code":"0533","name":"\u7530\u5e84\u6751\u59d4\u4f1a","short_name":"\u7530\u5e84","merger_name":"\u5c71\u4e1c,\u6dc4\u535a,\u6dc4\u5ddd,\u897f\u6cb3,\u7530\u5e84","pinyin":"TianZhuang","lng":"117.945169","lat":"36.506596"},{"id":302067,"parent_id":302044,"level":4,"area_code":"370302111223","zip_code":"255176","city_code":"0533","name":"\u5c0f\u9a6c\u9675\u6751\u59d4\u4f1a","short_name":"\u5c0f\u9a6c\u9675","merger_name":"\u5c71\u4e1c,\u6dc4\u535a,\u6dc4\u5ddd,\u897f\u6cb3,\u5c0f\u9a6c\u9675","pinyin":"XiaoMaLing","lng":"118.036250","lat":"36.522270"},{"id":302068,"parent_id":302044,"level":4,"area_code":"370302111224","zip_code":"255176","city_code":"0533","name":"\u4e0a\u5854\u5c71\u6751\u59d4\u4f1a","short_name":"\u4e0a\u5854\u5c71","merger_name":"\u5c71\u4e1c,\u6dc4\u535a,\u6dc4\u5ddd,\u897f\u6cb3,\u4e0a\u5854\u5c71","pinyin":"ShangTaShan","lng":"117.971320","lat":"36.995470"},{"id":302069,"parent_id":302044,"level":4,"area_code":"370302111225","zip_code":"255176","city_code":"0533","name":"\u4e0b\u5854\u5c71\u6751\u59d4\u4f1a","short_name":"\u4e0b\u5854\u5c71","merger_name":"\u5c71\u4e1c,\u6dc4\u535a,\u6dc4\u5ddd,\u897f\u6cb3,\u4e0b\u5854\u5c71","pinyin":"XiaTaShan","lng":"118.117110","lat":"36.769031"},{"id":302070,"parent_id":302044,"level":4,"area_code":"370302111226","zip_code":"255176","city_code":"0533","name":"\u5357\u576a\u6751\u59d4\u4f1a","short_name":"\u5357\u576a","merger_name":"\u5c71\u4e1c,\u6dc4\u535a,\u6dc4\u5ddd,\u897f\u6cb3,\u5357\u576a","pinyin":"NanPing","lng":"118.067980","lat":"36.523780"},{"id":302071,"parent_id":302044,"level":4,"area_code":"370302111227","zip_code":"255176","city_code":"0533","name":"\u5317\u576a\u6751\u59d4\u4f1a","short_name":"\u5317\u576a","merger_name":"\u5c71\u4e1c,\u6dc4\u535a,\u6dc4\u5ddd,\u897f\u6cb3,\u5317\u576a","pinyin":"BeiPing","lng":"118.117110","lat":"36.769031"},{"id":302072,"parent_id":302044,"level":4,"area_code":"370302111228","zip_code":"255161","city_code":"0533","name":"\u7476\u5cea\u6751\u59d4\u4f1a","short_name":"\u7476\u5cea","merger_name":"\u5c71\u4e1c,\u6dc4\u535a,\u6dc4\u5ddd,\u897f\u6cb3,\u7476\u5cea","pinyin":"YaoYu","lng":"118.019600","lat":"36.517250"},{"id":302073,"parent_id":302044,"level":4,"area_code":"370302111229","zip_code":"255176","city_code":"0533","name":"\u4e1c\u69d0\u5cea\u6751\u59d4\u4f1a","short_name":"\u4e1c\u69d0\u5cea","merger_name":"\u5c71\u4e1c,\u6dc4\u535a,\u6dc4\u5ddd,\u897f\u6cb3,\u4e1c\u69d0\u5cea","pinyin":"DongHuaiYu","lng":"118.038710","lat":"36.536810"},{"id":302074,"parent_id":302044,"level":4,"area_code":"370302111230","zip_code":"255176","city_code":"0533","name":"\u897f\u69d0\u5cea\u6751\u59d4\u4f1a","short_name":"\u897f\u69d0\u5cea","merger_name":"\u5c71\u4e1c,\u6dc4\u535a,\u6dc4\u5ddd,\u897f\u6cb3,\u897f\u69d0\u5cea","pinyin":"XiHuaiYu","lng":"118.032151","lat":"36.535757"},{"id":302075,"parent_id":302044,"level":4,"area_code":"370302111231","zip_code":"255176","city_code":"0533","name":"\u8f6c\u9053\u6751\u59d4\u4f1a","short_name":"\u8f6c\u9053","merger_name":"\u5c71\u4e1c,\u6dc4\u535a,\u6dc4\u5ddd,\u897f\u6cb3,\u8f6c\u9053","pinyin":"ZhuanDao","lng":"118.037140","lat":"36.559400"},{"id":302076,"parent_id":302044,"level":4,"area_code":"370302111232","zip_code":"255176","city_code":"0533","name":"\u82a6\u5bb6\u5e84\u6751\u59d4\u4f1a","short_name":"\u82a6\u5bb6\u5e84","merger_name":"\u5c71\u4e1c,\u6dc4\u535a,\u6dc4\u5ddd,\u897f\u6cb3,\u82a6\u5bb6\u5e84","pinyin":"LuJiaZhuang","lng":"118.022960","lat":"36.531230"},{"id":302077,"parent_id":302044,"level":4,"area_code":"370302111233","zip_code":"255176","city_code":"0533","name":"\u7fdf\u5bb6\u5d16\u6751\u59d4\u4f1a","short_name":"\u7fdf\u5bb6\u5d16","merger_name":"\u5c71\u4e1c,\u6dc4\u535a,\u6dc4\u5ddd,\u897f\u6cb3,\u7fdf\u5bb6\u5d16","pinyin":"DiJiaYa","lng":"118.117110","lat":"36.769031"},{"id":302078,"parent_id":302044,"level":4,"area_code":"370302111234","zip_code":"255161","city_code":"0533","name":"\u82d7\u5cea\u6751\u59d4\u4f1a","short_name":"\u82d7\u5cea","merger_name":"\u5c71\u4e1c,\u6dc4\u535a,\u6dc4\u5ddd,\u897f\u6cb3,\u82d7\u5cea","pinyin":"MiaoYu","lng":"118.034910","lat":"36.569340"},{"id":302079,"parent_id":302044,"level":4,"area_code":"370302111235","zip_code":"255161","city_code":"0533","name":"\u7f57\u5708\u5cea\u6751\u59d4\u4f1a","short_name":"\u7f57\u5708\u5cea","merger_name":"\u5c71\u4e1c,\u6dc4\u535a,\u6dc4\u5ddd,\u897f\u6cb3,\u7f57\u5708\u5cea","pinyin":"LuoQuanYu","lng":"118.037140","lat":"36.559400"},{"id":302080,"parent_id":302044,"level":4,"area_code":"370302111236","zip_code":"255176","city_code":"0533","name":"\u68a8\u5cea\u53e3\u6751\u59d4\u4f1a","short_name":"\u68a8\u5cea\u53e3","merger_name":"\u5c71\u4e1c,\u6dc4\u535a,\u6dc4\u5ddd,\u897f\u6cb3,\u68a8\u5cea\u53e3","pinyin":"LiYuKou","lng":"118.068980","lat":"36.551480"},{"id":302081,"parent_id":302044,"level":4,"area_code":"370302111237","zip_code":"255161","city_code":"0533","name":"\u4e1c\u5e84\u5b50\u6751\u59d4\u4f1a","short_name":"\u4e1c\u5e84\u5b50","merger_name":"\u5c71\u4e1c,\u6dc4\u535a,\u6dc4\u5ddd,\u897f\u6cb3,\u4e1c\u5e84\u5b50","pinyin":"DongZhuangZi","lng":"118.067980","lat":"36.523780"},{"id":302082,"parent_id":302044,"level":4,"area_code":"370302111238","zip_code":"255176","city_code":"0533","name":"\u4e1c\u5cea\u6751\u59d4\u4f1a","short_name":"\u4e1c\u5cea","merger_name":"\u5c71\u4e1c,\u6dc4\u535a,\u6dc4\u5ddd,\u897f\u6cb3,\u4e1c\u5cea","pinyin":"DongYu","lng":"118.193453","lat":"36.449759"},{"id":302083,"parent_id":302044,"level":4,"area_code":"370302111239","zip_code":"255174","city_code":"0533","name":"\u5c0f\u4e1c\u576a\u6751\u59d4\u4f1a","short_name":"\u5c0f\u4e1c\u576a","merger_name":"\u5c71\u4e1c,\u6dc4\u535a,\u6dc4\u5ddd,\u897f\u6cb3,\u5c0f\u4e1c\u576a","pinyin":"XiaoDongPing","lng":"118.095447","lat":"36.850942"},{"id":302084,"parent_id":302044,"level":4,"area_code":"370302111240","zip_code":"255174","city_code":"0533","name":"\u897f\u576a\u6751\u59d4\u4f1a","short_name":"\u897f\u576a","merger_name":"\u5c71\u4e1c,\u6dc4\u535a,\u6dc4\u5ddd,\u897f\u6cb3,\u897f\u576a","pinyin":"XiPing","lng":"117.989830","lat":"36.504280"},{"id":302085,"parent_id":302044,"level":4,"area_code":"370302111241","zip_code":"255174","city_code":"0533","name":"\u6d9d\u6d3c\u6751\u59d4\u4f1a","short_name":"\u6d9d\u6d3c","merger_name":"\u5c71\u4e1c,\u6dc4\u535a,\u6dc4\u5ddd,\u897f\u6cb3,\u6d9d\u6d3c","pinyin":"LaoWa","lng":"118.067980","lat":"36.523780"},{"id":302086,"parent_id":302044,"level":4,"area_code":"370302111242","zip_code":"255174","city_code":"0533","name":"\u82b1\u96e8\u6c9f\u6751\u59d4\u4f1a","short_name":"\u82b1\u96e8\u6c9f","merger_name":"\u5c71\u4e1c,\u6dc4\u535a,\u6dc4\u5ddd,\u897f\u6cb3,\u82b1\u96e8\u6c9f","pinyin":"HuaYuGou","lng":"118.117110","lat":"36.769031"},{"id":302087,"parent_id":302044,"level":4,"area_code":"370302111243","zip_code":"255174","city_code":"0533","name":"\u76d8\u8f66\u6c9f\u6751\u59d4\u4f1a","short_name":"\u76d8\u8f66\u6c9f","merger_name":"\u5c71\u4e1c,\u6dc4\u535a,\u6dc4\u5ddd,\u897f\u6cb3,\u76d8\u8f66\u6c9f","pinyin":"PanCheGou","lng":"118.001200","lat":"36.517160"},{"id":302088,"parent_id":302044,"level":4,"area_code":"370302111244","zip_code":"255174","city_code":"0533","name":"\u6c34\u5cea\u6751\u59d4\u4f1a","short_name":"\u6c34\u5cea","merger_name":"\u5c71\u4e1c,\u6dc4\u535a,\u6dc4\u5ddd,\u897f\u6cb3,\u6c34\u5cea","pinyin":"ShuiYu","lng":"117.945169","lat":"36.506596"},{"id":302089,"parent_id":302044,"level":4,"area_code":"370302111245","zip_code":"255174","city_code":"0533","name":"\u5927\u4e1c\u576a\u6751\u59d4\u4f1a","short_name":"\u5927\u4e1c\u576a","merger_name":"\u5c71\u4e1c,\u6dc4\u535a,\u6dc4\u5ddd,\u897f\u6cb3,\u5927\u4e1c\u576a","pinyin":"DaDongPing","lng":"117.971320","lat":"36.995470"},{"id":302090,"parent_id":302044,"level":4,"area_code":"370302111246","zip_code":"255174","city_code":"0533","name":"\u540e\u89d2\u6751\u59d4\u4f1a","short_name":"\u540e\u89d2","merger_name":"\u5c71\u4e1c,\u6dc4\u535a,\u6dc4\u5ddd,\u897f\u6cb3,\u540e\u89d2","pinyin":"HouJiao","lng":"117.997980","lat":"36.504190"},{"id":302091,"parent_id":302044,"level":4,"area_code":"370302111247","zip_code":"255174","city_code":"0533","name":"\u6cb3\u6e7e\u6751\u59d4\u4f1a","short_name":"\u6cb3\u6e7e","merger_name":"\u5c71\u4e1c,\u6dc4\u535a,\u6dc4\u5ddd,\u897f\u6cb3,\u6cb3\u6e7e","pinyin":"HeWan","lng":"117.947120","lat":"36.507250"},{"id":302092,"parent_id":302044,"level":4,"area_code":"370302111248","zip_code":"255169","city_code":"0533","name":"\u5357\u5cea\u6751\u6751\u59d4\u4f1a","short_name":"\u5357\u5cea\u6751","merger_name":"\u5c71\u4e1c,\u6dc4\u535a,\u6dc4\u5ddd,\u897f\u6cb3,\u5357\u5cea\u6751","pinyin":"NanYuCun","lng":"118.057380","lat":"36.708610"},{"id":302093,"parent_id":302044,"level":4,"area_code":"370302111249","zip_code":"255161","city_code":"0533","name":"\u5927\u559c\u5e84\u6751\u59d4\u4f1a","short_name":"\u5927\u559c\u5e84","merger_name":"\u5c71\u4e1c,\u6dc4\u535a,\u6dc4\u5ddd,\u897f\u6cb3,\u5927\u559c\u5e84","pinyin":"DaXiZhuang","lng":"118.010080","lat":"36.499280"},{"id":302094,"parent_id":302044,"level":4,"area_code":"370302111250","zip_code":"255174","city_code":"0533","name":"\u5b9d\u6cc9\u6751\u59d4\u4f1a","short_name":"\u5b9d\u6cc9","merger_name":"\u5c71\u4e1c,\u6dc4\u535a,\u6dc4\u5ddd,\u897f\u6cb3,\u5b9d\u6cc9","pinyin":"BaoQuan","lng":"118.010080","lat":"36.499280"},{"id":302095,"parent_id":302044,"level":4,"area_code":"370302111251","zip_code":"255174","city_code":"0533","name":"\u4e0a\u53f0\u6751\u59d4\u4f1a","short_name":"\u4e0a\u53f0","merger_name":"\u5c71\u4e1c,\u6dc4\u535a,\u6dc4\u5ddd,\u897f\u6cb3,\u4e0a\u53f0","pinyin":"ShangTai","lng":"117.945169","lat":"36.506596"},{"id":302096,"parent_id":302044,"level":4,"area_code":"370302111252","zip_code":"255174","city_code":"0533","name":"\u9f99\u53f0\u6751\u59d4\u4f1a","short_name":"\u9f99\u53f0","merger_name":"\u5c71\u4e1c,\u6dc4\u535a,\u6dc4\u5ddd,\u897f\u6cb3,\u9f99\u53f0","pinyin":"LongTai","lng":"117.950163","lat":"36.547752"},{"id":302097,"parent_id":302044,"level":4,"area_code":"370302111253","zip_code":"255174","city_code":"0533","name":"\u4e1c\u5e84\u6751\u59d4\u4f1a","short_name":"\u4e1c\u5e84","merger_name":"\u5c71\u4e1c,\u6dc4\u535a,\u6dc4\u5ddd,\u897f\u6cb3,\u4e1c\u5e84","pinyin":"DongZhuang","lng":"118.042360","lat":"36.496560"},{"id":302098,"parent_id":302044,"level":4,"area_code":"370302111254","zip_code":"255174","city_code":"0533","name":"\u4e1c\u5c0f\u5e84\u6751\u59d4\u4f1a","short_name":"\u4e1c\u5c0f\u5e84","merger_name":"\u5c71\u4e1c,\u6dc4\u535a,\u6dc4\u5ddd,\u897f\u6cb3,\u4e1c\u5c0f\u5e84","pinyin":"DongXiaoZhuang","lng":"118.042360","lat":"36.496560"},{"id":302099,"parent_id":302044,"level":4,"area_code":"370302111255","zip_code":"255174","city_code":"0533","name":"\u5c71\u897f\u6751\u59d4\u4f1a","short_name":"\u5c71\u897f","merger_name":"\u5c71\u4e1c,\u6dc4\u535a,\u6dc4\u5ddd,\u897f\u6cb3,\u5c71\u897f","pinyin":"ShanXi","lng":"117.945169","lat":"36.506596"},{"id":302100,"parent_id":302044,"level":4,"area_code":"370302111256","zip_code":"255174","city_code":"0533","name":"\u4e0b\u4e49\u6237\u6751\u59d4\u4f1a","short_name":"\u4e0b\u4e49\u6237","merger_name":"\u5c71\u4e1c,\u6dc4\u535a,\u6dc4\u5ddd,\u897f\u6cb3,\u4e0b\u4e49\u6237","pinyin":"XiaYiHu","lng":"118.018150","lat":"36.478660"},{"id":302101,"parent_id":302044,"level":4,"area_code":"370302111257","zip_code":"255174","city_code":"0533","name":"\u7a9f\u7a7a\u5cea\u6751\u59d4\u4f1a","short_name":"\u7a9f\u7a7a\u5cea","merger_name":"\u5c71\u4e1c,\u6dc4\u535a,\u6dc4\u5ddd,\u897f\u6cb3,\u7a9f\u7a7a\u5cea","pinyin":"KuKongYu","lng":"118.000200","lat":"36.465400"},{"id":302102,"parent_id":302044,"level":4,"area_code":"370302111258","zip_code":"255174","city_code":"0533","name":"\u62a4\u5b9d\u6cc9\u6751\u59d4\u4f1a","short_name":"\u62a4\u5b9d\u6cc9","merger_name":"\u5c71\u4e1c,\u6dc4\u535a,\u6dc4\u5ddd,\u897f\u6cb3,\u62a4\u5b9d\u6cc9","pinyin":"HuBaoQuan","lng":"117.986320","lat":"36.454530"},{"id":302103,"parent_id":302044,"level":4,"area_code":"370302111259","zip_code":"255161","city_code":"0533","name":"\u8282\u8304\u5cea\u6751\u59d4\u4f1a","short_name":"\u8282\u8304\u5cea","merger_name":"\u5c71\u4e1c,\u6dc4\u535a,\u6dc4\u5ddd,\u897f\u6cb3,\u8282\u8304\u5cea","pinyin":"JieJiaYu","lng":"117.969440","lat":"36.573810"},{"id":302104,"parent_id":302044,"level":4,"area_code":"370302111260","zip_code":"255174","city_code":"0533","name":"\u957f\u5174\u6751\u59d4\u4f1a","short_name":"\u957f\u5174","merger_name":"\u5c71\u4e1c,\u6dc4\u535a,\u6dc4\u5ddd,\u897f\u6cb3,\u957f\u5174","pinyin":"ChangXing","lng":"117.945169","lat":"36.506596"},{"id":302105,"parent_id":302044,"level":4,"area_code":"370302111261","zip_code":"255174","city_code":"0533","name":"\u5927\u5b89\u6751\u59d4\u4f1a","short_name":"\u5927\u5b89","merger_name":"\u5c71\u4e1c,\u6dc4\u535a,\u6dc4\u5ddd,\u897f\u6cb3,\u5927\u5b89","pinyin":"DaAn","lng":"117.945169","lat":"36.506596"},{"id":302106,"parent_id":302044,"level":4,"area_code":"370302111262","zip_code":"255174","city_code":"0533","name":"\u6838\u6843\u5cea\u6751\u59d4\u4f1a","short_name":"\u6838\u6843\u5cea","merger_name":"\u5c71\u4e1c,\u6dc4\u535a,\u6dc4\u5ddd,\u897f\u6cb3,\u6838\u6843\u5cea","pinyin":"HeTaoYu","lng":"118.246540","lat":"35.974890"},{"id":302107,"parent_id":301884,"level":3,"area_code":"370302112000","zip_code":"255144","city_code":"0533","name":"\u9f99\u6cc9\u9547","short_name":"\u9f99\u6cc9","merger_name":"\u5c71\u4e1c,\u6dc4\u535a,\u6dc4\u5ddd,\u9f99\u6cc9","pinyin":"LongQuan","lng":"117.975060","lat":"36.575860"},{"id":302108,"parent_id":302107,"level":4,"area_code":"370302112001","zip_code":"255144","city_code":"0533","name":"\u6e2d\u4e8c\u793e\u533a\u5c45\u59d4\u4f1a","short_name":"\u6e2d\u4e8c","merger_name":"\u5c71\u4e1c,\u6dc4\u535a,\u6dc4\u5ddd,\u9f99\u6cc9,\u6e2d\u4e8c","pinyin":"WeiEr","lng":"117.966090","lat":"36.561460"},{"id":302109,"parent_id":302107,"level":4,"area_code":"370302112002","zip_code":"255144","city_code":"0533","name":"\u5e7f\u901a\u793e\u533a\u5c45\u59d4\u4f1a","short_name":"\u5e7f\u901a","merger_name":"\u5c71\u4e1c,\u6dc4\u535a,\u6dc4\u5ddd,\u9f99\u6cc9,\u5e7f\u901a","pinyin":"GuangTong","lng":"117.971280","lat":"36.576903"},{"id":302110,"parent_id":302107,"level":4,"area_code":"370302112003","zip_code":"255144","city_code":"0533","name":"\u534e\u9f99\u793e\u533a","short_name":"\u534e\u9f99","merger_name":"\u5c71\u4e1c,\u6dc4\u535a,\u6dc4\u5ddd,\u9f99\u6cc9,\u534e\u9f99","pinyin":"HuaLong","lng":"117.960357","lat":"36.555892"},{"id":302111,"parent_id":302107,"level":4,"area_code":"370302112201","zip_code":"255144","city_code":"0533","name":"\u9f99\u4e00\u6751\u59d4\u4f1a","short_name":"\u9f99\u4e00","merger_name":"\u5c71\u4e1c,\u6dc4\u535a,\u6dc4\u5ddd,\u9f99\u6cc9,\u9f99\u4e00","pinyin":"LongYi","lng":"117.980780","lat":"36.578830"},{"id":302112,"parent_id":302107,"level":4,"area_code":"370302112202","zip_code":"255144","city_code":"0533","name":"\u77fe\u573a\u6751\u59d4\u4f1a","short_name":"\u77fe\u573a","merger_name":"\u5c71\u4e1c,\u6dc4\u535a,\u6dc4\u5ddd,\u9f99\u6cc9,\u77fe\u573a","pinyin":"FanChang","lng":"117.944660","lat":"36.541760"},{"id":302113,"parent_id":302107,"level":4,"area_code":"370302112203","zip_code":"255144","city_code":"0533","name":"\u6cc9\u5934\u6751\u59d4\u4f1a","short_name":"\u6cc9\u5934","merger_name":"\u5c71\u4e1c,\u6dc4\u535a,\u6dc4\u5ddd,\u9f99\u6cc9,\u6cc9\u5934","pinyin":"QuanTou","lng":"117.944660","lat":"36.541760"},{"id":302114,"parent_id":302107,"level":4,"area_code":"370302112204","zip_code":"255144","city_code":"0533","name":"\u6e2d\u4e00\u6751\u59d4\u4f1a","short_name":"\u6e2d\u4e00","merger_name":"\u5c71\u4e1c,\u6dc4\u535a,\u6dc4\u5ddd,\u9f99\u6cc9,\u6e2d\u4e00","pinyin":"WeiYi","lng":"117.966970","lat":"36.568570"},{"id":302115,"parent_id":302107,"level":4,"area_code":"370302112205","zip_code":"255144","city_code":"0533","name":"\u5708\u5b50\u6751\u59d4\u4f1a","short_name":"\u5708\u5b50","merger_name":"\u5c71\u4e1c,\u6dc4\u535a,\u6dc4\u5ddd,\u9f99\u6cc9,\u5708\u5b50","pinyin":"QuanZi","lng":"117.966970","lat":"36.568570"},{"id":302116,"parent_id":302107,"level":4,"area_code":"370302112206","zip_code":"255144","city_code":"0533","name":"\u53f0\u5934\u6751\u59d4\u4f1a","short_name":"\u53f0\u5934","merger_name":"\u5c71\u4e1c,\u6dc4\u535a,\u6dc4\u5ddd,\u9f99\u6cc9,\u53f0\u5934","pinyin":"TaiTou","lng":"117.972146","lat":"36.809497"},{"id":302117,"parent_id":302107,"level":4,"area_code":"370302112207","zip_code":"255144","city_code":"0533","name":"\u9f99\u4e8c\u6751\u59d4\u4f1a","short_name":"\u9f99\u4e8c","merger_name":"\u5c71\u4e1c,\u6dc4\u535a,\u6dc4\u5ddd,\u9f99\u6cc9,\u9f99\u4e8c","pinyin":"LongEr","lng":"117.980780","lat":"36.578830"},{"id":302118,"parent_id":302107,"level":4,"area_code":"370302112208","zip_code":"255144","city_code":"0533","name":"\u9f99\u4e09\u6751\u59d4\u4f1a","short_name":"\u9f99\u4e09","merger_name":"\u5c71\u4e1c,\u6dc4\u535a,\u6dc4\u5ddd,\u9f99\u6cc9,\u9f99\u4e09","pinyin":"LongSan","lng":"117.980780","lat":"36.578830"},{"id":302119,"parent_id":302107,"level":4,"area_code":"370302112209","zip_code":"255144","city_code":"0533","name":"\u9f99\u56db\u6751\u59d4\u4f1a","short_name":"\u9f99\u56db","merger_name":"\u5c71\u4e1c,\u6dc4\u535a,\u6dc4\u5ddd,\u9f99\u6cc9,\u9f99\u56db","pinyin":"LongSi","lng":"117.981680","lat":"36.584250"},{"id":302120,"parent_id":302107,"level":4,"area_code":"370302112210","zip_code":"255144","city_code":"0533","name":"\u97e9\u5723\u6751\u59d4\u4f1a","short_name":"\u97e9\u5723","merger_name":"\u5c71\u4e1c,\u6dc4\u535a,\u6dc4\u5ddd,\u9f99\u6cc9,\u97e9\u5723","pinyin":"HanSheng","lng":"117.982243","lat":"36.586330"},{"id":302121,"parent_id":302107,"level":4,"area_code":"370302112211","zip_code":"255144","city_code":"0533","name":"\u548c\u5e84\u6751\u59d4\u4f1a","short_name":"\u548c\u5e84","merger_name":"\u5c71\u4e1c,\u6dc4\u535a,\u6dc4\u5ddd,\u9f99\u6cc9,\u548c\u5e84","pinyin":"HeZhuang","lng":"117.969920","lat":"36.589020"},{"id":302122,"parent_id":302107,"level":4,"area_code":"370302112212","zip_code":"255144","city_code":"0533","name":"\u5c1a\u5e84\u6751\u59d4\u4f1a","short_name":"\u5c1a\u5e84","merger_name":"\u5c71\u4e1c,\u6dc4\u535a,\u6dc4\u5ddd,\u9f99\u6cc9,\u5c1a\u5e84","pinyin":"ShangZhuang","lng":"117.985220","lat":"36.601250"},{"id":302123,"parent_id":302107,"level":4,"area_code":"370302112213","zip_code":"255144","city_code":"0533","name":"\u5927\u571f\u5c4b\u6751\u59d4\u4f1a","short_name":"\u5927\u571f\u5c4b","merger_name":"\u5c71\u4e1c,\u6dc4\u535a,\u6dc4\u5ddd,\u9f99\u6cc9,\u5927\u571f\u5c4b","pinyin":"DaTuWu","lng":"117.991160","lat":"36.594480"},{"id":302124,"parent_id":302107,"level":4,"area_code":"370302112214","zip_code":"255144","city_code":"0533","name":"\u97e9\u5e84\u6751\u59d4\u4f1a","short_name":"\u97e9\u5e84","merger_name":"\u5c71\u4e1c,\u6dc4\u535a,\u6dc4\u5ddd,\u9f99\u6cc9,\u97e9\u5e84","pinyin":"HanZhuang","lng":"117.989874","lat":"36.607361"},{"id":302125,"parent_id":302107,"level":4,"area_code":"370302112215","zip_code":"255144","city_code":"0533","name":"\u9e93\u6751\u6751\u59d4\u4f1a","short_name":"\u9e93\u6751","merger_name":"\u5c71\u4e1c,\u6dc4\u535a,\u6dc4\u5ddd,\u9f99\u6cc9,\u9e93\u6751","pinyin":"LuCun","lng":"117.978420","lat":"36.613480"},{"id":302126,"parent_id":302107,"level":4,"area_code":"370302112216","zip_code":"255144","city_code":"0533","name":"\u5317\u65fa\u6751\u59d4\u4f1a","short_name":"\u5317\u65fa","merger_name":"\u5c71\u4e1c,\u6dc4\u535a,\u6dc4\u5ddd,\u9f99\u6cc9,\u5317\u65fa","pinyin":"BeiWang","lng":"117.983460","lat":"36.611380"},{"id":302127,"parent_id":301884,"level":3,"area_code":"370302113000","zip_code":"255150","city_code":"0533","name":"\u5be8\u91cc\u9547","short_name":"\u5be8\u91cc","merger_name":"\u5c71\u4e1c,\u6dc4\u535a,\u6dc4\u5ddd,\u5be8\u91cc","pinyin":"ZhaiLi","lng":"118.039070","lat":"36.647840"},{"id":302128,"parent_id":302127,"level":4,"area_code":"370302113001","zip_code":"255150","city_code":"0533","name":"\u9ec9\u9633\u793e\u533a\u5c45\u59d4\u4f1a","short_name":"\u9ec9\u9633","merger_name":"\u5c71\u4e1c,\u6dc4\u535a,\u6dc4\u5ddd,\u5be8\u91cc,\u9ec9\u9633","pinyin":"HongYang","lng":"118.038860","lat":"36.648460"},{"id":302129,"parent_id":302127,"level":4,"area_code":"370302113002","zip_code":"255161","city_code":"0533","name":"\u897f\u5761\u793e\u533a\u5c45\u59d4\u4f1a","short_name":"\u897f\u5761","merger_name":"\u5c71\u4e1c,\u6dc4\u535a,\u6dc4\u5ddd,\u5be8\u91cc,\u897f\u5761","pinyin":"XiPo","lng":"117.964143","lat":"36.652764"},{"id":302130,"parent_id":302127,"level":4,"area_code":"370302113003","zip_code":"255150","city_code":"0533","name":"\u4e1c\u82d1\u793e\u533a\u5c45\u59d4\u4f1a","short_name":"\u4e1c\u82d1","merger_name":"\u5c71\u4e1c,\u6dc4\u535a,\u6dc4\u5ddd,\u5be8\u91cc,\u4e1c\u82d1","pinyin":"DongYuan","lng":"118.201560","lat":"36.626680"},{"id":302131,"parent_id":302127,"level":4,"area_code":"370302113201","zip_code":"255150","city_code":"0533","name":"\u5be8\u91cc\u6751\u59d4\u4f1a","short_name":"\u5be8\u91cc","merger_name":"\u5c71\u4e1c,\u6dc4\u535a,\u6dc4\u5ddd,\u5be8\u91cc,\u5be8\u91cc","pinyin":"ZhaiLi","lng":"118.037850","lat":"36.646480"},{"id":302132,"parent_id":302127,"level":4,"area_code":"370302113202","zip_code":"255150","city_code":"0533","name":"\u5357\u4f5b\u6751\u59d4\u4f1a","short_name":"\u5357\u4f5b","merger_name":"\u5c71\u4e1c,\u6dc4\u535a,\u6dc4\u5ddd,\u5be8\u91cc,\u5357\u4f5b","pinyin":"NanFu","lng":"118.113810","lat":"36.636180"},{"id":302133,"parent_id":302127,"level":4,"area_code":"370302113203","zip_code":"255150","city_code":"0533","name":"\u5317\u4f5b\u6751\u59d4\u4f1a","short_name":"\u5317\u4f5b","merger_name":"\u5c71\u4e1c,\u6dc4\u535a,\u6dc4\u5ddd,\u5be8\u91cc,\u5317\u4f5b","pinyin":"BeiFu","lng":"118.113370","lat":"36.643170"},{"id":302134,"parent_id":302127,"level":4,"area_code":"370302113204","zip_code":"255150","city_code":"0533","name":"\u5357\u4ed9\u6751\u59d4\u4f1a","short_name":"\u5357\u4ed9","merger_name":"\u5c71\u4e1c,\u6dc4\u535a,\u6dc4\u5ddd,\u5be8\u91cc,\u5357\u4ed9","pinyin":"NanXian","lng":"117.979721","lat":"36.718858"},{"id":302135,"parent_id":302127,"level":4,"area_code":"370302113205","zip_code":"255150","city_code":"0533","name":"\u5317\u4ed9\u6751\u59d4\u4f1a","short_name":"\u5317\u4ed9","merger_name":"\u5c71\u4e1c,\u6dc4\u535a,\u6dc4\u5ddd,\u5be8\u91cc,\u5317\u4ed9","pinyin":"BeiXian","lng":"118.113810","lat":"36.636180"},{"id":302136,"parent_id":302127,"level":4,"area_code":"370302113206","zip_code":"255150","city_code":"0533","name":"\u590f\u79b9\u6cb3\u6751\u59d4\u4f1a","short_name":"\u590f\u79b9\u6cb3","merger_name":"\u5c71\u4e1c,\u6dc4\u535a,\u6dc4\u5ddd,\u5be8\u91cc,\u590f\u79b9\u6cb3","pinyin":"XiaYuHe","lng":"118.117110","lat":"36.769031"},{"id":302137,"parent_id":302127,"level":4,"area_code":"370302113207","zip_code":"255150","city_code":"0533","name":"\u571f\u5c71\u5cea\u6751\u59d4\u4f1a","short_name":"\u571f\u5c71\u5cea","merger_name":"\u5c71\u4e1c,\u6dc4\u535a,\u6dc4\u5ddd,\u5be8\u91cc,\u571f\u5c71\u5cea","pinyin":"TuShanYu","lng":"118.080090","lat":"36.637410"},{"id":302138,"parent_id":302127,"level":4,"area_code":"370302113208","zip_code":"255150","city_code":"0533","name":"\u5357\u9ec4\u6751\u59d4\u4f1a","short_name":"\u5357\u9ec4","merger_name":"\u5c71\u4e1c,\u6dc4\u535a,\u6dc4\u5ddd,\u5be8\u91cc,\u5357\u9ec4","pinyin":"NanHuang","lng":"118.079343","lat":"36.636828"},{"id":302139,"parent_id":302127,"level":4,"area_code":"370302113209","zip_code":"255150","city_code":"0533","name":"\u5317\u9ec4\u6751\u59d4\u4f1a","short_name":"\u5317\u9ec4","merger_name":"\u5c71\u4e1c,\u6dc4\u535a,\u6dc4\u5ddd,\u5be8\u91cc,\u5317\u9ec4","pinyin":"BeiHuang","lng":"118.070280","lat":"36.635740"},{"id":302140,"parent_id":302127,"level":4,"area_code":"370302113210","zip_code":"255150","city_code":"0533","name":"\u90b9\u5bb6\u6751\u59d4\u4f1a","short_name":"\u90b9\u5bb6","merger_name":"\u5c71\u4e1c,\u6dc4\u535a,\u6dc4\u5ddd,\u5be8\u91cc,\u90b9\u5bb6","pinyin":"ZouJia","lng":"118.053590","lat":"36.649790"},{"id":302141,"parent_id":302127,"level":4,"area_code":"370302113211","zip_code":"255150","city_code":"0533","name":"\u5c71\u5934\u6751\u59d4\u4f1a","short_name":"\u5c71\u5934","merger_name":"\u5c71\u4e1c,\u6dc4\u535a,\u6dc4\u5ddd,\u5be8\u91cc,\u5c71\u5934","pinyin":"ShanTou","lng":"117.965681","lat":"36.631666"},{"id":302142,"parent_id":302127,"level":4,"area_code":"370302113212","zip_code":"255150","city_code":"0533","name":"\u5927\u5f20\u6751\u59d4\u4f1a","short_name":"\u5927\u5f20","merger_name":"\u5c71\u4e1c,\u6dc4\u535a,\u6dc4\u5ddd,\u5be8\u91cc,\u5927\u5f20","pinyin":"DaZhang","lng":"118.037890","lat":"36.646770"},{"id":302143,"parent_id":302127,"level":4,"area_code":"370302113213","zip_code":"255150","city_code":"0533","name":"\u5f90\u5bb6\u6751\u59d4\u4f1a","short_name":"\u5f90\u5bb6","merger_name":"\u5c71\u4e1c,\u6dc4\u535a,\u6dc4\u5ddd,\u5be8\u91cc,\u5f90\u5bb6","pinyin":"XuJia","lng":"117.979721","lat":"36.718858"},{"id":302144,"parent_id":302127,"level":4,"area_code":"370302113214","zip_code":"255150","city_code":"0533","name":"\u83aa\u5e84\u6751\u59d4\u4f1a","short_name":"\u83aa\u5e84","merger_name":"\u5c71\u4e1c,\u6dc4\u535a,\u6dc4\u5ddd,\u5be8\u91cc,\u83aa\u5e84","pinyin":"EZhuang","lng":"118.025020","lat":"36.638477"},{"id":302145,"parent_id":302127,"level":4,"area_code":"370302113215","zip_code":"255150","city_code":"0533","name":"\u8881\u5bb6\u6751\u59d4\u4f1a","short_name":"\u8881\u5bb6","merger_name":"\u5c71\u4e1c,\u6dc4\u535a,\u6dc4\u5ddd,\u5be8\u91cc,\u8881\u5bb6","pinyin":"YuanJia","lng":"117.886420","lat":"36.861720"},{"id":302146,"parent_id":302127,"level":4,"area_code":"370302113216","zip_code":"255150","city_code":"0533","name":"\u89e3\u653e\u6751\u59d4\u4f1a","short_name":"\u89e3\u653e","merger_name":"\u5c71\u4e1c,\u6dc4\u535a,\u6dc4\u5ddd,\u5be8\u91cc,\u89e3\u653e","pinyin":"JieFang","lng":"118.021773","lat":"36.649607"},{"id":302147,"parent_id":302127,"level":4,"area_code":"370302113217","zip_code":"255150","city_code":"0533","name":"\u5357\u6c88\u6751\u59d4\u4f1a","short_name":"\u5357\u6c88","merger_name":"\u5c71\u4e1c,\u6dc4\u535a,\u6dc4\u5ddd,\u5be8\u91cc,\u5357\u6c88","pinyin":"NanShen","lng":"118.117110","lat":"36.769031"},{"id":302148,"parent_id":302127,"level":4,"area_code":"370302113218","zip_code":"255150","city_code":"0533","name":"\u5317\u6c88\u6751\u59d4\u4f1a","short_name":"\u5317\u6c88","merger_name":"\u5c71\u4e1c,\u6dc4\u535a,\u6dc4\u5ddd,\u5be8\u91cc,\u5317\u6c88","pinyin":"BeiShen","lng":"118.020053","lat":"36.652980"},{"id":302149,"parent_id":302127,"level":4,"area_code":"370302113219","zip_code":"255150","city_code":"0533","name":"\u4e1c\u5468\u6751\u59d4\u4f1a","short_name":"\u4e1c\u5468","merger_name":"\u5c71\u4e1c,\u6dc4\u535a,\u6dc4\u5ddd,\u5be8\u91cc,\u4e1c\u5468","pinyin":"DongZhou","lng":"118.002172","lat":"36.663270"},{"id":302150,"parent_id":302127,"level":4,"area_code":"370302113220","zip_code":"255150","city_code":"0533","name":"\u897f\u5468\u6751\u59d4\u4f1a","short_name":"\u897f\u5468","merger_name":"\u5c71\u4e1c,\u6dc4\u535a,\u6dc4\u5ddd,\u5be8\u91cc,\u897f\u5468","pinyin":"XiZhou","lng":"118.002172","lat":"36.663270"},{"id":302151,"parent_id":302127,"level":4,"area_code":"370302113221","zip_code":"255150","city_code":"0533","name":"\u5c0f\u5468\u6751\u59d4\u4f1a","short_name":"\u5c0f\u5468","merger_name":"\u5c71\u4e1c,\u6dc4\u535a,\u6dc4\u5ddd,\u5be8\u91cc,\u5c0f\u5468","pinyin":"XiaoZhou","lng":"117.990880","lat":"36.656040"},{"id":302152,"parent_id":302127,"level":4,"area_code":"370302113222","zip_code":"255150","city_code":"0533","name":"\u5c0f\u8463\u6751\u59d4\u4f1a","short_name":"\u5c0f\u8463","merger_name":"\u5c71\u4e1c,\u6dc4\u535a,\u6dc4\u5ddd,\u5be8\u91cc,\u5c0f\u8463","pinyin":"XiaoDong","lng":"117.996600","lat":"36.670940"},{"id":302153,"parent_id":302127,"level":4,"area_code":"370302113223","zip_code":"255169","city_code":"0533","name":"\u84fc\u575e\u6751\u59d4\u4f1a","short_name":"\u84fc\u575e","merger_name":"\u5c71\u4e1c,\u6dc4\u535a,\u6dc4\u5ddd,\u5be8\u91cc,\u84fc\u575e","pinyin":"LiaoWu","lng":"118.144960","lat":"36.627840"},{"id":302154,"parent_id":302127,"level":4,"area_code":"370302113224","zip_code":"255169","city_code":"0533","name":"\u571f\u6e7e\u6751\u59d4\u4f1a","short_name":"\u571f\u6e7e","merger_name":"\u5c71\u4e1c,\u6dc4\u535a,\u6dc4\u5ddd,\u5be8\u91cc,\u571f\u6e7e","pinyin":"TuWan","lng":"117.979721","lat":"36.718858"},{"id":302155,"parent_id":302127,"level":4,"area_code":"370302113225","zip_code":"255169","city_code":"0533","name":"\u846b\u82a6\u53f0\u6751\u59d4\u4f1a","short_name":"\u846b\u82a6\u53f0","merger_name":"\u5c71\u4e1c,\u6dc4\u535a,\u6dc4\u5ddd,\u5be8\u91cc,\u846b\u82a6\u53f0","pinyin":"HuLuTai","lng":"118.113810","lat":"36.636180"},{"id":302156,"parent_id":302127,"level":4,"area_code":"370302113226","zip_code":"255169","city_code":"0533","name":"\u897f\u5d16\u5934\u6751\u59d4\u4f1a","short_name":"\u897f\u5d16\u5934","merger_name":"\u5c71\u4e1c,\u6dc4\u535a,\u6dc4\u5ddd,\u5be8\u91cc,\u897f\u5d16\u5934","pinyin":"XiYaTou","lng":"118.144960","lat":"36.627840"},{"id":302157,"parent_id":302127,"level":4,"area_code":"370302113227","zip_code":"255169","city_code":"0533","name":"\u9ed1\u65fa\u6751\u59d4\u4f1a","short_name":"\u9ed1\u65fa","merger_name":"\u5c71\u4e1c,\u6dc4\u535a,\u6dc4\u5ddd,\u5be8\u91cc,\u9ed1\u65fa","pinyin":"HeiWang","lng":"118.200700","lat":"36.618450"},{"id":302158,"parent_id":302127,"level":4,"area_code":"370302113228","zip_code":"255169","city_code":"0533","name":"\u4e1c\u4e95\u6751\u59d4\u4f1a","short_name":"\u4e1c\u4e95","merger_name":"\u5c71\u4e1c,\u6dc4\u535a,\u6dc4\u5ddd,\u5be8\u91cc,\u4e1c\u4e95","pinyin":"DongJing","lng":"117.979721","lat":"36.718858"},{"id":302159,"parent_id":302127,"level":4,"area_code":"370302113229","zip_code":"255169","city_code":"0533","name":"\u897f\u4e95\u6751\u59d4\u4f1a","short_name":"\u897f\u4e95","merger_name":"\u5c71\u4e1c,\u6dc4\u535a,\u6dc4\u5ddd,\u5be8\u91cc,\u897f\u4e95","pinyin":"XiJing","lng":"118.163230","lat":"36.643730"},{"id":302160,"parent_id":302127,"level":4,"area_code":"370302113230","zip_code":"255169","city_code":"0533","name":"\u7518\u6cc9\u6751\u59d4\u4f1a","short_name":"\u7518\u6cc9","merger_name":"\u5c71\u4e1c,\u6dc4\u535a,\u6dc4\u5ddd,\u5be8\u91cc,\u7518\u6cc9","pinyin":"GanQuan","lng":"118.038713","lat":"36.648890"},{"id":302161,"parent_id":302127,"level":4,"area_code":"370302113231","zip_code":"255169","city_code":"0533","name":"\u5357\u5cea\u6751\u59d4\u4f1a","short_name":"\u5357\u5cea","merger_name":"\u5c71\u4e1c,\u6dc4\u535a,\u6dc4\u5ddd,\u5be8\u91cc,\u5357\u5cea","pinyin":"NanYu","lng":"118.181660","lat":"36.036110"},{"id":302162,"parent_id":302127,"level":4,"area_code":"370302113232","zip_code":"255169","city_code":"0533","name":"\u8d75\u5bb6\u5cad\u6751\u59d4\u4f1a","short_name":"\u8d75\u5bb6\u5cad","merger_name":"\u5c71\u4e1c,\u6dc4\u535a,\u6dc4\u5ddd,\u5be8\u91cc,\u8d75\u5bb6\u5cad","pinyin":"ZhaoJiaLing","lng":"118.144960","lat":"36.627840"},{"id":302163,"parent_id":302127,"level":4,"area_code":"370302113233","zip_code":"255169","city_code":"0533","name":"\u69f2\u5761\u6751\u59d4\u4f1a","short_name":"\u69f2\u5761","merger_name":"\u5c71\u4e1c,\u6dc4\u535a,\u6dc4\u5ddd,\u5be8\u91cc,\u69f2\u5761","pinyin":"HuPo","lng":"118.117110","lat":"36.769031"},{"id":302164,"parent_id":302127,"level":4,"area_code":"370302113234","zip_code":"255169","city_code":"0533","name":"\u571f\u5b64\u5806\u6751\u59d4\u4f1a","short_name":"\u571f\u5b64\u5806","merger_name":"\u5c71\u4e1c,\u6dc4\u535a,\u6dc4\u5ddd,\u5be8\u91cc,\u571f\u5b64\u5806","pinyin":"TuGuDui","lng":"118.084750","lat":"36.609390"},{"id":302165,"parent_id":302127,"level":4,"area_code":"370302113235","zip_code":"255169","city_code":"0533","name":"\u5b64\u5c71\u6751\u59d4\u4f1a","short_name":"\u5b64\u5c71","merger_name":"\u5c71\u4e1c,\u6dc4\u535a,\u6dc4\u5ddd,\u5be8\u91cc,\u5b64\u5c71","pinyin":"GuShan","lng":"118.038713","lat":"36.648890"},{"id":302166,"parent_id":302127,"level":4,"area_code":"370302113236","zip_code":"255169","city_code":"0533","name":"\u897f\u5d16\u6751\u59d4\u4f1a","short_name":"\u897f\u5d16","merger_name":"\u5c71\u4e1c,\u6dc4\u535a,\u6dc4\u5ddd,\u5be8\u91cc,\u897f\u5d16","pinyin":"XiYa","lng":"117.979721","lat":"36.718858"},{"id":302167,"parent_id":302127,"level":4,"area_code":"370302113237","zip_code":"255169","city_code":"0533","name":"\u53cc\u65ed\u6751\u59d4\u4f1a","short_name":"\u53cc\u65ed","merger_name":"\u5c71\u4e1c,\u6dc4\u535a,\u6dc4\u5ddd,\u5be8\u91cc,\u53cc\u65ed","pinyin":"ShuangXu","lng":"118.117110","lat":"36.769031"},{"id":302168,"parent_id":302127,"level":4,"area_code":"370302113238","zip_code":"255169","city_code":"0533","name":"\u82d7\u5cea\u53e3\u6751\u59d4\u4f1a","short_name":"\u82d7\u5cea\u53e3","merger_name":"\u5c71\u4e1c,\u6dc4\u535a,\u6dc4\u5ddd,\u5be8\u91cc,\u82d7\u5cea\u53e3","pinyin":"MiaoYuKou","lng":"118.080620","lat":"36.593910"},{"id":302169,"parent_id":302127,"level":4,"area_code":"370302113239","zip_code":"255169","city_code":"0533","name":"\u6731\u6c34\u6e7e\u6751\u59d4\u4f1a","short_name":"\u6731\u6c34\u6e7e","merger_name":"\u5c71\u4e1c,\u6dc4\u535a,\u6dc4\u5ddd,\u5be8\u91cc,\u6731\u6c34\u6e7e","pinyin":"ZhuShuiWan","lng":"118.037890","lat":"36.646770"},{"id":302170,"parent_id":302127,"level":4,"area_code":"370302113240","zip_code":"255169","city_code":"0533","name":"\u91ce\u9e21\u5cad\u6751\u59d4\u4f1a","short_name":"\u91ce\u9e21\u5cad","merger_name":"\u5c71\u4e1c,\u6dc4\u535a,\u6dc4\u5ddd,\u5be8\u91cc,\u91ce\u9e21\u5cad","pinyin":"YeJiLing","lng":"117.971320","lat":"36.995470"},{"id":302171,"parent_id":301884,"level":3,"area_code":"370302114000","zip_code":"255138","city_code":"0533","name":"\u7f57\u6751\u9547","short_name":"\u7f57\u6751","merger_name":"\u5c71\u4e1c,\u6dc4\u535a,\u6dc4\u5ddd,\u7f57\u6751","pinyin":"LuoCun","lng":"118.068700","lat":"36.684050"},{"id":302172,"parent_id":302171,"level":4,"area_code":"370302114001","zip_code":"255138","city_code":"0533","name":"\u7a8e\u6865\u793e\u533a\u5c45\u59d4\u4f1a","short_name":"\u7a8e\u6865","merger_name":"\u5c71\u4e1c,\u6dc4\u535a,\u6dc4\u5ddd,\u7f57\u6751,\u7a8e\u6865","pinyin":"DiaoQiao","lng":"118.051610","lat":"36.762740"},{"id":302173,"parent_id":302171,"level":4,"area_code":"370302114201","zip_code":"255138","city_code":"0533","name":"\u7f57\u6751\u6751\u59d4\u4f1a","short_name":"\u7f57\u6751","merger_name":"\u5c71\u4e1c,\u6dc4\u535a,\u6dc4\u5ddd,\u7f57\u6751,\u7f57\u6751","pinyin":"LuoCun","lng":"118.072570","lat":"36.685250"},{"id":302174,"parent_id":302171,"level":4,"area_code":"370302114202","zip_code":"255138","city_code":"0533","name":"\u6881\u5bb6\u6751\u59d4\u4f1a","short_name":"\u6881\u5bb6","merger_name":"\u5c71\u4e1c,\u6dc4\u535a,\u6dc4\u5ddd,\u7f57\u6751,\u6881\u5bb6","pinyin":"LiangJia","lng":"118.235621","lat":"36.842136"},{"id":302175,"parent_id":302171,"level":4,"area_code":"370302114203","zip_code":"255138","city_code":"0533","name":"\u74e6\u6751\u6751\u59d4\u4f1a","short_name":"\u74e6\u6751","merger_name":"\u5c71\u4e1c,\u6dc4\u535a,\u6dc4\u5ddd,\u7f57\u6751,\u74e6\u6751","pinyin":"WaCun","lng":"118.037260","lat":"36.719090"},{"id":302176,"parent_id":302171,"level":4,"area_code":"370302114204","zip_code":"255138","city_code":"0533","name":"\u9648\u5bb6\u6751\u59d4\u4f1a","short_name":"\u9648\u5bb6","merger_name":"\u5c71\u4e1c,\u6dc4\u535a,\u6dc4\u5ddd,\u7f57\u6751,\u9648\u5bb6","pinyin":"ChenJia","lng":"118.072570","lat":"36.685250"},{"id":302177,"parent_id":302171,"level":4,"area_code":"370302114205","zip_code":"255138","city_code":"0533","name":"\u6696\u6c34\u6751\u59d4\u4f1a","short_name":"\u6696\u6c34","merger_name":"\u5c71\u4e1c,\u6dc4\u535a,\u6dc4\u5ddd,\u7f57\u6751,\u6696\u6c34","pinyin":"NuanShui","lng":"118.072570","lat":"36.685250"},{"id":302178,"parent_id":302171,"level":4,"area_code":"370302114206","zip_code":"255138","city_code":"0533","name":"\u8042\u6751\u6751\u59d4\u4f1a","short_name":"\u8042\u6751","merger_name":"\u5c71\u4e1c,\u6dc4\u535a,\u6dc4\u5ddd,\u7f57\u6751,\u8042\u6751","pinyin":"NieCun","lng":"118.057380","lat":"36.708610"},{"id":302179,"parent_id":302171,"level":4,"area_code":"370302114207","zip_code":"255138","city_code":"0533","name":"\u5927\u540a\u6865\u6751\u59d4\u4f1a","short_name":"\u5927\u540a\u6865","merger_name":"\u5c71\u4e1c,\u6dc4\u535a,\u6dc4\u5ddd,\u7f57\u6751,\u5927\u540a\u6865","pinyin":"DaDiaoQiao","lng":"118.058890","lat":"36.690290"},{"id":302180,"parent_id":302171,"level":4,"area_code":"370302114208","zip_code":"255138","city_code":"0533","name":"\u9c81\u5bb6\u6751\u59d4\u4f1a","short_name":"\u9c81\u5bb6","merger_name":"\u5c71\u4e1c,\u6dc4\u535a,\u6dc4\u5ddd,\u7f57\u6751,\u9c81\u5bb6","pinyin":"LuJia","lng":"118.058890","lat":"36.690290"},{"id":302181,"parent_id":302171,"level":4,"area_code":"370302114209","zip_code":"255138","city_code":"0533","name":"\u53f2\u5bb6\u6751\u59d4\u4f1a","short_name":"\u53f2\u5bb6","merger_name":"\u5c71\u4e1c,\u6dc4\u535a,\u6dc4\u5ddd,\u7f57\u6751,\u53f2\u5bb6","pinyin":"ShiJia","lng":"118.054160","lat":"36.709220"},{"id":302182,"parent_id":302171,"level":4,"area_code":"370302114210","zip_code":"255138","city_code":"0533","name":"\u8096\u5bb6\u6751\u59d4\u4f1a","short_name":"\u8096\u5bb6","merger_name":"\u5c71\u4e1c,\u6dc4\u535a,\u6dc4\u5ddd,\u7f57\u6751,\u8096\u5bb6","pinyin":"XiaoJia","lng":"118.179273","lat":"36.743229"},{"id":302183,"parent_id":302171,"level":4,"area_code":"370302114211","zip_code":"255138","city_code":"0533","name":"\u6cc9\u5b50\u6751\u59d4\u4f1a","short_name":"\u6cc9\u5b50","merger_name":"\u5c71\u4e1c,\u6dc4\u535a,\u6dc4\u5ddd,\u7f57\u6751,\u6cc9\u5b50","pinyin":"QuanZi","lng":"118.195806","lat":"36.743660"},{"id":302184,"parent_id":302171,"level":4,"area_code":"370302114212","zip_code":"255138","city_code":"0533","name":"\u9053\u53e3\u6751\u59d4\u4f1a","short_name":"\u9053\u53e3","merger_name":"\u5c71\u4e1c,\u6dc4\u535a,\u6dc4\u5ddd,\u7f57\u6751,\u9053\u53e3","pinyin":"DaoKou","lng":"118.069317","lat":"36.683589"},{"id":302185,"parent_id":302171,"level":4,"area_code":"370302114213","zip_code":"255138","city_code":"0533","name":"\u4e1c\u5218\u6751\u59d4\u4f1a","short_name":"\u4e1c\u5218","merger_name":"\u5c71\u4e1c,\u6dc4\u535a,\u6dc4\u5ddd,\u7f57\u6751,\u4e1c\u5218","pinyin":"DongLiu","lng":"118.043540","lat":"36.845590"},{"id":302186,"parent_id":302171,"level":4,"area_code":"370302114214","zip_code":"255138","city_code":"0533","name":"\u6f14\u793c\u6751\u59d4\u4f1a","short_name":"\u6f14\u793c","merger_name":"\u5c71\u4e1c,\u6dc4\u535a,\u6dc4\u5ddd,\u7f57\u6751,\u6f14\u793c","pinyin":"YanLi","lng":"118.117110","lat":"36.769031"},{"id":302187,"parent_id":302171,"level":4,"area_code":"370302114215","zip_code":"255138","city_code":"0533","name":"\u524d\u6cb3\u6751\u59d4\u4f1a","short_name":"\u524d\u6cb3","merger_name":"\u5c71\u4e1c,\u6dc4\u535a,\u6dc4\u5ddd,\u7f57\u6751,\u524d\u6cb3","pinyin":"QianHe","lng":"118.066270","lat":"36.672610"},{"id":302188,"parent_id":302171,"level":4,"area_code":"370302114216","zip_code":"255138","city_code":"0533","name":"\u725f\u5bb6\u6751\u59d4\u4f1a","short_name":"\u725f\u5bb6","merger_name":"\u5c71\u4e1c,\u6dc4\u535a,\u6dc4\u5ddd,\u7f57\u6751,\u725f\u5bb6","pinyin":"MouJia","lng":"118.072570","lat":"36.685250"},{"id":302189,"parent_id":302171,"level":4,"area_code":"370302114217","zip_code":"255138","city_code":"0533","name":"\u5c0f\u540a\u6865\u6751\u59d4\u4f1a","short_name":"\u5c0f\u540a\u6865","merger_name":"\u5c71\u4e1c,\u6dc4\u535a,\u6dc4\u5ddd,\u7f57\u6751,\u5c0f\u540a\u6865","pinyin":"XiaoDiaoQiao","lng":"118.072570","lat":"36.685250"},{"id":302190,"parent_id":302171,"level":4,"area_code":"370302114218","zip_code":"255138","city_code":"0533","name":"\u5343\u5cea\u6751\u59d4\u4f1a","short_name":"\u5343\u5cea","merger_name":"\u5c71\u4e1c,\u6dc4\u535a,\u6dc4\u5ddd,\u7f57\u6751,\u5343\u5cea","pinyin":"QianYu","lng":"118.117110","lat":"36.769031"},{"id":302191,"parent_id":302171,"level":4,"area_code":"370302114219","zip_code":"255138","city_code":"0533","name":"\u5c71\u5468\u6751\u59d4\u4f1a","short_name":"\u5c71\u5468","merger_name":"\u5c71\u4e1c,\u6dc4\u535a,\u6dc4\u5ddd,\u7f57\u6751,\u5c71\u5468","pinyin":"ShanZhou","lng":"118.096260","lat":"36.671390"},{"id":302192,"parent_id":302171,"level":4,"area_code":"370302114220","zip_code":"255138","city_code":"0533","name":"\u4e8e\u5bb6\u6751\u59d4\u4f1a","short_name":"\u4e8e\u5bb6","merger_name":"\u5c71\u4e1c,\u6dc4\u535a,\u6dc4\u5ddd,\u7f57\u6751,\u4e8e\u5bb6","pinyin":"YuJia","lng":"118.179273","lat":"36.743229"},{"id":302193,"parent_id":302171,"level":4,"area_code":"370302114221","zip_code":"255138","city_code":"0533","name":"\u592a\u5e73\u6751\u59d4\u4f1a","short_name":"\u592a\u5e73","merger_name":"\u5c71\u4e1c,\u6dc4\u535a,\u6dc4\u5ddd,\u7f57\u6751,\u592a\u5e73","pinyin":"TaiPing","lng":"118.080350","lat":"36.671000"},{"id":302194,"parent_id":302171,"level":4,"area_code":"370302114222","zip_code":"255138","city_code":"0533","name":"\u90a2\u5bb6\u6751\u59d4\u4f1a","short_name":"\u90a2\u5bb6","merger_name":"\u5c71\u4e1c,\u6dc4\u535a,\u6dc4\u5ddd,\u7f57\u6751,\u90a2\u5bb6","pinyin":"XingJia","lng":"118.179273","lat":"36.743229"},{"id":302195,"parent_id":302171,"level":4,"area_code":"370302114223","zip_code":"255138","city_code":"0533","name":"\u524d\u5b85\u6751\u59d4\u4f1a","short_name":"\u524d\u5b85","merger_name":"\u5c71\u4e1c,\u6dc4\u535a,\u6dc4\u5ddd,\u7f57\u6751,\u524d\u5b85","pinyin":"QianZhai","lng":"118.067550","lat":"36.660730"},{"id":302196,"parent_id":302171,"level":4,"area_code":"370302114224","zip_code":"255138","city_code":"0533","name":"\u5927\u738b\u6751\u59d4\u4f1a","short_name":"\u5927\u738b","merger_name":"\u5c71\u4e1c,\u6dc4\u535a,\u6dc4\u5ddd,\u7f57\u6751,\u5927\u738b","pinyin":"DaiWang","lng":"118.072570","lat":"36.685250"},{"id":302197,"parent_id":302171,"level":4,"area_code":"370302114225","zip_code":"255138","city_code":"0533","name":"\u4e1c\u5b98\u5e84\u6751\u59d4\u4f1a","short_name":"\u4e1c\u5b98\u5e84","merger_name":"\u5c71\u4e1c,\u6dc4\u535a,\u6dc4\u5ddd,\u7f57\u6751,\u4e1c\u5b98\u5e84","pinyin":"DongGuanZhuang","lng":"117.971320","lat":"36.995470"},{"id":302198,"parent_id":302171,"level":4,"area_code":"370302114226","zip_code":"255138","city_code":"0533","name":"\u897f\u5b98\u6751\u59d4\u4f1a","short_name":"\u897f\u5b98","merger_name":"\u5c71\u4e1c,\u6dc4\u535a,\u6dc4\u5ddd,\u7f57\u6751,\u897f\u5b98","pinyin":"XiGuan","lng":"118.057380","lat":"36.708610"},{"id":302199,"parent_id":302171,"level":4,"area_code":"370302114227","zip_code":"255138","city_code":"0533","name":"\u5357\u97e9\u6751\u59d4\u4f1a","short_name":"\u5357\u97e9","merger_name":"\u5c71\u4e1c,\u6dc4\u535a,\u6dc4\u5ddd,\u7f57\u6751,\u5357\u97e9","pinyin":"NanHan","lng":"118.087220","lat":"36.697930"},{"id":302200,"parent_id":302171,"level":4,"area_code":"370302114228","zip_code":"255138","city_code":"0533","name":"\u5317\u97e9\u6751\u59d4\u4f1a","short_name":"\u5317\u97e9","merger_name":"\u5c71\u4e1c,\u6dc4\u535a,\u6dc4\u5ddd,\u7f57\u6751,\u5317\u97e9","pinyin":"BeiHan","lng":"118.072570","lat":"36.685250"},{"id":302201,"parent_id":302171,"level":4,"area_code":"370302114229","zip_code":"255138","city_code":"0533","name":"\u6cb3\u4e1c\u6751\u59d4\u4f1a","short_name":"\u6cb3\u4e1c","merger_name":"\u5c71\u4e1c,\u6dc4\u535a,\u6dc4\u5ddd,\u7f57\u6751,\u6cb3\u4e1c","pinyin":"HeDong","lng":"118.084090","lat":"36.685170"},{"id":302202,"parent_id":302171,"level":4,"area_code":"370302114230","zip_code":"255138","city_code":"0533","name":"\u6d3c\u5b50\u6751\u59d4\u4f1a","short_name":"\u6d3c\u5b50","merger_name":"\u5c71\u4e1c,\u6dc4\u535a,\u6dc4\u5ddd,\u7f57\u6751,\u6d3c\u5b50","pinyin":"WaZi","lng":"118.072570","lat":"36.685250"},{"id":302203,"parent_id":302171,"level":4,"area_code":"370302114231","zip_code":"255138","city_code":"0533","name":"\u4e0a\u9ec4\u6751\u59d4\u4f1a","short_name":"\u4e0a\u9ec4","merger_name":"\u5c71\u4e1c,\u6dc4\u535a,\u6dc4\u5ddd,\u7f57\u6751,\u4e0a\u9ec4","pinyin":"ShangHuang","lng":"118.130879","lat":"36.788882"},{"id":302204,"parent_id":302171,"level":4,"area_code":"370302114232","zip_code":"255138","city_code":"0533","name":"\u4e0b\u9ec4\u6751\u59d4\u4f1a","short_name":"\u4e0b\u9ec4","merger_name":"\u5c71\u4e1c,\u6dc4\u535a,\u6dc4\u5ddd,\u7f57\u6751,\u4e0b\u9ec4","pinyin":"XiaHuang","lng":"118.072570","lat":"36.685250"},{"id":302205,"parent_id":301884,"level":3,"area_code":"370302115000","zip_code":"255120","city_code":"0533","name":"\u6d2a\u5c71\u9547","short_name":"\u6d2a\u5c71","merger_name":"\u5c71\u4e1c,\u6dc4\u535a,\u6dc4\u5ddd,\u6d2a\u5c71","pinyin":"HongShan","lng":"118.000470","lat":"36.623010"},{"id":302206,"parent_id":302205,"level":4,"area_code":"370302115001","zip_code":"255120","city_code":"0533","name":"\u5317\u5de5\u793e\u533a\u5c45\u59d4\u4f1a","short_name":"\u5317\u5de5","merger_name":"\u5c71\u4e1c,\u6dc4\u535a,\u6dc4\u5ddd,\u6d2a\u5c71,\u5317\u5de5","pinyin":"BeiGong","lng":"117.995013","lat":"36.639617"},{"id":302207,"parent_id":302205,"level":4,"area_code":"370302115002","zip_code":"255120","city_code":"0533","name":"\u6da7\u5317\u793e\u533a\u5c45\u59d4\u4f1a","short_name":"\u6da7\u5317","merger_name":"\u5c71\u4e1c,\u6dc4\u535a,\u6dc4\u5ddd,\u6d2a\u5c71,\u6da7\u5317","pinyin":"JianBei","lng":"117.992440","lat":"36.627630"},{"id":302208,"parent_id":302205,"level":4,"area_code":"370302115003","zip_code":"255120","city_code":"0533","name":"\u6d2a\u5c71\u793e\u533a\u5c45\u59d4\u4f1a","short_name":"\u6d2a\u5c71","merger_name":"\u5c71\u4e1c,\u6dc4\u535a,\u6dc4\u5ddd,\u6d2a\u5c71,\u6d2a\u5c71","pinyin":"HongShan","lng":"117.986570","lat":"36.632030"},{"id":302209,"parent_id":302205,"level":4,"area_code":"370302115005","zip_code":"255120","city_code":"0533","name":"\u5927\u8857\u793e\u533a\u5c45\u59d4\u4f1a","short_name":"\u5927\u8857","merger_name":"\u5c71\u4e1c,\u6dc4\u535a,\u6dc4\u5ddd,\u6d2a\u5c71,\u5927\u8857","pinyin":"DaJie","lng":"117.992440","lat":"36.627630"},{"id":302210,"parent_id":302205,"level":4,"area_code":"370302115006","zip_code":"255120","city_code":"0533","name":"\u592a\u548c\u793e\u533a\u5c45\u59d4\u4f1a","short_name":"\u592a\u548c","merger_name":"\u5c71\u4e1c,\u6dc4\u535a,\u6dc4\u5ddd,\u6d2a\u5c71,\u592a\u548c","pinyin":"TaiHe","lng":"117.998760","lat":"36.622650"},{"id":302211,"parent_id":302205,"level":4,"area_code":"370302115007","zip_code":"255120","city_code":"0533","name":"\u6d2a\u94dd\u793e\u533a\u5c45\u59d4\u4f1a","short_name":"\u6d2a\u94dd","merger_name":"\u5c71\u4e1c,\u6dc4\u535a,\u6dc4\u5ddd,\u6d2a\u5c71,\u6d2a\u94dd","pinyin":"HongLv","lng":"117.987877","lat":"36.624990"},{"id":302212,"parent_id":302205,"level":4,"area_code":"370302115008","zip_code":"255120","city_code":"0533","name":"\u4e2d\u5148\u793e\u533a\u5c45\u59d4\u4f1a","short_name":"\u4e2d\u5148","merger_name":"\u5c71\u4e1c,\u6dc4\u535a,\u6dc4\u5ddd,\u6d2a\u5c71,\u4e2d\u5148","pinyin":"ZhongXian","lng":"117.995013","lat":"36.639617"},{"id":302213,"parent_id":302205,"level":4,"area_code":"370302115202","zip_code":"255120","city_code":"0533","name":"\u8d3e\u77f3\u6751\u59d4\u4f1a","short_name":"\u8d3e\u77f3","merger_name":"\u5c71\u4e1c,\u6dc4\u535a,\u6dc4\u5ddd,\u6d2a\u5c71,\u8d3e\u77f3","pinyin":"JiaShi","lng":"118.117110","lat":"36.769031"},{"id":302214,"parent_id":302205,"level":4,"area_code":"370302115203","zip_code":"255120","city_code":"0533","name":"\u4e1c\u7701\u6751\u59d4\u4f1a","short_name":"\u4e1c\u7701","merger_name":"\u5c71\u4e1c,\u6dc4\u535a,\u6dc4\u5ddd,\u6d2a\u5c71,\u4e1c\u7701","pinyin":"DongSheng","lng":"118.002840","lat":"36.611060"},{"id":302215,"parent_id":302205,"level":4,"area_code":"370302115204","zip_code":"255120","city_code":"0533","name":"\u897f\u7701\u6751\u59d4\u4f1a","short_name":"\u897f\u7701","merger_name":"\u5c71\u4e1c,\u6dc4\u535a,\u6dc4\u5ddd,\u6d2a\u5c71,\u897f\u7701","pinyin":"XiSheng","lng":"118.002172","lat":"36.663270"},{"id":302216,"parent_id":302205,"level":4,"area_code":"370302115205","zip_code":"255120","city_code":"0533","name":"\u5341\u91cc\u5e84\u6751\u59d4\u4f1a","short_name":"\u5341\u91cc\u5e84","merger_name":"\u5c71\u4e1c,\u6dc4\u535a,\u6dc4\u5ddd,\u6d2a\u5c71,\u5341\u91cc\u5e84","pinyin":"ShiLiZhuang","lng":"118.002840","lat":"36.611060"},{"id":302217,"parent_id":302205,"level":4,"area_code":"370302115206","zip_code":"255120","city_code":"0533","name":"\u571f\u5cea\u6751\u59d4\u4f1a","short_name":"\u571f\u5cea","merger_name":"\u5c71\u4e1c,\u6dc4\u535a,\u6dc4\u5ddd,\u6d2a\u5c71,\u571f\u5cea","pinyin":"TuYu","lng":"118.040820","lat":"36.580240"},{"id":302218,"parent_id":302205,"level":4,"area_code":"370302115207","zip_code":"255120","city_code":"0533","name":"\u5c0f\u7530\u5e84\u6751\u6751\u59d4\u4f1a","short_name":"\u5c0f\u7530\u5e84\u6751","merger_name":"\u5c71\u4e1c,\u6dc4\u535a,\u6dc4\u5ddd,\u6d2a\u5c71,\u5c0f\u7530\u5e84\u6751","pinyin":"XiaoTianZhuangCun","lng":"117.995440","lat":"36.994630"},{"id":302219,"parent_id":302205,"level":4,"area_code":"370302115208","zip_code":"255120","city_code":"0533","name":"\u8f66\u5bb6\u6751\u59d4\u4f1a","short_name":"\u8f66\u5bb6","merger_name":"\u5c71\u4e1c,\u6dc4\u535a,\u6dc4\u5ddd,\u6d2a\u5c71,\u8f66\u5bb6","pinyin":"CheJia","lng":"118.020290","lat":"36.614540"},{"id":302220,"parent_id":302205,"level":4,"area_code":"370302115209","zip_code":"255120","city_code":"0533","name":"\u8f66\u5b8b\u5bb6\u6751\u59d4\u4f1a","short_name":"\u8f66\u5b8b\u5bb6","merger_name":"\u5c71\u4e1c,\u6dc4\u535a,\u6dc4\u5ddd,\u6d2a\u5c71,\u8f66\u5b8b\u5bb6","pinyin":"CheSongJia","lng":"117.991590","lat":"36.773230"},{"id":302221,"parent_id":302205,"level":4,"area_code":"370302115210","zip_code":"255120","city_code":"0533","name":"\u8463\u74e6\u6751\u59d4\u4f1a","short_name":"\u8463\u74e6","merger_name":"\u5c71\u4e1c,\u6dc4\u535a,\u6dc4\u5ddd,\u6d2a\u5c71,\u8463\u74e6","pinyin":"DongWa","lng":"118.020290","lat":"36.614540"},{"id":302222,"parent_id":302205,"level":4,"area_code":"370302115211","zip_code":"255120","city_code":"0533","name":"\u89e3\u5e84\u6751\u59d4\u4f1a","short_name":"\u89e3\u5e84","merger_name":"\u5c71\u4e1c,\u6dc4\u535a,\u6dc4\u5ddd,\u6d2a\u5c71,\u89e3\u5e84","pinyin":"JieZhuang","lng":"118.002190","lat":"36.623600"},{"id":302223,"parent_id":302205,"level":4,"area_code":"370302115212","zip_code":"255120","city_code":"0533","name":"\u6da7\u5317\u6751\u59d4\u4f1a","short_name":"\u6da7\u5317","merger_name":"\u5c71\u4e1c,\u6dc4\u535a,\u6dc4\u5ddd,\u6d2a\u5c71,\u6da7\u5317","pinyin":"JianBei","lng":"118.002190","lat":"36.623600"},{"id":302224,"parent_id":302205,"level":4,"area_code":"370302115214","zip_code":"255120","city_code":"0533","name":"\u9a6c\u5bb6\u6751\u59d4\u4f1a","short_name":"\u9a6c\u5bb6","merger_name":"\u5c71\u4e1c,\u6dc4\u535a,\u6dc4\u5ddd,\u6d2a\u5c71,\u9a6c\u5bb6","pinyin":"MaJia","lng":"118.125448","lat":"36.959186"},{"id":302225,"parent_id":302205,"level":4,"area_code":"370302115215","zip_code":"255120","city_code":"0533","name":"\u675c\u5761\u6751\u59d4\u4f1a","short_name":"\u675c\u5761","merger_name":"\u5c71\u4e1c,\u6dc4\u535a,\u6dc4\u5ddd,\u6d2a\u5c71,\u675c\u5761","pinyin":"DuPo","lng":"117.986570","lat":"36.632030"},{"id":302226,"parent_id":302205,"level":4,"area_code":"370302115216","zip_code":"255120","city_code":"0533","name":"\u5317\u5de5\u6751\u59d4\u4f1a","short_name":"\u5317\u5de5","merger_name":"\u5c71\u4e1c,\u6dc4\u535a,\u6dc4\u5ddd,\u6d2a\u5c71,\u5317\u5de5","pinyin":"BeiGong","lng":"117.997650","lat":"36.637216"},{"id":302227,"parent_id":302205,"level":4,"area_code":"370302115217","zip_code":"255120","city_code":"0533","name":"\u5317\u6768\u5bb6\u6751\u59d4\u4f1a","short_name":"\u5317\u6768\u5bb6","merger_name":"\u5c71\u4e1c,\u6dc4\u535a,\u6dc4\u5ddd,\u6d2a\u5c71,\u5317\u6768\u5bb6","pinyin":"BeiYangJia","lng":"118.120446","lat":"36.957254"},{"id":302228,"parent_id":302205,"level":4,"area_code":"370302115218","zip_code":"255120","city_code":"0533","name":"\u84b2\u5bb6\u6751\u59d4\u4f1a","short_name":"\u84b2\u5bb6","merger_name":"\u5c71\u4e1c,\u6dc4\u535a,\u6dc4\u5ddd,\u6d2a\u5c71,\u84b2\u5bb6","pinyin":"PuJia","lng":"118.117110","lat":"36.769031"},{"id":302229,"parent_id":302205,"level":4,"area_code":"370302115219","zip_code":"255120","city_code":"0533","name":"\u4e1c\u5de5\u6751\u59d4\u4f1a","short_name":"\u4e1c\u5de5","merger_name":"\u5c71\u4e1c,\u6dc4\u535a,\u6dc4\u5ddd,\u6d2a\u5c71,\u4e1c\u5de5","pinyin":"DongGong","lng":"118.005120","lat":"36.630410"},{"id":302230,"parent_id":302205,"level":4,"area_code":"370302115220","zip_code":"255120","city_code":"0533","name":"\u7ea2\u536b\u6751\u59d4\u4f1a","short_name":"\u7ea2\u536b","merger_name":"\u5c71\u4e1c,\u6dc4\u535a,\u6dc4\u5ddd,\u6d2a\u5c71,\u7ea2\u536b","pinyin":"HongWei","lng":"118.004270","lat":"36.628780"},{"id":302231,"parent_id":301884,"level":3,"area_code":"370302116000","zip_code":"255190","city_code":"0533","name":"\u53cc\u6768\u9547","short_name":"\u53cc\u6768","merger_name":"\u5c71\u4e1c,\u6dc4\u535a,\u6dc4\u5ddd,\u53cc\u6768","pinyin":"ShuangYang","lng":"117.994240","lat":"36.714840"},{"id":302232,"parent_id":302231,"level":4,"area_code":"370302116201","zip_code":"255185","city_code":"0533","name":"\u6768\u5be8\u6751\u59d4\u4f1a","short_name":"\u6768\u5be8","merger_name":"\u5c71\u4e1c,\u6dc4\u535a,\u6dc4\u5ddd,\u53cc\u6768,\u6768\u5be8","pinyin":"YangZhai","lng":"117.989710","lat":"36.716860"},{"id":302233,"parent_id":302231,"level":4,"area_code":"370302116202","zip_code":"255192","city_code":"0533","name":"\u5761\u5b50\u6751\u6751\u59d4\u4f1a","short_name":"\u5761\u5b50\u6751","merger_name":"\u5c71\u4e1c,\u6dc4\u535a,\u6dc4\u5ddd,\u53cc\u6768,\u5761\u5b50\u6751","pinyin":"PoZiCun","lng":"117.975809","lat":"36.733892"},{"id":302234,"parent_id":302231,"level":4,"area_code":"370302116203","zip_code":"255185","city_code":"0533","name":"\u8463\u5bb6\u6751\u59d4\u4f1a","short_name":"\u8463\u5bb6","merger_name":"\u5c71\u4e1c,\u6dc4\u535a,\u6dc4\u5ddd,\u53cc\u6768,\u8463\u5bb6","pinyin":"DongJia","lng":"117.979230","lat":"36.695520"},{"id":302235,"parent_id":302231,"level":4,"area_code":"370302116204","zip_code":"255185","city_code":"0533","name":"\u8d75\u74e6\u6751\u59d4\u4f1a","short_name":"\u8d75\u74e6","merger_name":"\u5c71\u4e1c,\u6dc4\u535a,\u6dc4\u5ddd,\u53cc\u6768,\u8d75\u74e6","pinyin":"ZhaoWa","lng":"117.989610","lat":"36.704280"},{"id":302236,"parent_id":302231,"level":4,"area_code":"370302116205","zip_code":"255185","city_code":"0533","name":"\u6cd5\u5bb6\u6751\u59d4\u4f1a","short_name":"\u6cd5\u5bb6","merger_name":"\u5c71\u4e1c,\u6dc4\u535a,\u6dc4\u5ddd,\u53cc\u6768,\u6cd5\u5bb6","pinyin":"FaJia","lng":"117.966050","lat":"36.720440"},{"id":302237,"parent_id":302231,"level":4,"area_code":"370302116206","zip_code":"255185","city_code":"0533","name":"\u91d1\u9a6c\u6751\u59d4\u4f1a","short_name":"\u91d1\u9a6c","merger_name":"\u5c71\u4e1c,\u6dc4\u535a,\u6dc4\u5ddd,\u53cc\u6768,\u91d1\u9a6c","pinyin":"JinMa","lng":"117.979721","lat":"36.718858"},{"id":302238,"parent_id":302231,"level":4,"area_code":"370302116207","zip_code":"255185","city_code":"0533","name":"\u6708\u5e84\u6751\u59d4\u4f1a","short_name":"\u6708\u5e84","merger_name":"\u5c71\u4e1c,\u6dc4\u535a,\u6dc4\u5ddd,\u53cc\u6768,\u6708\u5e84","pinyin":"YueZhuang","lng":"118.001056","lat":"36.719499"},{"id":302239,"parent_id":302231,"level":4,"area_code":"370302116208","zip_code":"255185","city_code":"0533","name":"\u6bb7\u5bb6\u6751\u59d4\u4f1a","short_name":"\u6bb7\u5bb6","merger_name":"\u5c71\u4e1c,\u6dc4\u535a,\u6dc4\u5ddd,\u53cc\u6768,\u6bb7\u5bb6","pinyin":"YinJia","lng":"117.999482","lat":"36.728348"},{"id":302240,"parent_id":302231,"level":4,"area_code":"370302116209","zip_code":"255185","city_code":"0533","name":"\u5927\u5c6f\u6751\u59d4\u4f1a","short_name":"\u5927\u5c6f","merger_name":"\u5c71\u4e1c,\u6dc4\u535a,\u6dc4\u5ddd,\u53cc\u6768,\u5927\u5c6f","pinyin":"DaTun","lng":"117.993790","lat":"36.713020"},{"id":302241,"parent_id":302231,"level":4,"area_code":"370302116210","zip_code":"255185","city_code":"0533","name":"\u5c0f\u5c6f\u6751\u59d4\u4f1a","short_name":"\u5c0f\u5c6f","merger_name":"\u5c71\u4e1c,\u6dc4\u535a,\u6dc4\u5ddd,\u53cc\u6768,\u5c0f\u5c6f","pinyin":"XiaoTun","lng":"117.988980","lat":"36.736865"},{"id":302242,"parent_id":302231,"level":4,"area_code":"370302116211","zip_code":"255185","city_code":"0533","name":"\u5f6d\u5bb6\u6751\u59d4\u4f1a","short_name":"\u5f6d\u5bb6","merger_name":"\u5c71\u4e1c,\u6dc4\u535a,\u6dc4\u5ddd,\u53cc\u6768,\u5f6d\u5bb6","pinyin":"PengJia","lng":"117.975809","lat":"36.733892"},{"id":302243,"parent_id":302231,"level":4,"area_code":"370302116212","zip_code":"255185","city_code":"0533","name":"\u725b\u5bb6\u6751\u59d4\u4f1a","short_name":"\u725b\u5bb6","merger_name":"\u5c71\u4e1c,\u6dc4\u535a,\u6dc4\u5ddd,\u53cc\u6768,\u725b\u5bb6","pinyin":"NiuJia","lng":"117.994197","lat":"36.740464"},{"id":302244,"parent_id":302231,"level":4,"area_code":"370302116213","zip_code":"255150","city_code":"0533","name":"\u8881\u5bb6\u6751\u6751\u59d4\u4f1a","short_name":"\u8881\u5bb6\u6751","merger_name":"\u5c71\u4e1c,\u6dc4\u535a,\u6dc4\u5ddd,\u53cc\u6768,\u8881\u5bb6\u6751","pinyin":"YuanJiaCun","lng":"117.999482","lat":"36.728348"},{"id":302245,"parent_id":302231,"level":4,"area_code":"370302116214","zip_code":"255185","city_code":"0533","name":"\u6881\u5bb6\u6751\u6751\u59d4\u4f1a","short_name":"\u6881\u5bb6\u6751","merger_name":"\u5c71\u4e1c,\u6dc4\u535a,\u6dc4\u5ddd,\u53cc\u6768,\u6881\u5bb6\u6751","pinyin":"LiangJiaCun","lng":"117.999482","lat":"36.728348"},{"id":302246,"parent_id":302231,"level":4,"area_code":"370302116215","zip_code":"255185","city_code":"0533","name":"\u803f\u5bb6\u6751\u59d4\u4f1a","short_name":"\u803f\u5bb6","merger_name":"\u5c71\u4e1c,\u6dc4\u535a,\u6dc4\u5ddd,\u53cc\u6768,\u803f\u5bb6","pinyin":"GengJia","lng":"117.970610","lat":"36.757020"},{"id":302247,"parent_id":302231,"level":4,"area_code":"370302116216","zip_code":"255178","city_code":"0533","name":"\u90ed\u5bb6\u6751\u6751\u59d4\u4f1a","short_name":"\u90ed\u5bb6\u6751","merger_name":"\u5c71\u4e1c,\u6dc4\u535a,\u6dc4\u5ddd,\u53cc\u6768,\u90ed\u5bb6\u6751","pinyin":"GuoJiaCun","lng":"117.858110","lat":"36.765810"},{"id":302248,"parent_id":302231,"level":4,"area_code":"370302116217","zip_code":"255185","city_code":"0533","name":"\u4e1c\u6cb3\u6751\u59d4\u4f1a","short_name":"\u4e1c\u6cb3","merger_name":"\u5c71\u4e1c,\u6dc4\u535a,\u6dc4\u5ddd,\u53cc\u6768,\u4e1c\u6cb3","pinyin":"DongHe","lng":"117.956618","lat":"36.721882"},{"id":302249,"parent_id":302231,"level":4,"area_code":"370302116218","zip_code":"255161","city_code":"0533","name":"\u897f\u6cb3\u6751\u59d4\u4f1a","short_name":"\u897f\u6cb3","merger_name":"\u5c71\u4e1c,\u6dc4\u535a,\u6dc4\u5ddd,\u53cc\u6768,\u897f\u6cb3","pinyin":"XiHe","lng":"117.945730","lat":"36.728160"},{"id":302250,"parent_id":302231,"level":4,"area_code":"370302116219","zip_code":"255190","city_code":"0533","name":"\u5eb5\u5934\u6751\u59d4\u4f1a","short_name":"\u5eb5\u5934","merger_name":"\u5c71\u4e1c,\u6dc4\u535a,\u6dc4\u5ddd,\u53cc\u6768,\u5eb5\u5934","pinyin":"AnTou","lng":"117.960980","lat":"36.745920"},{"id":302251,"parent_id":302231,"level":4,"area_code":"370302116220","zip_code":"255178","city_code":"0533","name":"\u8d75\u5bb6\u6751\u6751\u59d4\u4f1a","short_name":"\u8d75\u5bb6\u6751","merger_name":"\u5c71\u4e1c,\u6dc4\u535a,\u6dc4\u5ddd,\u53cc\u6768,\u8d75\u5bb6\u6751","pinyin":"ZhaoJiaCun","lng":"117.999482","lat":"36.728348"},{"id":302252,"parent_id":302231,"level":4,"area_code":"370302116221","zip_code":"255190","city_code":"0533","name":"\u5341\u91cc\u94fa\u6751\u6751\u59d4\u4f1a","short_name":"\u5341\u91cc\u94fa\u6751","merger_name":"\u5c71\u4e1c,\u6dc4\u535a,\u6dc4\u5ddd,\u53cc\u6768,\u5341\u91cc\u94fa\u6751","pinyin":"ShiLiPuCun","lng":"117.992500","lat":"36.677390"},{"id":302253,"parent_id":302231,"level":4,"area_code":"370302116222","zip_code":"255190","city_code":"0533","name":"\u5b5f\u673a\u6751\u6751\u59d4\u4f1a","short_name":"\u5b5f\u673a\u6751","merger_name":"\u5c71\u4e1c,\u6dc4\u535a,\u6dc4\u5ddd,\u53cc\u6768,\u5b5f\u673a\u6751","pinyin":"MengJiCun","lng":"118.002172","lat":"36.663270"},{"id":302254,"parent_id":302231,"level":4,"area_code":"370302116223","zip_code":"255190","city_code":"0533","name":"\u5c0f\u5e84\u6751\u6751\u59d4\u4f1a","short_name":"\u5c0f\u5e84\u6751","merger_name":"\u5c71\u4e1c,\u6dc4\u535a,\u6dc4\u5ddd,\u53cc\u6768,\u5c0f\u5e84\u6751","pinyin":"XiaoZhuangCun","lng":"117.991400","lat":"36.692410"},{"id":302255,"parent_id":302231,"level":4,"area_code":"370302116224","zip_code":"255176","city_code":"0533","name":"\u725f\u6751\u6751\u59d4\u4f1a","short_name":"\u725f\u6751","merger_name":"\u5c71\u4e1c,\u6dc4\u535a,\u6dc4\u5ddd,\u53cc\u6768,\u725f\u6751","pinyin":"MouCun","lng":"117.975809","lat":"36.733892"},{"id":302256,"parent_id":302231,"level":4,"area_code":"370302116225","zip_code":"255190","city_code":"0533","name":"\u6768\u5170\u6751\u6751\u59d4\u4f1a","short_name":"\u6768\u5170\u6751","merger_name":"\u5c71\u4e1c,\u6dc4\u535a,\u6dc4\u5ddd,\u53cc\u6768,\u6768\u5170\u6751","pinyin":"YangLanCun","lng":"117.998089","lat":"36.702317"},{"id":302257,"parent_id":302231,"level":4,"area_code":"370302116226","zip_code":"255190","city_code":"0533","name":"\u51e4\u51f0\u6751\u6751\u59d4\u4f1a","short_name":"\u51e4\u51f0\u6751","merger_name":"\u5c71\u4e1c,\u6dc4\u535a,\u6dc4\u5ddd,\u53cc\u6768,\u51e4\u51f0\u6751","pinyin":"FengHuangCun","lng":"118.117110","lat":"36.769031"},{"id":302258,"parent_id":302231,"level":4,"area_code":"370302116227","zip_code":"255190","city_code":"0533","name":"\u534e\u575e\u6751\u6751\u59d4\u4f1a","short_name":"\u534e\u575e\u6751","merger_name":"\u5c71\u4e1c,\u6dc4\u535a,\u6dc4\u5ddd,\u53cc\u6768,\u534e\u575e\u6751","pinyin":"HuaWuCun","lng":"117.979660","lat":"36.718820"},{"id":302259,"parent_id":302231,"level":4,"area_code":"370302116228","zip_code":"255190","city_code":"0533","name":"\u5357\u94fa\u6751\u6751\u59d4\u4f1a","short_name":"\u5357\u94fa\u6751","merger_name":"\u5c71\u4e1c,\u6dc4\u535a,\u6dc4\u5ddd,\u53cc\u6768,\u5357\u94fa\u6751","pinyin":"NanPuCun","lng":"117.975809","lat":"36.733892"},{"id":302260,"parent_id":302231,"level":4,"area_code":"370302116229","zip_code":"255190","city_code":"0533","name":"\u5c0f\u8d75\u5e84\u6751\u59d4\u4f1a","short_name":"\u5c0f\u8d75\u5e84","merger_name":"\u5c71\u4e1c,\u6dc4\u535a,\u6dc4\u5ddd,\u53cc\u6768,\u5c0f\u8d75\u5e84","pinyin":"XiaoZhaoZhuang","lng":"117.994240","lat":"36.714840"},{"id":302261,"parent_id":302231,"level":4,"area_code":"370302116230","zip_code":"255190","city_code":"0533","name":"\u53cc\u6cb3\u6751\u6751\u59d4\u4f1a","short_name":"\u53cc\u6cb3\u6751","merger_name":"\u5c71\u4e1c,\u6dc4\u535a,\u6dc4\u5ddd,\u53cc\u6768,\u53cc\u6cb3\u6751","pinyin":"ShuangHeCun","lng":"117.998089","lat":"36.702317"},{"id":302262,"parent_id":302231,"level":4,"area_code":"370302116231","zip_code":"255190","city_code":"0533","name":"\u767d\u6c99\u6751\u6751\u59d4\u4f1a","short_name":"\u767d\u6c99\u6751","merger_name":"\u5c71\u4e1c,\u6dc4\u535a,\u6dc4\u5ddd,\u53cc\u6768,\u767d\u6c99\u6751","pinyin":"BaiShaCun","lng":"118.117110","lat":"36.769031"},{"id":302263,"parent_id":302231,"level":4,"area_code":"370302116232","zip_code":"255190","city_code":"0533","name":"\u8f9b\u5e84\u6751\u6751\u59d4\u4f1a","short_name":"\u8f9b\u5e84\u6751","merger_name":"\u5c71\u4e1c,\u6dc4\u535a,\u6dc4\u5ddd,\u53cc\u6768,\u8f9b\u5e84\u6751","pinyin":"XinZhuangCun","lng":"118.017283","lat":"36.678676"},{"id":302264,"parent_id":302231,"level":4,"area_code":"370302116233","zip_code":"255190","city_code":"0533","name":"\u897f\u5f20\u6751\u6751\u59d4\u4f1a","short_name":"\u897f\u5f20\u6751","merger_name":"\u5c71\u4e1c,\u6dc4\u535a,\u6dc4\u5ddd,\u53cc\u6768,\u897f\u5f20\u6751","pinyin":"XiZhangCun","lng":"118.117110","lat":"36.769031"},{"id":302265,"parent_id":302231,"level":4,"area_code":"370302116234","zip_code":"255190","city_code":"0533","name":"\u53cc\u6c9f\u6751\u6751\u59d4\u4f1a","short_name":"\u53cc\u6c9f\u6751","merger_name":"\u5c71\u4e1c,\u6dc4\u535a,\u6dc4\u5ddd,\u53cc\u6768,\u53cc\u6c9f\u6751","pinyin":"ShuangGouCun","lng":"118.015210","lat":"36.689900"},{"id":302266,"parent_id":302231,"level":4,"area_code":"370302116235","zip_code":"255190","city_code":"0533","name":"\u4e1c\u5f20\u6751\u6751\u59d4\u4f1a","short_name":"\u4e1c\u5f20\u6751","merger_name":"\u5c71\u4e1c,\u6dc4\u535a,\u6dc4\u5ddd,\u53cc\u6768,\u4e1c\u5f20\u6751","pinyin":"DongZhangCun","lng":"117.958430","lat":"36.766460"},{"id":302267,"parent_id":302231,"level":4,"area_code":"370302116236","zip_code":"255190","city_code":"0533","name":"\u85cf\u6893\u6751\u6751\u59d4\u4f1a","short_name":"\u85cf\u6893\u6751","merger_name":"\u5c71\u4e1c,\u6dc4\u535a,\u6dc4\u5ddd,\u53cc\u6768,\u85cf\u6893\u6751","pinyin":"CangZiCun","lng":"118.024320","lat":"36.673100"},{"id":302268,"parent_id":301884,"level":3,"area_code":"370302117000","zip_code":"255178","city_code":"0533","name":"\u592a\u6cb3\u9547","short_name":"\u592a\u6cb3","merger_name":"\u5c71\u4e1c,\u6dc4\u535a,\u6dc4\u5ddd,\u592a\u6cb3","pinyin":"TaiHe","lng":"118.161300","lat":"36.554910"},{"id":302269,"parent_id":302268,"level":4,"area_code":"370302117201","zip_code":"255178","city_code":"0533","name":"\u4e1c\u540c\u53e4\u6751\u59d4\u4f1a","short_name":"\u4e1c\u540c\u53e4","merger_name":"\u5c71\u4e1c,\u6dc4\u535a,\u6dc4\u5ddd,\u592a\u6cb3,\u4e1c\u540c\u53e4","pinyin":"DongTongGu","lng":"118.067980","lat":"36.523780"},{"id":302270,"parent_id":302268,"level":4,"area_code":"370302117202","zip_code":"255178","city_code":"0533","name":"\u6850\u53e4\u576a\u6751\u59d4\u4f1a","short_name":"\u6850\u53e4\u576a","merger_name":"\u5c71\u4e1c,\u6dc4\u535a,\u6dc4\u5ddd,\u592a\u6cb3,\u6850\u53e4\u576a","pinyin":"TongGuPing","lng":"118.165230","lat":"36.552460"},{"id":302271,"parent_id":302268,"level":4,"area_code":"370302117203","zip_code":"255178","city_code":"0533","name":"\u540e\u5cea\u6751\u59d4\u4f1a","short_name":"\u540e\u5cea","merger_name":"\u5c71\u4e1c,\u6dc4\u535a,\u6dc4\u5ddd,\u592a\u6cb3,\u540e\u5cea","pinyin":"HouYu","lng":"118.163750","lat":"36.554740"},{"id":302272,"parent_id":302268,"level":4,"area_code":"370302117204","zip_code":"255178","city_code":"0533","name":"\u5b8b\u5bb6\u6751\u59d4\u4f1a","short_name":"\u5b8b\u5bb6","merger_name":"\u5c71\u4e1c,\u6dc4\u535a,\u6dc4\u5ddd,\u592a\u6cb3,\u5b8b\u5bb6","pinyin":"SongJia","lng":"117.878850","lat":"36.596240"},{"id":302273,"parent_id":302268,"level":4,"area_code":"370302117205","zip_code":"255178","city_code":"0533","name":"\u66f9\u5bb6\u6751\u59d4\u4f1a","short_name":"\u66f9\u5bb6","merger_name":"\u5c71\u4e1c,\u6dc4\u535a,\u6dc4\u5ddd,\u592a\u6cb3,\u66f9\u5bb6","pinyin":"CaoJia","lng":"118.161337","lat":"36.554990"},{"id":302274,"parent_id":302268,"level":4,"area_code":"370302117206","zip_code":"255178","city_code":"0533","name":"\u90ed\u5bb6\u6751\u59d4\u4f1a","short_name":"\u90ed\u5bb6","merger_name":"\u5c71\u4e1c,\u6dc4\u535a,\u6dc4\u5ddd,\u592a\u6cb3,\u90ed\u5bb6","pinyin":"GuoJia","lng":"118.161337","lat":"36.554990"},{"id":302275,"parent_id":302268,"level":4,"area_code":"370302117207","zip_code":"255178","city_code":"0533","name":"\u674e\u5bb6\u6751\u59d4\u4f1a","short_name":"\u674e\u5bb6","merger_name":"\u5c71\u4e1c,\u6dc4\u535a,\u6dc4\u5ddd,\u592a\u6cb3,\u674e\u5bb6","pinyin":"LiJia","lng":"118.161337","lat":"36.554990"},{"id":302276,"parent_id":302268,"level":4,"area_code":"370302117208","zip_code":"255178","city_code":"0533","name":"\u9ed1\u5c71\u6751\u59d4\u4f1a","short_name":"\u9ed1\u5c71","merger_name":"\u5c71\u4e1c,\u6dc4\u535a,\u6dc4\u5ddd,\u592a\u6cb3,\u9ed1\u5c71","pinyin":"HeiShan","lng":"118.161300","lat":"36.554910"},{"id":302277,"parent_id":302268,"level":4,"area_code":"370302117209","zip_code":"255178","city_code":"0533","name":"\u8d75\u5bb6\u6751\u59d4\u4f1a","short_name":"\u8d75\u5bb6","merger_name":"\u5c71\u4e1c,\u6dc4\u535a,\u6dc4\u5ddd,\u592a\u6cb3,\u8d75\u5bb6","pinyin":"ZhaoJia","lng":"117.809486","lat":"36.633649"},{"id":302278,"parent_id":302268,"level":4,"area_code":"370302117210","zip_code":"255178","city_code":"0533","name":"\u5317\u9a6c\u9e7f\u6751\u59d4\u4f1a","short_name":"\u5317\u9a6c\u9e7f","merger_name":"\u5c71\u4e1c,\u6dc4\u535a,\u6dc4\u5ddd,\u592a\u6cb3,\u5317\u9a6c\u9e7f","pinyin":"BeiMaLu","lng":"118.125398","lat":"36.900425"},{"id":302279,"parent_id":302268,"level":4,"area_code":"370302117211","zip_code":"255178","city_code":"0533","name":"\u5357\u9a6c\u9e7f\u6751\u59d4\u4f1a","short_name":"\u5357\u9a6c\u9e7f","merger_name":"\u5c71\u4e1c,\u6dc4\u535a,\u6dc4\u5ddd,\u592a\u6cb3,\u5357\u9a6c\u9e7f","pinyin":"NanMaLu","lng":"118.164400","lat":"36.572080"},{"id":302280,"parent_id":302268,"level":4,"area_code":"370302117212","zip_code":"255178","city_code":"0533","name":"\u897f\u6850\u53e4\u6751\u59d4\u4f1a","short_name":"\u897f\u6850\u53e4","merger_name":"\u5c71\u4e1c,\u6dc4\u535a,\u6dc4\u5ddd,\u592a\u6cb3,\u897f\u6850\u53e4","pinyin":"XiTongGu","lng":"118.157760","lat":"36.559910"},{"id":302281,"parent_id":302268,"level":4,"area_code":"370302117213","zip_code":"255178","city_code":"0533","name":"\u6768\u6cc9\u6751\u59d4\u4f1a","short_name":"\u6768\u6cc9","merger_name":"\u5c71\u4e1c,\u6dc4\u535a,\u6dc4\u5ddd,\u592a\u6cb3,\u6768\u6cc9","pinyin":"YangQuan","lng":"118.015210","lat":"36.689900"},{"id":302282,"parent_id":302268,"level":4,"area_code":"370302117214","zip_code":"255178","city_code":"0533","name":"\u6797\u6cc9\u6751\u59d4\u4f1a","short_name":"\u6797\u6cc9","merger_name":"\u5c71\u4e1c,\u6dc4\u535a,\u6dc4\u5ddd,\u592a\u6cb3,\u6797\u6cc9","pinyin":"LinQuan","lng":"118.113890","lat":"36.547300"},{"id":302283,"parent_id":302268,"level":4,"area_code":"370302117215","zip_code":"255178","city_code":"0533","name":"\u65b0\u6751\u6751\u59d4\u4f1a","short_name":"\u65b0\u6751","merger_name":"\u5c71\u4e1c,\u6dc4\u535a,\u6dc4\u5ddd,\u592a\u6cb3,\u65b0\u6751","pinyin":"XinCun","lng":"117.989874","lat":"36.607361"},{"id":302284,"parent_id":302268,"level":4,"area_code":"370302117216","zip_code":"255178","city_code":"0533","name":"\u5357\u4e0b\u518c\u6751\u59d4\u4f1a","short_name":"\u5357\u4e0b\u518c","merger_name":"\u5c71\u4e1c,\u6dc4\u535a,\u6dc4\u5ddd,\u592a\u6cb3,\u5357\u4e0b\u518c","pinyin":"NanXiaCe","lng":"118.126620","lat":"36.536700"},{"id":302285,"parent_id":302268,"level":4,"area_code":"370302117217","zip_code":"255178","city_code":"0533","name":"\u8001\u5cea\u6751\u59d4\u4f1a","short_name":"\u8001\u5cea","merger_name":"\u5c71\u4e1c,\u6dc4\u535a,\u6dc4\u5ddd,\u592a\u6cb3,\u8001\u5cea","pinyin":"LaoYu","lng":"118.124580","lat":"36.541000"},{"id":302286,"parent_id":302268,"level":4,"area_code":"370302117218","zip_code":"255178","city_code":"0533","name":"\u5c0f\u540e\u6c9f\u6751\u59d4\u4f1a","short_name":"\u5c0f\u540e\u6c9f","merger_name":"\u5c71\u4e1c,\u6dc4\u535a,\u6dc4\u5ddd,\u592a\u6cb3,\u5c0f\u540e\u6c9f","pinyin":"XiaoHouGou","lng":"118.161337","lat":"36.554990"},{"id":302287,"parent_id":302268,"level":4,"area_code":"370302117219","zip_code":"255178","city_code":"0533","name":"\u5317\u4e0b\u518c\u6751\u59d4\u4f1a","short_name":"\u5317\u4e0b\u518c","merger_name":"\u5c71\u4e1c,\u6dc4\u535a,\u6dc4\u5ddd,\u592a\u6cb3,\u5317\u4e0b\u518c","pinyin":"BeiXiaCe","lng":"118.125398","lat":"36.900425"},{"id":302288,"parent_id":302268,"level":4,"area_code":"370302117220","zip_code":"255178","city_code":"0533","name":"\u738b\u5b50\u5c71\u6751\u59d4\u4f1a","short_name":"\u738b\u5b50\u5c71","merger_name":"\u5c71\u4e1c,\u6dc4\u535a,\u6dc4\u5ddd,\u592a\u6cb3,\u738b\u5b50\u5c71","pinyin":"WangZiShan","lng":"118.135830","lat":"36.547820"},{"id":302289,"parent_id":302268,"level":4,"area_code":"370302117221","zip_code":"255178","city_code":"0533","name":"\u4e1c\u4e0b\u518c\u6751\u59d4\u4f1a","short_name":"\u4e1c\u4e0b\u518c","merger_name":"\u5c71\u4e1c,\u6dc4\u535a,\u6dc4\u5ddd,\u592a\u6cb3,\u4e1c\u4e0b\u518c","pinyin":"DongXiaCe","lng":"118.125398","lat":"36.900425"},{"id":302290,"parent_id":302268,"level":4,"area_code":"370302117222","zip_code":"255178","city_code":"0533","name":"\u540e\u5e84\u6751\u59d4\u4f1a","short_name":"\u540e\u5e84","merger_name":"\u5c71\u4e1c,\u6dc4\u535a,\u6dc4\u5ddd,\u592a\u6cb3,\u540e\u5e84","pinyin":"HouZhuang","lng":"118.161337","lat":"36.554990"},{"id":302291,"parent_id":302268,"level":4,"area_code":"370302117223","zip_code":"255178","city_code":"0533","name":"\u4e1c\u5cea\u6751\u6751\u59d4\u4f1a","short_name":"\u4e1c\u5cea\u6751","merger_name":"\u5c71\u4e1c,\u6dc4\u535a,\u6dc4\u5ddd,\u592a\u6cb3,\u4e1c\u5cea\u6751","pinyin":"DongYuCun","lng":"118.338770","lat":"36.192290"},{"id":302292,"parent_id":302268,"level":4,"area_code":"370302117224","zip_code":"255178","city_code":"0533","name":"\u4e1c\u592a\u6cb3\u6751\u59d4\u4f1a","short_name":"\u4e1c\u592a\u6cb3","merger_name":"\u5c71\u4e1c,\u6dc4\u535a,\u6dc4\u5ddd,\u592a\u6cb3,\u4e1c\u592a\u6cb3","pinyin":"DongTaiHe","lng":"118.141360","lat":"36.522550"},{"id":302293,"parent_id":302268,"level":4,"area_code":"370302117225","zip_code":"255178","city_code":"0533","name":"\u4e1c\u5d16\u6751\u59d4\u4f1a","short_name":"\u4e1c\u5d16","merger_name":"\u5c71\u4e1c,\u6dc4\u535a,\u6dc4\u5ddd,\u592a\u6cb3,\u4e1c\u5d16","pinyin":"DongYa","lng":"118.208910","lat":"36.695360"},{"id":302294,"parent_id":302268,"level":4,"area_code":"370302117226","zip_code":"255178","city_code":"0533","name":"\u5357\u9633\u6751\u59d4\u4f1a","short_name":"\u5357\u9633","merger_name":"\u5c71\u4e1c,\u6dc4\u535a,\u6dc4\u5ddd,\u592a\u6cb3,\u5357\u9633","pinyin":"NanYang","lng":"118.067980","lat":"36.523780"},{"id":302295,"parent_id":302268,"level":4,"area_code":"370302117227","zip_code":"255178","city_code":"0533","name":"\u4e1c\u5357\u725f\u6751\u59d4\u4f1a","short_name":"\u4e1c\u5357\u725f","merger_name":"\u5c71\u4e1c,\u6dc4\u535a,\u6dc4\u5ddd,\u592a\u6cb3,\u4e1c\u5357\u725f","pinyin":"DongNanMou","lng":"118.123750","lat":"36.501490"},{"id":302296,"parent_id":302268,"level":4,"area_code":"370302117228","zip_code":"255178","city_code":"0533","name":"\u592a\u6cb3\u6751\u59d4\u4f1a","short_name":"\u592a\u6cb3","merger_name":"\u5c71\u4e1c,\u6dc4\u535a,\u6dc4\u5ddd,\u592a\u6cb3,\u592a\u6cb3","pinyin":"TaiHe","lng":"118.205420","lat":"36.454670"},{"id":302297,"parent_id":302268,"level":4,"area_code":"370302117229","zip_code":"255176","city_code":"0533","name":"\u5317\u725f\u6751\u59d4\u4f1a","short_name":"\u5317\u725f","merger_name":"\u5c71\u4e1c,\u6dc4\u535a,\u6dc4\u5ddd,\u592a\u6cb3,\u5317\u725f","pinyin":"BeiMou","lng":"118.114250","lat":"36.509600"},{"id":302298,"parent_id":302268,"level":4,"area_code":"370302117230","zip_code":"255178","city_code":"0533","name":"\u897f\u5357\u725f\u6751\u59d4\u4f1a","short_name":"\u897f\u5357\u725f","merger_name":"\u5c71\u4e1c,\u6dc4\u535a,\u6dc4\u5ddd,\u592a\u6cb3,\u897f\u5357\u725f","pinyin":"XiNanMou","lng":"118.109660","lat":"36.504920"},{"id":302299,"parent_id":302268,"level":4,"area_code":"370302117231","zip_code":"255176","city_code":"0533","name":"\u65b9\u5c71\u6751\u59d4\u4f1a","short_name":"\u65b9\u5c71","merger_name":"\u5c71\u4e1c,\u6dc4\u535a,\u6dc4\u5ddd,\u592a\u6cb3,\u65b9\u5c71","pinyin":"FangShan","lng":"118.104790","lat":"36.528240"},{"id":302300,"parent_id":302268,"level":4,"area_code":"370302117232","zip_code":"255178","city_code":"0533","name":"\u53cc\u5c71\u6751\u6751\u59d4\u4f1a","short_name":"\u53cc\u5c71\u6751","merger_name":"\u5c71\u4e1c,\u6dc4\u535a,\u6dc4\u5ddd,\u592a\u6cb3,\u53cc\u5c71\u6751","pinyin":"ShuangShanCun","lng":"118.161337","lat":"36.554990"},{"id":302301,"parent_id":302268,"level":4,"area_code":"370302117233","zip_code":"255178","city_code":"0533","name":"\u4e1c\u4f59\u7cae\u6751\u59d4\u4f1a","short_name":"\u4e1c\u4f59\u7cae","merger_name":"\u5c71\u4e1c,\u6dc4\u535a,\u6dc4\u5ddd,\u592a\u6cb3,\u4e1c\u4f59\u7cae","pinyin":"DongYuLiang","lng":"118.148900","lat":"36.431960"},{"id":302302,"parent_id":302268,"level":4,"area_code":"370302117234","zip_code":"255178","city_code":"0533","name":"\u897f\u4f59\u7cae\u6751\u59d4\u4f1a","short_name":"\u897f\u4f59\u7cae","merger_name":"\u5c71\u4e1c,\u6dc4\u535a,\u6dc4\u5ddd,\u592a\u6cb3,\u897f\u4f59\u7cae","pinyin":"XiYuLiang","lng":"118.191750","lat":"36.535360"},{"id":302303,"parent_id":302268,"level":4,"area_code":"370302117235","zip_code":"255171","city_code":"0533","name":"\u6dc4\u6cb3\u6751\u59d4\u4f1a","short_name":"\u6dc4\u6cb3","merger_name":"\u5c71\u4e1c,\u6dc4\u535a,\u6dc4\u5ddd,\u592a\u6cb3,\u6dc4\u6cb3","pinyin":"ZiHe","lng":"118.160960","lat":"36.555080"},{"id":302304,"parent_id":302268,"level":4,"area_code":"370302117236","zip_code":"255171","city_code":"0533","name":"\u68a6\u6cc9\u6751\u59d4\u4f1a","short_name":"\u68a6\u6cc9","merger_name":"\u5c71\u4e1c,\u6dc4\u535a,\u6dc4\u5ddd,\u592a\u6cb3,\u68a6\u6cc9","pinyin":"MengQuan","lng":"118.148900","lat":"36.431960"},{"id":302305,"parent_id":302268,"level":4,"area_code":"370302117237","zip_code":"255171","city_code":"0533","name":"\u53cc\u4e95\u6751\u59d4\u4f1a","short_name":"\u53cc\u4e95","merger_name":"\u5c71\u4e1c,\u6dc4\u535a,\u6dc4\u5ddd,\u592a\u6cb3,\u53cc\u4e95","pinyin":"ShuangJing","lng":"118.161300","lat":"36.554910"},{"id":302306,"parent_id":302268,"level":4,"area_code":"370302117238","zip_code":"255171","city_code":"0533","name":"\u6768\u5bb6\u6751\u59d4\u4f1a","short_name":"\u6768\u5bb6","merger_name":"\u5c71\u4e1c,\u6dc4\u535a,\u6dc4\u5ddd,\u592a\u6cb3,\u6768\u5bb6","pinyin":"YangJia","lng":"118.161337","lat":"36.554990"},{"id":302307,"parent_id":302268,"level":4,"area_code":"370302117239","zip_code":"255171","city_code":"0533","name":"\u672c\u9f50\u6751\u59d4\u4f1a","short_name":"\u672c\u9f50","merger_name":"\u5c71\u4e1c,\u6dc4\u535a,\u6dc4\u5ddd,\u592a\u6cb3,\u672c\u9f50","pinyin":"BenQi","lng":"118.132506","lat":"36.447989"},{"id":302308,"parent_id":302268,"level":4,"area_code":"370302117240","zip_code":"255171","city_code":"0533","name":"\u5e78\u798f\u6751\u59d4\u4f1a","short_name":"\u5e78\u798f","merger_name":"\u5c71\u4e1c,\u6dc4\u535a,\u6dc4\u5ddd,\u592a\u6cb3,\u5e78\u798f","pinyin":"XingFu","lng":"118.119210","lat":"36.445280"},{"id":302309,"parent_id":302268,"level":4,"area_code":"370302117241","zip_code":"255171","city_code":"0533","name":"\u4ead\u5b50\u5d16\u6751\u59d4\u4f1a","short_name":"\u4ead\u5b50\u5d16","merger_name":"\u5c71\u4e1c,\u6dc4\u535a,\u6dc4\u5ddd,\u592a\u6cb3,\u4ead\u5b50\u5d16","pinyin":"TingZiYa","lng":"118.124280","lat":"36.439130"},{"id":302310,"parent_id":302268,"level":4,"area_code":"370302117242","zip_code":"255171","city_code":"0533","name":"\u6c38\u6cc9\u6751\u59d4\u4f1a","short_name":"\u6c38\u6cc9","merger_name":"\u5c71\u4e1c,\u6dc4\u535a,\u6dc4\u5ddd,\u592a\u6cb3,\u6c38\u6cc9","pinyin":"YongQuan","lng":"118.161300","lat":"36.554910"},{"id":302311,"parent_id":302268,"level":4,"area_code":"370302117243","zip_code":"255171","city_code":"0533","name":"\u5357\u80a1\u6751\u59d4\u4f1a","short_name":"\u5357\u80a1","merger_name":"\u5c71\u4e1c,\u6dc4\u535a,\u6dc4\u5ddd,\u592a\u6cb3,\u5357\u80a1","pinyin":"NanGu","lng":"118.129830","lat":"36.432510"},{"id":302312,"parent_id":302268,"level":4,"area_code":"370302117244","zip_code":"255171","city_code":"0533","name":"\u6851\u676d\u6751\u59d4\u4f1a","short_name":"\u6851\u676d","merger_name":"\u5c71\u4e1c,\u6dc4\u535a,\u6dc4\u5ddd,\u592a\u6cb3,\u6851\u676d","pinyin":"SangHang","lng":"118.117310","lat":"36.440560"},