[{"id":35001,"parent_id":34962,"level":4,"area_code":"130523104239","zip_code":"54299","city_code":"0319","name":"\u5317\u674e\u5e84\u6751\u59d4\u4f1a","short_name":"\u5317\u674e\u5e84","merger_name":"\u6cb3\u5317,\u90a2\u53f0,\u5185\u4e18,\u67f3\u6797,\u5317\u674e\u5e84","pinyin":"BeiLiZhuang","lng":"114.712330","lat":"37.068030"},{"id":35002,"parent_id":34962,"level":4,"area_code":"130523104240","zip_code":"54299","city_code":"0319","name":"\u67f3\u6797\u6c9f\u6751\u59d4\u4f1a","short_name":"\u67f3\u6797\u6c9f","merger_name":"\u6cb3\u5317,\u90a2\u53f0,\u5185\u4e18,\u67f3\u6797,\u67f3\u6797\u6c9f","pinyin":"LiuLinGou","lng":"114.372750","lat":"37.345910"},{"id":35003,"parent_id":34962,"level":4,"area_code":"130523104241","zip_code":"54299","city_code":"0319","name":"\u82cf\u5e84\u6751\u59d4\u4f1a","short_name":"\u82cf\u5e84","merger_name":"\u6cb3\u5317,\u90a2\u53f0,\u5185\u4e18,\u67f3\u6797,\u82cf\u5e84","pinyin":"SuZhuang","lng":"114.325170","lat":"36.963030"},{"id":35004,"parent_id":34809,"level":3,"area_code":"130523200000","zip_code":"54299","city_code":"0319","name":"\u4e94\u90ed\u5e97\u4e61","short_name":"\u4e94\u90ed\u5e97","merger_name":"\u6cb3\u5317,\u90a2\u53f0,\u5185\u4e18,\u4e94\u90ed\u5e97","pinyin":"WuGuoDian","lng":"114.523850","lat":"37.339230"},{"id":35005,"parent_id":35004,"level":4,"area_code":"130523200201","zip_code":"54299","city_code":"0319","name":"\u4e94\u90ed\u5e97\u6751\u59d4\u4f1a","short_name":"\u4e94\u90ed\u5e97","merger_name":"\u6cb3\u5317,\u90a2\u53f0,\u5185\u4e18,\u4e94\u90ed\u5e97,\u4e94\u90ed\u5e97","pinyin":"WuGuoDian","lng":"114.521617","lat":"37.295408"},{"id":35006,"parent_id":35004,"level":4,"area_code":"130523200202","zip_code":"54299","city_code":"0319","name":"\u897f\u90b5\u660e\u6751\u59d4\u4f1a","short_name":"\u897f\u90b5\u660e","merger_name":"\u6cb3\u5317,\u90a2\u53f0,\u5185\u4e18,\u4e94\u90ed\u5e97,\u897f\u90b5\u660e","pinyin":"XiShaoMing","lng":"114.518830","lat":"37.370880"},{"id":35007,"parent_id":35004,"level":4,"area_code":"130523200203","zip_code":"54299","city_code":"0319","name":"\u4e1c\u90b5\u660e\u6751\u59d4\u4f1a","short_name":"\u4e1c\u90b5\u660e","merger_name":"\u6cb3\u5317,\u90a2\u53f0,\u5185\u4e18,\u4e94\u90ed\u5e97,\u4e1c\u90b5\u660e","pinyin":"DongShaoMing","lng":"114.538560","lat":"37.373590"},{"id":35008,"parent_id":35004,"level":4,"area_code":"130523200204","zip_code":"54299","city_code":"0319","name":"\u897f\u78c1\u7a91\u6c9f\u6751\u59d4\u4f1a","short_name":"\u897f\u78c1\u7a91\u6c9f","merger_name":"\u6cb3\u5317,\u90a2\u53f0,\u5185\u4e18,\u4e94\u90ed\u5e97,\u897f\u78c1\u7a91\u6c9f","pinyin":"XiCiYaoGou","lng":"114.521617","lat":"37.295408"},{"id":35009,"parent_id":35004,"level":4,"area_code":"130523200205","zip_code":"54299","city_code":"0319","name":"\u4e1c\u78c1\u7a91\u6c9f\u6751\u59d4\u4f1a","short_name":"\u4e1c\u78c1\u7a91\u6c9f","merger_name":"\u6cb3\u5317,\u90a2\u53f0,\u5185\u4e18,\u4e94\u90ed\u5e97,\u4e1c\u78c1\u7a91\u6c9f","pinyin":"DongCiYaoGou","lng":"114.523130","lat":"37.340240"},{"id":35010,"parent_id":35004,"level":4,"area_code":"130523200206","zip_code":"54200","city_code":"0319","name":"\u5317\u969c\u9547\u6751\u59d4\u4f1a","short_name":"\u5317\u969c\u9547","merger_name":"\u6cb3\u5317,\u90a2\u53f0,\u5185\u4e18,\u4e94\u90ed\u5e97,\u5317\u969c\u9547","pinyin":"BeiZhangZhen","lng":"114.921260","lat":"37.647820"},{"id":35011,"parent_id":35004,"level":4,"area_code":"130523200207","zip_code":"54299","city_code":"0319","name":"\u53f2\u6751\u6751\u59d4\u4f1a","short_name":"\u53f2\u6751","merger_name":"\u6cb3\u5317,\u90a2\u53f0,\u5185\u4e18,\u4e94\u90ed\u5e97,\u53f2\u6751","pinyin":"ShiCun","lng":"114.523130","lat":"37.340240"},{"id":35012,"parent_id":35004,"level":4,"area_code":"130523200208","zip_code":"54200","city_code":"0319","name":"\u843d\u51f9\u6751\u59d4\u4f1a","short_name":"\u843d\u51f9","merger_name":"\u6cb3\u5317,\u90a2\u53f0,\u5185\u4e18,\u4e94\u90ed\u5e97,\u843d\u51f9","pinyin":"LuoAo","lng":"114.482480","lat":"37.330930"},{"id":35013,"parent_id":35004,"level":4,"area_code":"130523200209","zip_code":"54299","city_code":"0319","name":"\u674e\u5bb6\u51f9\u6751\u59d4\u4f1a","short_name":"\u674e\u5bb6\u51f9","merger_name":"\u6cb3\u5317,\u90a2\u53f0,\u5185\u4e18,\u4e94\u90ed\u5e97,\u674e\u5bb6\u51f9","pinyin":"LiJiaAo","lng":"114.501500","lat":"37.320320"},{"id":35014,"parent_id":35004,"level":4,"area_code":"130523200210","zip_code":"54200","city_code":"0319","name":"\u4e94\u90ed\u6751\u59d4\u4f1a","short_name":"\u4e94\u90ed","merger_name":"\u6cb3\u5317,\u90a2\u53f0,\u5185\u4e18,\u4e94\u90ed\u5e97,\u4e94\u90ed","pinyin":"WuGuo","lng":"114.521617","lat":"37.295408"},{"id":35015,"parent_id":35004,"level":4,"area_code":"130523200211","zip_code":"54299","city_code":"0319","name":"\u80e1\u5bb6\u5e84\u6751\u59d4\u4f1a","short_name":"\u80e1\u5bb6\u5e84","merger_name":"\u6cb3\u5317,\u90a2\u53f0,\u5185\u4e18,\u4e94\u90ed\u5e97,\u80e1\u5bb6\u5e84","pinyin":"HuJiaZhuang","lng":"114.521617","lat":"37.295408"},{"id":35016,"parent_id":35004,"level":4,"area_code":"130523200212","zip_code":"54200","city_code":"0319","name":"\u53f2\u6751\u5c6f\u6751\u59d4\u4f1a","short_name":"\u53f2\u6751\u5c6f","merger_name":"\u6cb3\u5317,\u90a2\u53f0,\u5185\u4e18,\u4e94\u90ed\u5e97,\u53f2\u6751\u5c6f","pinyin":"ShiCunTun","lng":"114.921260","lat":"37.647820"},{"id":35017,"parent_id":35004,"level":4,"area_code":"130523200213","zip_code":"54299","city_code":"0319","name":"\u540e\u674e\u9633\u6751\u59d4\u4f1a","short_name":"\u540e\u674e\u9633","merger_name":"\u6cb3\u5317,\u90a2\u53f0,\u5185\u4e18,\u4e94\u90ed\u5e97,\u540e\u674e\u9633","pinyin":"HouLiYang","lng":"114.921260","lat":"37.647820"},{"id":35018,"parent_id":35004,"level":4,"area_code":"130523200214","zip_code":"54299","city_code":"0319","name":"\u78e8\u7a9d\u6751\u59d4\u4f1a","short_name":"\u78e8\u7a9d","merger_name":"\u6cb3\u5317,\u90a2\u53f0,\u5185\u4e18,\u4e94\u90ed\u5e97,\u78e8\u7a9d","pinyin":"MoWo","lng":"114.921260","lat":"37.647820"},{"id":35019,"parent_id":35004,"level":4,"area_code":"130523200215","zip_code":"54299","city_code":"0319","name":"\u4e09\u4e2d\u51af\u6751\u59d4\u4f1a","short_name":"\u4e09\u4e2d\u51af","merger_name":"\u6cb3\u5317,\u90a2\u53f0,\u5185\u4e18,\u4e94\u90ed\u5e97,\u4e09\u4e2d\u51af","pinyin":"SanZhongFeng","lng":"114.525540","lat":"37.294200"},{"id":35020,"parent_id":35004,"level":4,"area_code":"130523200216","zip_code":"54299","city_code":"0319","name":"\u667a\u5bb6\u5e84\u6751\u59d4\u4f1a","short_name":"\u667a\u5bb6\u5e84","merger_name":"\u6cb3\u5317,\u90a2\u53f0,\u5185\u4e18,\u4e94\u90ed\u5e97,\u667a\u5bb6\u5e84","pinyin":"ZhiJiaZhuang","lng":"114.527340","lat":"37.289710"},{"id":35021,"parent_id":35004,"level":4,"area_code":"130523200217","zip_code":"54299","city_code":"0319","name":"\u7fdf\u5bb6\u5e84\u6751\u59d4\u4f1a","short_name":"\u7fdf\u5bb6\u5e84","merger_name":"\u6cb3\u5317,\u90a2\u53f0,\u5185\u4e18,\u4e94\u90ed\u5e97,\u7fdf\u5bb6\u5e84","pinyin":"DiJiaZhuang","lng":"114.521939","lat":"37.293451"},{"id":35022,"parent_id":35004,"level":4,"area_code":"130523200218","zip_code":"54299","city_code":"0319","name":"\u9a6c\u6da7\u6751\u59d4\u4f1a","short_name":"\u9a6c\u6da7","merger_name":"\u6cb3\u5317,\u90a2\u53f0,\u5185\u4e18,\u4e94\u90ed\u5e97,\u9a6c\u6da7","pinyin":"MaJian","lng":"114.523130","lat":"37.340240"},{"id":35023,"parent_id":35004,"level":4,"area_code":"130523200219","zip_code":"54299","city_code":"0319","name":"\u5b89\u5b50\u6c9f\u6751\u59d4\u4f1a","short_name":"\u5b89\u5b50\u6c9f","merger_name":"\u6cb3\u5317,\u90a2\u53f0,\u5185\u4e18,\u4e94\u90ed\u5e97,\u5b89\u5b50\u6c9f","pinyin":"AnZiGou","lng":"113.921450","lat":"37.177920"},{"id":35024,"parent_id":35004,"level":4,"area_code":"130523200220","zip_code":"54200","city_code":"0319","name":"\u8be3\u4ec1\u6751\u59d4\u4f1a","short_name":"\u8be3\u4ec1","merger_name":"\u6cb3\u5317,\u90a2\u53f0,\u5185\u4e18,\u4e94\u90ed\u5e97,\u8be3\u4ec1","pinyin":"YiRen","lng":"114.425430","lat":"37.361670"},{"id":35025,"parent_id":35004,"level":4,"area_code":"130523200221","zip_code":"54299","city_code":"0319","name":"\u7d2b\u8349\u6c9f\u6751\u59d4\u4f1a","short_name":"\u7d2b\u8349\u6c9f","merger_name":"\u6cb3\u5317,\u90a2\u53f0,\u5185\u4e18,\u4e94\u90ed\u5e97,\u7d2b\u8349\u6c9f","pinyin":"ZiCaoGou","lng":"114.425430","lat":"37.361670"},{"id":35026,"parent_id":35004,"level":4,"area_code":"130523200222","zip_code":"54299","city_code":"0319","name":"\u5bcc\u5bb6\u6c9f\u6751\u59d4\u4f1a","short_name":"\u5bcc\u5bb6\u6c9f","merger_name":"\u6cb3\u5317,\u90a2\u53f0,\u5185\u4e18,\u4e94\u90ed\u5e97,\u5bcc\u5bb6\u6c9f","pinyin":"FuJiaGou","lng":"114.453830","lat":"37.363070"},{"id":35027,"parent_id":35004,"level":4,"area_code":"130523200223","zip_code":"54299","city_code":"0319","name":"\u5f20\u5bb6\u6c9f\u6751\u59d4\u4f1a","short_name":"\u5f20\u5bb6\u6c9f","merger_name":"\u6cb3\u5317,\u90a2\u53f0,\u5185\u4e18,\u4e94\u90ed\u5e97,\u5f20\u5bb6\u6c9f","pinyin":"ZhangJiaGou","lng":"114.521617","lat":"37.295408"},{"id":35028,"parent_id":35004,"level":4,"area_code":"130523200224","zip_code":"54200","city_code":"0319","name":"\u6f14\u6b66\u5ddd\u6751\u59d4\u4f1a","short_name":"\u6f14\u6b66\u5ddd","merger_name":"\u6cb3\u5317,\u90a2\u53f0,\u5185\u4e18,\u4e94\u90ed\u5e97,\u6f14\u6b66\u5ddd","pinyin":"YanWuChuan","lng":"114.413180","lat":"37.341030"},{"id":35029,"parent_id":35004,"level":4,"area_code":"130523200225","zip_code":"54299","city_code":"0319","name":"\u897f\u9a6c\u5e84\u6751\u59d4\u4f1a","short_name":"\u897f\u9a6c\u5e84","merger_name":"\u6cb3\u5317,\u90a2\u53f0,\u5185\u4e18,\u4e94\u90ed\u5e97,\u897f\u9a6c\u5e84","pinyin":"XiMaZhuang","lng":"114.523130","lat":"37.340240"},{"id":35030,"parent_id":35004,"level":4,"area_code":"130523200226","zip_code":"54299","city_code":"0319","name":"\u4e1c\u9a6c\u5e84\u6751\u59d4\u4f1a","short_name":"\u4e1c\u9a6c\u5e84","merger_name":"\u6cb3\u5317,\u90a2\u53f0,\u5185\u4e18,\u4e94\u90ed\u5e97,\u4e1c\u9a6c\u5e84","pinyin":"DongMaZhuang","lng":"114.499260","lat":"36.985080"},{"id":35031,"parent_id":35004,"level":4,"area_code":"130523200227","zip_code":"54200","city_code":"0319","name":"\u9ec4\u5e97\u6c9f\u6751\u59d4\u4f1a","short_name":"\u9ec4\u5e97\u6c9f","merger_name":"\u6cb3\u5317,\u90a2\u53f0,\u5185\u4e18,\u4e94\u90ed\u5e97,\u9ec4\u5e97\u6c9f","pinyin":"HuangDianGou","lng":"114.447540","lat":"37.346510"},{"id":35032,"parent_id":35004,"level":4,"area_code":"130523200228","zip_code":"54299","city_code":"0319","name":"\u4e1c\u7530\u5e84\u6751\u59d4\u4f1a","short_name":"\u4e1c\u7530\u5e84","merger_name":"\u6cb3\u5317,\u90a2\u53f0,\u5185\u4e18,\u4e94\u90ed\u5e97,\u4e1c\u7530\u5e84","pinyin":"DongTianZhuang","lng":"114.460210","lat":"37.328110"},{"id":35033,"parent_id":35004,"level":4,"area_code":"130523200229","zip_code":"54299","city_code":"0319","name":"\u65b0\u7530\u5e84\u6751\u59d4\u4f1a","short_name":"\u65b0\u7530\u5e84","merger_name":"\u6cb3\u5317,\u90a2\u53f0,\u5185\u4e18,\u4e94\u90ed\u5e97,\u65b0\u7530\u5e84","pinyin":"XinTianZhuang","lng":"114.444600","lat":"37.339410"},{"id":35034,"parent_id":35004,"level":4,"area_code":"130523200230","zip_code":"54299","city_code":"0319","name":"\u4e2d\u7530\u5e84\u6751\u59d4\u4f1a","short_name":"\u4e2d\u7530\u5e84","merger_name":"\u6cb3\u5317,\u90a2\u53f0,\u5185\u4e18,\u4e94\u90ed\u5e97,\u4e2d\u7530\u5e84","pinyin":"ZhongTianZhuang","lng":"114.921260","lat":"37.647820"},{"id":35035,"parent_id":35004,"level":4,"area_code":"130523200231","zip_code":"54299","city_code":"0319","name":"\u897f\u5317\u5cad\u6751\u59d4\u4f1a","short_name":"\u897f\u5317\u5cad","merger_name":"\u6cb3\u5317,\u90a2\u53f0,\u5185\u4e18,\u4e94\u90ed\u5e97,\u897f\u5317\u5cad","pinyin":"XiBeiLing","lng":"114.460210","lat":"37.328110"},{"id":35036,"parent_id":35004,"level":4,"area_code":"130523200232","zip_code":"54299","city_code":"0319","name":"\u897f\u7530\u5e84\u6751\u59d4\u4f1a","short_name":"\u897f\u7530\u5e84","merger_name":"\u6cb3\u5317,\u90a2\u53f0,\u5185\u4e18,\u4e94\u90ed\u5e97,\u897f\u7530\u5e84","pinyin":"XiTianZhuang","lng":"114.921260","lat":"37.647820"},{"id":35037,"parent_id":35004,"level":4,"area_code":"130523200233","zip_code":"54200","city_code":"0319","name":"\u4e1c\u5317\u5cad\u6751\u59d4\u4f1a","short_name":"\u4e1c\u5317\u5cad","merger_name":"\u6cb3\u5317,\u90a2\u53f0,\u5185\u4e18,\u4e94\u90ed\u5e97,\u4e1c\u5317\u5cad","pinyin":"DongBeiLing","lng":"114.467990","lat":"37.321970"},{"id":35038,"parent_id":35004,"level":4,"area_code":"130523200234","zip_code":"54299","city_code":"0319","name":"\u5317\u5927\u51af\u6751\u59d4\u4f1a","short_name":"\u5317\u5927\u51af","merger_name":"\u6cb3\u5317,\u90a2\u53f0,\u5185\u4e18,\u4e94\u90ed\u5e97,\u5317\u5927\u51af","pinyin":"BeiDaFeng","lng":"114.523130","lat":"37.340240"},{"id":35039,"parent_id":35004,"level":4,"area_code":"130523200235","zip_code":"54299","city_code":"0319","name":"\u5c71\u51f9\u6751\u59d4\u4f1a","short_name":"\u5c71\u51f9","merger_name":"\u6cb3\u5317,\u90a2\u53f0,\u5185\u4e18,\u4e94\u90ed\u5e97,\u5c71\u51f9","pinyin":"ShanAo","lng":"114.391010","lat":"36.941720"},{"id":35040,"parent_id":35004,"level":4,"area_code":"130523200236","zip_code":"54299","city_code":"0319","name":"\u5357\u5cad\u6751\u59d4\u4f1a","short_name":"\u5357\u5cad","merger_name":"\u6cb3\u5317,\u90a2\u53f0,\u5185\u4e18,\u4e94\u90ed\u5e97,\u5357\u5cad","pinyin":"NanLing","lng":"114.523130","lat":"37.340240"},{"id":35041,"parent_id":35004,"level":4,"area_code":"130523200237","zip_code":"54299","city_code":"0319","name":"\u5357\u5927\u51af\u6751\u59d4\u4f1a","short_name":"\u5357\u5927\u51af","merger_name":"\u6cb3\u5317,\u90a2\u53f0,\u5185\u4e18,\u4e94\u90ed\u5e97,\u5357\u5927\u51af","pinyin":"NanDaFeng","lng":"114.479360","lat":"37.314320"},{"id":35042,"parent_id":34809,"level":3,"area_code":"130523203000","zip_code":"54299","city_code":"0319","name":"\u5357\u8d5b\u4e61","short_name":"\u5357\u8d5b","merger_name":"\u6cb3\u5317,\u90a2\u53f0,\u5185\u4e18,\u5357\u8d5b","pinyin":"NanSai","lng":"114.300600","lat":"37.324020"},{"id":35043,"parent_id":35042,"level":4,"area_code":"130523203201","zip_code":"54299","city_code":"0319","name":"\u5b59\u5bb6\u5761\u6751\u59d4\u4f1a","short_name":"\u5b59\u5bb6\u5761","merger_name":"\u6cb3\u5317,\u90a2\u53f0,\u5185\u4e18,\u5357\u8d5b,\u5b59\u5bb6\u5761","pinyin":"SunJiaPo","lng":"114.301300","lat":"37.318410"},{"id":35044,"parent_id":35042,"level":4,"area_code":"130523203202","zip_code":"54202","city_code":"0319","name":"\u77f3\u68af\u6751\u59d4\u4f1a","short_name":"\u77f3\u68af","merger_name":"\u6cb3\u5317,\u90a2\u53f0,\u5185\u4e18,\u5357\u8d5b,\u77f3\u68af","pinyin":"ShiTi","lng":"114.300600","lat":"37.324020"},{"id":35045,"parent_id":35042,"level":4,"area_code":"130523203203","zip_code":"54202","city_code":"0319","name":"\u5317\u8d5b\u6751\u59d4\u4f1a","short_name":"\u5317\u8d5b","merger_name":"\u6cb3\u5317,\u90a2\u53f0,\u5185\u4e18,\u5357\u8d5b,\u5317\u8d5b","pinyin":"BeiSai","lng":"114.306630","lat":"37.375280"},{"id":35046,"parent_id":35042,"level":4,"area_code":"130523203204","zip_code":"54202","city_code":"0319","name":"\u5f20\u5bb6\u8d5b\u6751\u59d4\u4f1a","short_name":"\u5f20\u5bb6\u8d5b","merger_name":"\u6cb3\u5317,\u90a2\u53f0,\u5185\u4e18,\u5357\u8d5b,\u5f20\u5bb6\u8d5b","pinyin":"ZhangJiaSai","lng":"114.300990","lat":"37.356060"},{"id":35047,"parent_id":35042,"level":4,"area_code":"130523203205","zip_code":"54202","city_code":"0319","name":"\u90dd\u5bb6\u8d5b\u6751\u59d4\u4f1a","short_name":"\u90dd\u5bb6\u8d5b","merger_name":"\u6cb3\u5317,\u90a2\u53f0,\u5185\u4e18,\u5357\u8d5b,\u90dd\u5bb6\u8d5b","pinyin":"HaoJiaSai","lng":"114.336290","lat":"37.359350"},{"id":35048,"parent_id":35042,"level":4,"area_code":"130523203206","zip_code":"54202","city_code":"0319","name":"\u9a6c\u5bb6\u8d5b\u6751\u59d4\u4f1a","short_name":"\u9a6c\u5bb6\u8d5b","merger_name":"\u6cb3\u5317,\u90a2\u53f0,\u5185\u4e18,\u5357\u8d5b,\u9a6c\u5bb6\u8d5b","pinyin":"MaJiaSai","lng":"114.312270","lat":"37.356420"},{"id":35049,"parent_id":35042,"level":4,"area_code":"130523203207","zip_code":"54202","city_code":"0319","name":"\u96c6\u4e0a\u8d5b\u6751\u59d4\u4f1a","short_name":"\u96c6\u4e0a\u8d5b","merger_name":"\u6cb3\u5317,\u90a2\u53f0,\u5185\u4e18,\u5357\u8d5b,\u96c6\u4e0a\u8d5b","pinyin":"JiShangSai","lng":"114.921260","lat":"37.647820"},{"id":35050,"parent_id":35042,"level":4,"area_code":"130523203208","zip_code":"54202","city_code":"0319","name":"\u5cad\u5e95\u8d5b\u6751\u59d4\u4f1a","short_name":"\u5cad\u5e95\u8d5b","merger_name":"\u6cb3\u5317,\u90a2\u53f0,\u5185\u4e18,\u5357\u8d5b,\u5cad\u5e95\u8d5b","pinyin":"LingDiSai","lng":"114.921260","lat":"37.647820"},{"id":35051,"parent_id":35042,"level":4,"area_code":"130523203209","zip_code":"54202","city_code":"0319","name":"\u5bfa\u6c9f\u6751\u59d4\u4f1a","short_name":"\u5bfa\u6c9f","merger_name":"\u6cb3\u5317,\u90a2\u53f0,\u5185\u4e18,\u5357\u8d5b,\u5bfa\u6c9f","pinyin":"SiGou","lng":"114.300600","lat":"37.324020"},{"id":35052,"parent_id":35042,"level":4,"area_code":"130523203210","zip_code":"54202","city_code":"0319","name":"\u82b1\u6c9f\u6751\u59d4\u4f1a","short_name":"\u82b1\u6c9f","merger_name":"\u6cb3\u5317,\u90a2\u53f0,\u5185\u4e18,\u5357\u8d5b,\u82b1\u6c9f","pinyin":"HuaGou","lng":"114.350140","lat":"37.340950"},{"id":35053,"parent_id":35042,"level":4,"area_code":"130523203211","zip_code":"54299","city_code":"0319","name":"\u83e9\u8428\u5cad\u6751\u59d4\u4f1a","short_name":"\u83e9\u8428\u5cad","merger_name":"\u6cb3\u5317,\u90a2\u53f0,\u5185\u4e18,\u5357\u8d5b,\u83e9\u8428\u5cad","pinyin":"PuSaLing","lng":"114.921260","lat":"37.647820"},{"id":35054,"parent_id":35042,"level":4,"area_code":"130523203212","zip_code":"54202","city_code":"0319","name":"\u62a5\u5b50\u53e3\u6751\u59d4\u4f1a","short_name":"\u62a5\u5b50\u53e3","merger_name":"\u6cb3\u5317,\u90a2\u53f0,\u5185\u4e18,\u5357\u8d5b,\u62a5\u5b50\u53e3","pinyin":"BaoZiKou","lng":"114.921260","lat":"37.647820"},{"id":35055,"parent_id":35042,"level":4,"area_code":"130523203213","zip_code":"54299","city_code":"0319","name":"\u77f3\u95e8\u6751\u59d4\u4f1a","short_name":"\u77f3\u95e8","merger_name":"\u6cb3\u5317,\u90a2\u53f0,\u5185\u4e18,\u5357\u8d5b,\u77f3\u95e8","pinyin":"ShiMen","lng":"114.300600","lat":"37.324020"},{"id":35056,"parent_id":35042,"level":4,"area_code":"130523203214","zip_code":"54299","city_code":"0319","name":"\u5357\u8d5b\u6751\u59d4\u4f1a","short_name":"\u5357\u8d5b","merger_name":"\u6cb3\u5317,\u90a2\u53f0,\u5185\u4e18,\u5357\u8d5b,\u5357\u8d5b","pinyin":"NanSai","lng":"114.300600","lat":"37.324020"},{"id":35057,"parent_id":35042,"level":4,"area_code":"130523203215","zip_code":"54202","city_code":"0319","name":"\u90ed\u5bb6\u6c9f\u6751\u59d4\u4f1a","short_name":"\u90ed\u5bb6\u6c9f","merger_name":"\u6cb3\u5317,\u90a2\u53f0,\u5185\u4e18,\u5357\u8d5b,\u90ed\u5bb6\u6c9f","pinyin":"GuoJiaGou","lng":"114.460210","lat":"37.328110"},{"id":35058,"parent_id":35042,"level":4,"area_code":"130523203216","zip_code":"54299","city_code":"0319","name":"\u795e\u5934\u6751\u59d4\u4f1a","short_name":"\u795e\u5934","merger_name":"\u6cb3\u5317,\u90a2\u53f0,\u5185\u4e18,\u5357\u8d5b,\u795e\u5934","pinyin":"ShenTou","lng":"114.392970","lat":"37.295910"},{"id":35059,"parent_id":35042,"level":4,"area_code":"130523203217","zip_code":"54202","city_code":"0319","name":"\u90a2\u5bb6\u5cea\u6751\u59d4\u4f1a","short_name":"\u90a2\u5bb6\u5cea","merger_name":"\u6cb3\u5317,\u90a2\u53f0,\u5185\u4e18,\u5357\u8d5b,\u90a2\u5bb6\u5cea","pinyin":"XingJiaYu","lng":"114.460210","lat":"37.328110"},{"id":35060,"parent_id":35042,"level":4,"area_code":"130523203218","zip_code":"54299","city_code":"0319","name":"\u77f3\u76c6\u6751\u59d4\u4f1a","short_name":"\u77f3\u76c6","merger_name":"\u6cb3\u5317,\u90a2\u53f0,\u5185\u4e18,\u5357\u8d5b,\u77f3\u76c6","pinyin":"ShiPen","lng":"114.921260","lat":"37.647820"},{"id":35061,"parent_id":35042,"level":4,"area_code":"130523203219","zip_code":"54202","city_code":"0319","name":"\u5929\u53f0\u6751\u59d4\u4f1a","short_name":"\u5929\u53f0","merger_name":"\u6cb3\u5317,\u90a2\u53f0,\u5185\u4e18,\u5357\u8d5b,\u5929\u53f0","pinyin":"TianTai","lng":"114.300600","lat":"37.324020"},{"id":35062,"parent_id":35042,"level":4,"area_code":"130523203220","zip_code":"54299","city_code":"0319","name":"\u5927\u548c\u5e84\u6751\u59d4\u4f1a","short_name":"\u5927\u548c\u5e84","merger_name":"\u6cb3\u5317,\u90a2\u53f0,\u5185\u4e18,\u5357\u8d5b,\u5927\u548c\u5e84","pinyin":"DaHeZhuang","lng":"114.284830","lat":"37.285580"},{"id":35063,"parent_id":35042,"level":4,"area_code":"130523203221","zip_code":"54202","city_code":"0319","name":"\u897f\u8425\u6751\u59d4\u4f1a","short_name":"\u897f\u8425","merger_name":"\u6cb3\u5317,\u90a2\u53f0,\u5185\u4e18,\u5357\u8d5b,\u897f\u8425","pinyin":"XiYing","lng":"114.300600","lat":"37.324020"},{"id":35064,"parent_id":35042,"level":4,"area_code":"130523203222","zip_code":"54202","city_code":"0319","name":"\u4e1c\u8425\u6751\u59d4\u4f1a","short_name":"\u4e1c\u8425","merger_name":"\u6cb3\u5317,\u90a2\u53f0,\u5185\u4e18,\u5357\u8d5b,\u4e1c\u8425","pinyin":"DongYing","lng":"114.299250","lat":"37.299590"},{"id":35065,"parent_id":35042,"level":4,"area_code":"130523203223","zip_code":"54299","city_code":"0319","name":"\u540e\u6cb3\u5e84\u6751\u59d4\u4f1a","short_name":"\u540e\u6cb3\u5e84","merger_name":"\u6cb3\u5317,\u90a2\u53f0,\u5185\u4e18,\u5357\u8d5b,\u540e\u6cb3\u5e84","pinyin":"HouHeZhuang","lng":"114.300600","lat":"37.324020"},{"id":35066,"parent_id":35042,"level":4,"area_code":"130523203224","zip_code":"54202","city_code":"0319","name":"\u77f3\u6d41\u6cb3\u6751\u59d4\u4f1a","short_name":"\u77f3\u6d41\u6cb3","merger_name":"\u6cb3\u5317,\u90a2\u53f0,\u5185\u4e18,\u5357\u8d5b,\u77f3\u6d41\u6cb3","pinyin":"ShiLiuHe","lng":"114.311780","lat":"37.299350"},{"id":35067,"parent_id":35042,"level":4,"area_code":"130523203225","zip_code":"54202","city_code":"0319","name":"\u5b81\u5bb6\u5e84\u6751\u59d4\u4f1a","short_name":"\u5b81\u5bb6\u5e84","merger_name":"\u6cb3\u5317,\u90a2\u53f0,\u5185\u4e18,\u5357\u8d5b,\u5b81\u5bb6\u5e84","pinyin":"NingJiaZhuang","lng":"114.271280","lat":"37.267860"},{"id":35068,"parent_id":35042,"level":4,"area_code":"130523203226","zip_code":"54202","city_code":"0319","name":"\u5c0f\u548c\u5e84\u6751\u59d4\u4f1a","short_name":"\u5c0f\u548c\u5e84","merger_name":"\u6cb3\u5317,\u90a2\u53f0,\u5185\u4e18,\u5357\u8d5b,\u5c0f\u548c\u5e84","pinyin":"XiaoHeZhuang","lng":"114.300600","lat":"37.324020"},{"id":35069,"parent_id":35042,"level":4,"area_code":"130523203227","zip_code":"54202","city_code":"0319","name":"\u8272\u6c9f\u6751\u59d4\u4f1a","short_name":"\u8272\u6c9f","merger_name":"\u6cb3\u5317,\u90a2\u53f0,\u5185\u4e18,\u5357\u8d5b,\u8272\u6c9f","pinyin":"SeGou","lng":"114.296930","lat":"37.277580"},{"id":35070,"parent_id":35042,"level":4,"area_code":"130523203228","zip_code":"54202","city_code":"0319","name":"\u5f20\u516c\u5854\u6751\u59d4\u4f1a","short_name":"\u5f20\u516c\u5854","merger_name":"\u6cb3\u5317,\u90a2\u53f0,\u5185\u4e18,\u5357\u8d5b,\u5f20\u516c\u5854","pinyin":"ZhangGongTa","lng":"114.316880","lat":"37.280400"},{"id":35071,"parent_id":35042,"level":4,"area_code":"130523203229","zip_code":"54202","city_code":"0319","name":"\u8521\u5e84\u6751\u59d4\u4f1a","short_name":"\u8521\u5e84","merger_name":"\u6cb3\u5317,\u90a2\u53f0,\u5185\u4e18,\u5357\u8d5b,\u8521\u5e84","pinyin":"CaiZhuang","lng":"114.398400","lat":"37.355430"},{"id":35072,"parent_id":35042,"level":4,"area_code":"130523203230","zip_code":"54202","city_code":"0319","name":"\u4efb\u5e84\u6751\u59d4\u4f1a","short_name":"\u4efb\u5e84","merger_name":"\u6cb3\u5317,\u90a2\u53f0,\u5185\u4e18,\u5357\u8d5b,\u4efb\u5e84","pinyin":"RenZhuang","lng":"114.392970","lat":"37.295910"},{"id":35073,"parent_id":35042,"level":4,"area_code":"130523203231","zip_code":"54202","city_code":"0319","name":"\u5218\u5bb6\u6c9f\u6751\u59d4\u4f1a","short_name":"\u5218\u5bb6\u6c9f","merger_name":"\u6cb3\u5317,\u90a2\u53f0,\u5185\u4e18,\u5357\u8d5b,\u5218\u5bb6\u6c9f","pinyin":"LiuJiaGou","lng":"114.515350","lat":"37.294980"},{"id":35074,"parent_id":34809,"level":3,"area_code":"130523204000","zip_code":"54200","city_code":"0319","name":"\u7350\u734f\u4e61","short_name":"\u7350\u734f","merger_name":"\u6cb3\u5317,\u90a2\u53f0,\u5185\u4e18,\u7350\u734f","pinyin":"ZhangMo","lng":"114.218190","lat":"37.354820"},{"id":35075,"parent_id":35074,"level":4,"area_code":"130523204201","zip_code":"54203","city_code":"0319","name":"\u7350\u4e48\u6751\u59d4\u4f1a","short_name":"\u7350\u4e48","merger_name":"\u6cb3\u5317,\u90a2\u53f0,\u5185\u4e18,\u7350\u734f,\u7350\u4e48","pinyin":"ZhangMe","lng":"114.217139","lat":"37.354550"},{"id":35076,"parent_id":35074,"level":4,"area_code":"130523204202","zip_code":"54203","city_code":"0319","name":"\u77f3\u5173\u6751\u59d4\u4f1a","short_name":"\u77f3\u5173","merger_name":"\u6cb3\u5317,\u90a2\u53f0,\u5185\u4e18,\u7350\u734f,\u77f3\u5173","pinyin":"ShiGuan","lng":"114.218190","lat":"37.354820"},{"id":35077,"parent_id":35074,"level":4,"area_code":"130523204203","zip_code":"54203","city_code":"0319","name":"\u674e\u767d\u82b7\u6751\u59d4\u4f1a","short_name":"\u674e\u767d\u82b7","merger_name":"\u6cb3\u5317,\u90a2\u53f0,\u5185\u4e18,\u7350\u734f,\u674e\u767d\u82b7","pinyin":"LiBaiZhi","lng":"114.921260","lat":"37.647820"},{"id":35078,"parent_id":35074,"level":4,"area_code":"130523204204","zip_code":"54200","city_code":"0319","name":"\u960e\u767d\u82b7\u6751\u59d4\u4f1a","short_name":"\u960e\u767d\u82b7","merger_name":"\u6cb3\u5317,\u90a2\u53f0,\u5185\u4e18,\u7350\u734f,\u960e\u767d\u82b7","pinyin":"YanBaiZhi","lng":"114.921260","lat":"37.647820"},{"id":35079,"parent_id":35074,"level":4,"area_code":"130523204205","zip_code":"54203","city_code":"0319","name":"\u5d14\u767d\u82b7\u6751\u59d4\u4f1a","short_name":"\u5d14\u767d\u82b7","merger_name":"\u6cb3\u5317,\u90a2\u53f0,\u5185\u4e18,\u7350\u734f,\u5d14\u767d\u82b7","pinyin":"CuiBaiZhi","lng":"114.921260","lat":"37.647820"},{"id":35080,"parent_id":35074,"level":4,"area_code":"130523204206","zip_code":"54203","city_code":"0319","name":"\u6d1e\u4e0a\u6751\u59d4\u4f1a","short_name":"\u6d1e\u4e0a","merger_name":"\u6cb3\u5317,\u90a2\u53f0,\u5185\u4e18,\u7350\u734f,\u6d1e\u4e0a","pinyin":"DongShang","lng":"114.206770","lat":"37.447460"},{"id":35081,"parent_id":35074,"level":4,"area_code":"130523204207","zip_code":"54203","city_code":"0319","name":"\u7530\u767d\u82b7\u6751\u59d4\u4f1a","short_name":"\u7530\u767d\u82b7","merger_name":"\u6cb3\u5317,\u90a2\u53f0,\u5185\u4e18,\u7350\u734f,\u7530\u767d\u82b7","pinyin":"TianBaiZhi","lng":"114.921260","lat":"37.647820"},{"id":35082,"parent_id":35074,"level":4,"area_code":"130523204208","zip_code":"54203","city_code":"0319","name":"\u5357\u767d\u82b7\u6751\u59d4\u4f1a","short_name":"\u5357\u767d\u82b7","merger_name":"\u6cb3\u5317,\u90a2\u53f0,\u5185\u4e18,\u7350\u734f,\u5357\u767d\u82b7","pinyin":"NanBaiZhi","lng":"115.389964","lat":"37.295008"},{"id":35083,"parent_id":35074,"level":4,"area_code":"130523204209","zip_code":"54203","city_code":"0319","name":"\u7c73\u5bb6\u6c9f\u6751\u59d4\u4f1a","short_name":"\u7c73\u5bb6\u6c9f","merger_name":"\u6cb3\u5317,\u90a2\u53f0,\u5185\u4e18,\u7350\u734f,\u7c73\u5bb6\u6c9f","pinyin":"MiJiaGou","lng":"114.921260","lat":"37.647820"},{"id":35084,"parent_id":35074,"level":4,"area_code":"130523204210","zip_code":"54203","city_code":"0319","name":"\u5be8\u95e8\u6c9f\u6751\u59d4\u4f1a","short_name":"\u5be8\u95e8\u6c9f","merger_name":"\u6cb3\u5317,\u90a2\u53f0,\u5185\u4e18,\u7350\u734f,\u5be8\u95e8\u6c9f","pinyin":"ZhaiMenGou","lng":"114.921260","lat":"37.647820"},{"id":35085,"parent_id":35074,"level":4,"area_code":"130523204211","zip_code":"54203","city_code":"0319","name":"\u540e\u5e84\u6751\u59d4\u4f1a","short_name":"\u540e\u5e84","merger_name":"\u6cb3\u5317,\u90a2\u53f0,\u5185\u4e18,\u7350\u734f,\u540e\u5e84","pinyin":"HouZhuang","lng":"114.097040","lat":"37.325202"},{"id":35086,"parent_id":35074,"level":4,"area_code":"130523204212","zip_code":"54203","city_code":"0319","name":"\u540e\u6d1e\u6751\u59d4\u4f1a","short_name":"\u540e\u6d1e","merger_name":"\u6cb3\u5317,\u90a2\u53f0,\u5185\u4e18,\u7350\u734f,\u540e\u6d1e","pinyin":"HouDong","lng":"114.921260","lat":"37.647820"},{"id":35087,"parent_id":35074,"level":4,"area_code":"130523204213","zip_code":"54203","city_code":"0319","name":"\u8349\u5cea\u6751\u59d4\u4f1a","short_name":"\u8349\u5cea","merger_name":"\u6cb3\u5317,\u90a2\u53f0,\u5185\u4e18,\u7350\u734f,\u8349\u5cea","pinyin":"CaoYu","lng":"114.049090","lat":"37.205180"},{"id":35088,"parent_id":35074,"level":4,"area_code":"130523204214","zip_code":"54203","city_code":"0319","name":"\u5357\u7350\u4e48\u6751\u59d4\u4f1a","short_name":"\u5357\u7350\u4e48","merger_name":"\u6cb3\u5317,\u90a2\u53f0,\u5185\u4e18,\u7350\u734f,\u5357\u7350\u4e48","pinyin":"NanZhangMe","lng":"114.214117","lat":"37.351457"},{"id":35089,"parent_id":35074,"level":4,"area_code":"130523204215","zip_code":"54203","city_code":"0319","name":"\u4e2d\u6817\u5cea\u6751\u59d4\u4f1a","short_name":"\u4e2d\u6817\u5cea","merger_name":"\u6cb3\u5317,\u90a2\u53f0,\u5185\u4e18,\u7350\u734f,\u4e2d\u6817\u5cea","pinyin":"ZhongLiYu","lng":"114.199740","lat":"37.343090"},{"id":35090,"parent_id":35074,"level":4,"area_code":"130523204216","zip_code":"54203","city_code":"0319","name":"\u4e0a\u6817\u5cea\u6751\u59d4\u4f1a","short_name":"\u4e0a\u6817\u5cea","merger_name":"\u6cb3\u5317,\u90a2\u53f0,\u5185\u4e18,\u7350\u734f,\u4e0a\u6817\u5cea","pinyin":"ShangLiYu","lng":"114.194150","lat":"37.345410"},{"id":35091,"parent_id":35074,"level":4,"area_code":"130523204217","zip_code":"54203","city_code":"0319","name":"\u5ca9\u5357\u6751\u59d4\u4f1a","short_name":"\u5ca9\u5357","merger_name":"\u6cb3\u5317,\u90a2\u53f0,\u5185\u4e18,\u7350\u734f,\u5ca9\u5357","pinyin":"YanNan","lng":"114.082420","lat":"37.140610"},{"id":35092,"parent_id":35074,"level":4,"area_code":"130523204218","zip_code":"54203","city_code":"0319","name":"\u4e1c\u79cb\u6751\u59d4\u4f1a","short_name":"\u4e1c\u79cb","merger_name":"\u6cb3\u5317,\u90a2\u53f0,\u5185\u4e18,\u7350\u734f,\u4e1c\u79cb","pinyin":"DongQiu","lng":"114.921260","lat":"37.647820"},{"id":35093,"parent_id":35074,"level":4,"area_code":"130523204219","zip_code":"54203","city_code":"0319","name":"\u897f\u79cb\u6751\u59d4\u4f1a","short_name":"\u897f\u79cb","merger_name":"\u6cb3\u5317,\u90a2\u53f0,\u5185\u4e18,\u7350\u734f,\u897f\u79cb","pinyin":"XiQiu","lng":"114.193840","lat":"37.336450"},{"id":35094,"parent_id":35074,"level":4,"area_code":"130523204220","zip_code":"54203","city_code":"0319","name":"\u9ec4\u5c94\u6751\u59d4\u4f1a","short_name":"\u9ec4\u5c94","merger_name":"\u6cb3\u5317,\u90a2\u53f0,\u5185\u4e18,\u7350\u734f,\u9ec4\u5c94","pinyin":"HuangCha","lng":"114.921260","lat":"37.647820"},{"id":35095,"parent_id":35074,"level":4,"area_code":"130523204221","zip_code":"54203","city_code":"0319","name":"\u5218\u767d\u82b7\u6751\u59d4\u4f1a","short_name":"\u5218\u767d\u82b7","merger_name":"\u6cb3\u5317,\u90a2\u53f0,\u5185\u4e18,\u7350\u734f,\u5218\u767d\u82b7","pinyin":"LiuBaiZhi","lng":"114.921260","lat":"37.647820"},{"id":35096,"parent_id":34809,"level":3,"area_code":"130523205000","zip_code":"54299","city_code":"0319","name":"\u4faf\u5bb6\u5e84\u4e61","short_name":"\u4faf\u5bb6\u5e84","merger_name":"\u6cb3\u5317,\u90a2\u53f0,\u5185\u4e18,\u4faf\u5bb6\u5e84","pinyin":"HouJiaZhuang","lng":"114.100065","lat":"37.325410"},{"id":35097,"parent_id":35096,"level":4,"area_code":"130523205201","zip_code":"54299","city_code":"0319","name":"\u4faf\u5bb6\u5e84\u6751\u59d4\u4f1a","short_name":"\u4faf\u5bb6\u5e84","merger_name":"\u6cb3\u5317,\u90a2\u53f0,\u5185\u4e18,\u4faf\u5bb6\u5e84,\u4faf\u5bb6\u5e84","pinyin":"HouJiaZhuang","lng":"114.097040","lat":"37.325210"},{"id":35098,"parent_id":35096,"level":4,"area_code":"130523205202","zip_code":"54204","city_code":"0319","name":"\u767d\u8349\u576a\u6751\u59d4\u4f1a","short_name":"\u767d\u8349\u576a","merger_name":"\u6cb3\u5317,\u90a2\u53f0,\u5185\u4e18,\u4faf\u5bb6\u5e84,\u767d\u8349\u576a","pinyin":"BaiCaoPing","lng":"114.150920","lat":"37.384720"},{"id":35099,"parent_id":35096,"level":4,"area_code":"130523205203","zip_code":"54204","city_code":"0319","name":"\u4e91\u5927\u6c9f\u6751\u59d4\u4f1a","short_name":"\u4e91\u5927\u6c9f","merger_name":"\u6cb3\u5317,\u90a2\u53f0,\u5185\u4e18,\u4faf\u5bb6\u5e84,\u4e91\u5927\u6c9f","pinyin":"YunDaGou","lng":"114.095330","lat":"37.320820"},{"id":35100,"parent_id":35096,"level":4,"area_code":"130523205204","zip_code":"54204","city_code":"0319","name":"\u5c0f\u4e91\u5927\u6751\u59d4\u4f1a","short_name":"\u5c0f\u4e91\u5927","merger_name":"\u6cb3\u5317,\u90a2\u53f0,\u5185\u4e18,\u4faf\u5bb6\u5e84,\u5c0f\u4e91\u5927","pinyin":"XiaoYunDa","lng":"114.129030","lat":"37.371670"},{"id":35101,"parent_id":35096,"level":4,"area_code":"130523205205","zip_code":"54204","city_code":"0319","name":"\u5cad\u5934\u6751\u59d4\u4f1a","short_name":"\u5cad\u5934","merger_name":"\u6cb3\u5317,\u90a2\u53f0,\u5185\u4e18,\u4faf\u5bb6\u5e84,\u5cad\u5934","pinyin":"LingTou","lng":"114.097040","lat":"37.325202"},{"id":35102,"parent_id":35096,"level":4,"area_code":"130523205206","zip_code":"54204","city_code":"0319","name":"\u4e91\u5927\u6751\u59d4\u4f1a","short_name":"\u4e91\u5927","merger_name":"\u6cb3\u5317,\u90a2\u53f0,\u5185\u4e18,\u4faf\u5bb6\u5e84,\u4e91\u5927","pinyin":"YunDa","lng":"114.129030","lat":"37.371670"},{"id":35103,"parent_id":35096,"level":4,"area_code":"130523205207","zip_code":"54204","city_code":"0319","name":"\u6469\u5929\u5cad\u6751\u59d4\u4f1a","short_name":"\u6469\u5929\u5cad","merger_name":"\u6cb3\u5317,\u90a2\u53f0,\u5185\u4e18,\u4faf\u5bb6\u5e84,\u6469\u5929\u5cad","pinyin":"MoTianLing","lng":"114.097040","lat":"37.325210"},{"id":35104,"parent_id":35096,"level":4,"area_code":"130523205208","zip_code":"54204","city_code":"0319","name":"\u754c\u5b50\u53e3\u6751\u59d4\u4f1a","short_name":"\u754c\u5b50\u53e3","merger_name":"\u6cb3\u5317,\u90a2\u53f0,\u5185\u4e18,\u4faf\u5bb6\u5e84,\u754c\u5b50\u53e3","pinyin":"JieZiKou","lng":"114.097040","lat":"37.325210"},{"id":35105,"parent_id":35096,"level":4,"area_code":"130523205209","zip_code":"54204","city_code":"0319","name":"\u5c0f\u897f\u6751\u59d4\u4f1a","short_name":"\u5c0f\u897f","merger_name":"\u6cb3\u5317,\u90a2\u53f0,\u5185\u4e18,\u4faf\u5bb6\u5e84,\u5c0f\u897f","pinyin":"XiaoXi","lng":"114.097040","lat":"37.325210"},{"id":35106,"parent_id":35096,"level":4,"area_code":"130523205210","zip_code":"54299","city_code":"0319","name":"\u4e54\u5bb6\u5e84\u6751\u59d4\u4f1a","short_name":"\u4e54\u5bb6\u5e84","merger_name":"\u6cb3\u5317,\u90a2\u53f0,\u5185\u4e18,\u4faf\u5bb6\u5e84,\u4e54\u5bb6\u5e84","pinyin":"QiaoJiaZhuang","lng":"114.460210","lat":"37.328110"},{"id":35107,"parent_id":35096,"level":4,"area_code":"130523205211","zip_code":"54204","city_code":"0319","name":"\u7f8a\u5cea\u6751\u59d4\u4f1a","short_name":"\u7f8a\u5cea","merger_name":"\u6cb3\u5317,\u90a2\u53f0,\u5185\u4e18,\u4faf\u5bb6\u5e84,\u7f8a\u5cea","pinyin":"YangYu","lng":"114.097040","lat":"37.325202"},{"id":35108,"parent_id":35096,"level":4,"area_code":"130523205212","zip_code":"54299","city_code":"0319","name":"\u5bcc\u5c97\u5c71\u5e84\u6751\u59d4\u4f1a","short_name":"\u5bcc\u5c97\u5c71\u5e84","merger_name":"\u6cb3\u5317,\u90a2\u53f0,\u5185\u4e18,\u4faf\u5bb6\u5e84,\u5bcc\u5c97\u5c71\u5e84","pinyin":"FuGangShanZhuang","lng":"114.097040","lat":"37.325210"},{"id":35109,"parent_id":35096,"level":4,"area_code":"130523205213","zip_code":"54204","city_code":"0319","name":"\u767d\u5854\u6751\u59d4\u4f1a","short_name":"\u767d\u5854","merger_name":"\u6cb3\u5317,\u90a2\u53f0,\u5185\u4e18,\u4faf\u5bb6\u5e84,\u767d\u5854","pinyin":"BaiTa","lng":"114.106474","lat":"37.333424"},{"id":35110,"parent_id":35096,"level":4,"area_code":"130523205214","zip_code":"54204","city_code":"0319","name":"\u9178\u67a3\u576a\u6751\u59d4\u4f1a","short_name":"\u9178\u67a3\u576a","merger_name":"\u6cb3\u5317,\u90a2\u53f0,\u5185\u4e18,\u4faf\u5bb6\u5e84,\u9178\u67a3\u576a","pinyin":"SuanZaoPing","lng":"115.389964","lat":"37.295008"},{"id":35111,"parent_id":35096,"level":4,"area_code":"130523205215","zip_code":"54204","city_code":"0319","name":"\u674f\u5cea\u6751\u59d4\u4f1a","short_name":"\u674f\u5cea","merger_name":"\u6cb3\u5317,\u90a2\u53f0,\u5185\u4e18,\u4faf\u5bb6\u5e84,\u674f\u5cea","pinyin":"XingYu","lng":"114.041360","lat":"37.422120"},{"id":35112,"parent_id":35096,"level":4,"area_code":"130523205216","zip_code":"54299","city_code":"0319","name":"\u5f20\u5317\u6d3c\u6751\u59d4\u4f1a","short_name":"\u5f20\u5317\u6d3c","merger_name":"\u6cb3\u5317,\u90a2\u53f0,\u5185\u4e18,\u4faf\u5bb6\u5e84,\u5f20\u5317\u6d3c","pinyin":"ZhangBeiWa","lng":"114.921260","lat":"37.647820"},{"id":35113,"parent_id":35096,"level":4,"area_code":"130523205217","zip_code":"54204","city_code":"0319","name":"\u5c0f\u5cad\u5e95\u6751\u59d4\u4f1a","short_name":"\u5c0f\u5cad\u5e95","merger_name":"\u6cb3\u5317,\u90a2\u53f0,\u5185\u4e18,\u4faf\u5bb6\u5e84,\u5c0f\u5cad\u5e95","pinyin":"XiaoLingDi","lng":"114.460210","lat":"37.328110"},{"id":35114,"parent_id":35096,"level":4,"area_code":"130523205218","zip_code":"54299","city_code":"0319","name":"\u576a\u5934\u94fa\u6751\u59d4\u4f1a","short_name":"\u576a\u5934\u94fa","merger_name":"\u6cb3\u5317,\u90a2\u53f0,\u5185\u4e18,\u4faf\u5bb6\u5e84,\u576a\u5934\u94fa","pinyin":"PingTouPu","lng":"114.921260","lat":"37.647820"},{"id":35115,"parent_id":35096,"level":4,"area_code":"130523205219","zip_code":"54204","city_code":"0319","name":"\u77f3\u5761\u5634\u6751\u59d4\u4f1a","short_name":"\u77f3\u5761\u5634","merger_name":"\u6cb3\u5317,\u90a2\u53f0,\u5185\u4e18,\u4faf\u5bb6\u5e84,\u77f3\u5761\u5634","pinyin":"ShiPoZui","lng":"114.097040","lat":"37.325210"},{"id":35116,"parent_id":35096,"level":4,"area_code":"130523205220","zip_code":"54204","city_code":"0319","name":"\u5510\u5bb6\u6751\u6751\u59d4\u4f1a","short_name":"\u5510\u5bb6\u6751","merger_name":"\u6cb3\u5317,\u90a2\u53f0,\u5185\u4e18,\u4faf\u5bb6\u5e84,\u5510\u5bb6\u6751","pinyin":"TangJiaCun","lng":"114.097040","lat":"37.325202"},{"id":35117,"parent_id":35096,"level":4,"area_code":"130523205221","zip_code":"54204","city_code":"0319","name":"\u6843\u56ed\u6751\u59d4\u4f1a","short_name":"\u6843\u56ed","merger_name":"\u6cb3\u5317,\u90a2\u53f0,\u5185\u4e18,\u4faf\u5bb6\u5e84,\u6843\u56ed","pinyin":"TaoYuan","lng":"114.095354","lat":"37.320724"},{"id":35118,"parent_id":35096,"level":4,"area_code":"130523205222","zip_code":"54202","city_code":"0319","name":"\u4e03\u91cc\u4f1a\u6751\u59d4\u4f1a","short_name":"\u4e03\u91cc\u4f1a","merger_name":"\u6cb3\u5317,\u90a2\u53f0,\u5185\u4e18,\u4faf\u5bb6\u5e84,\u4e03\u91cc\u4f1a","pinyin":"QiLiHui","lng":"114.097040","lat":"37.325210"},{"id":35119,"parent_id":35096,"level":4,"area_code":"130523205223","zip_code":"54204","city_code":"0319","name":"\u884c\u5bb6\u5cea\u6751\u59d4\u4f1a","short_name":"\u884c\u5bb6\u5cea","merger_name":"\u6cb3\u5317,\u90a2\u53f0,\u5185\u4e18,\u4faf\u5bb6\u5e84,\u884c\u5bb6\u5cea","pinyin":"HangJiaYu","lng":"114.035630","lat":"37.397750"},{"id":35120,"parent_id":35096,"level":4,"area_code":"130523205224","zip_code":"54204","city_code":"0319","name":"\u69f2\u6811\u6ee9\u6751\u59d4\u4f1a","short_name":"\u69f2\u6811\u6ee9","merger_name":"\u6cb3\u5317,\u90a2\u53f0,\u5185\u4e18,\u4faf\u5bb6\u5e84,\u69f2\u6811\u6ee9","pinyin":"HuShuTan","lng":"114.921260","lat":"37.647820"},{"id":35121,"parent_id":35096,"level":4,"area_code":"130523205225","zip_code":"54299","city_code":"0319","name":"\u6f58\u5bb6\u5e84\u6751\u59d4\u4f1a","short_name":"\u6f58\u5bb6\u5e84","merger_name":"\u6cb3\u5317,\u90a2\u53f0,\u5185\u4e18,\u4faf\u5bb6\u5e84,\u6f58\u5bb6\u5e84","pinyin":"PanJiaZhuang","lng":"114.097040","lat":"37.325210"},{"id":35122,"parent_id":35096,"level":4,"area_code":"130523205226","zip_code":"54204","city_code":"0319","name":"\u5929\u4e95\u6751\u59d4\u4f1a","short_name":"\u5929\u4e95","merger_name":"\u6cb3\u5317,\u90a2\u53f0,\u5185\u4e18,\u4faf\u5bb6\u5e84,\u5929\u4e95","pinyin":"TianJing","lng":"114.391010","lat":"36.941720"},{"id":35123,"parent_id":35096,"level":4,"area_code":"130523205227","zip_code":"54299","city_code":"0319","name":"\u5927\u9e45\u77f3\u6751\u59d4\u4f1a","short_name":"\u5927\u9e45\u77f3","merger_name":"\u6cb3\u5317,\u90a2\u53f0,\u5185\u4e18,\u4faf\u5bb6\u5e84,\u5927\u9e45\u77f3","pinyin":"DaEShi","lng":"114.097040","lat":"37.325210"},{"id":35124,"parent_id":35096,"level":4,"area_code":"130523205228","zip_code":"54204","city_code":"0319","name":"\u62db\u4e5c\u6751\u59d4\u4f1a","short_name":"\u62db\u4e5c","merger_name":"\u6cb3\u5317,\u90a2\u53f0,\u5185\u4e18,\u4faf\u5bb6\u5e84,\u62db\u4e5c","pinyin":"ZhaoMie","lng":"114.921260","lat":"37.647820"},{"id":35125,"parent_id":35096,"level":4,"area_code":"130523205229","zip_code":"54204","city_code":"0319","name":"\u5e84\u548c\u6751\u59d4\u4f1a","short_name":"\u5e84\u548c","merger_name":"\u6cb3\u5317,\u90a2\u53f0,\u5185\u4e18,\u4faf\u5bb6\u5e84,\u5e84\u548c","pinyin":"ZhuangHe","lng":"114.921260","lat":"37.647820"},{"id":35126,"parent_id":35096,"level":4,"area_code":"130523205230","zip_code":"54204","city_code":"0319","name":"\u5b5f\u5bb6\u576a\u6751\u59d4\u4f1a","short_name":"\u5b5f\u5bb6\u576a","merger_name":"\u6cb3\u5317,\u90a2\u53f0,\u5185\u4e18,\u4faf\u5bb6\u5e84,\u5b5f\u5bb6\u576a","pinyin":"MengJiaPing","lng":"114.921260","lat":"37.647820"},{"id":35127,"parent_id":35096,"level":4,"area_code":"130523205231","zip_code":"54299","city_code":"0319","name":"\u897f\u53f0\u6751\u59d4\u4f1a","short_name":"\u897f\u53f0","merger_name":"\u6cb3\u5317,\u90a2\u53f0,\u5185\u4e18,\u4faf\u5bb6\u5e84,\u897f\u53f0","pinyin":"XiTai","lng":"122.685718","lat":"42.092239"},{"id":35128,"parent_id":35096,"level":4,"area_code":"130523205232","zip_code":"54204","city_code":"0319","name":"\u767d\u9e7f\u89d2\u6751\u59d4\u4f1a","short_name":"\u767d\u9e7f\u89d2","merger_name":"\u6cb3\u5317,\u90a2\u53f0,\u5185\u4e18,\u4faf\u5bb6\u5e84,\u767d\u9e7f\u89d2","pinyin":"BaiLuJiao","lng":"114.095330","lat":"37.320820"},{"id":35129,"parent_id":35096,"level":4,"area_code":"130523205233","zip_code":"54204","city_code":"0319","name":"\u9e7f\u5cea\u6751\u59d4\u4f1a","short_name":"\u9e7f\u5cea","merger_name":"\u6cb3\u5317,\u90a2\u53f0,\u5185\u4e18,\u4faf\u5bb6\u5e84,\u9e7f\u5cea","pinyin":"LuYu","lng":"114.069210","lat":"37.367270"},{"id":35130,"parent_id":35096,"level":4,"area_code":"130523205234","zip_code":"54204","city_code":"0319","name":"\u4e5d\u5b85\u4f1a\u6751\u59d4\u4f1a","short_name":"\u4e5d\u5b85\u4f1a","merger_name":"\u6cb3\u5317,\u90a2\u53f0,\u5185\u4e18,\u4faf\u5bb6\u5e84,\u4e5d\u5b85\u4f1a","pinyin":"JiuZhaiHui","lng":"114.097040","lat":"37.325210"},{"id":35131,"parent_id":35096,"level":4,"area_code":"130523205235","zip_code":"54204","city_code":"0319","name":"\u9a6c\u8fbe\u6751\u59d4\u4f1a","short_name":"\u9a6c\u8fbe","merger_name":"\u6cb3\u5317,\u90a2\u53f0,\u5185\u4e18,\u4faf\u5bb6\u5e84,\u9a6c\u8fbe","pinyin":"MaDa","lng":"114.085076","lat":"37.331367"},{"id":35132,"parent_id":33772,"level":2,"area_code":"130524000000","zip_code":"55450","city_code":"0319","name":"\u67cf\u4e61\u53bf","short_name":"\u67cf\u4e61","merger_name":"\u6cb3\u5317,\u90a2\u53f0,\u67cf\u4e61","pinyin":"BaiXiang","lng":"114.693426","lat":"37.482423"},{"id":35133,"parent_id":35132,"level":3,"area_code":"130524100000","zip_code":"55450","city_code":"0319","name":"\u67cf\u4e61\u9547","short_name":"\u67cf\u4e61","merger_name":"\u6cb3\u5317,\u90a2\u53f0,\u67cf\u4e61,\u67cf\u4e61","pinyin":"BaiXiang","lng":"114.696090","lat":"37.487740"},{"id":35134,"parent_id":35133,"level":4,"area_code":"130524100201","zip_code":"55450","city_code":"0319","name":"\u524d\u4e09\u91cc\u6751\u59d4\u4f1a","short_name":"\u524d\u4e09\u91cc","merger_name":"\u6cb3\u5317,\u90a2\u53f0,\u67cf\u4e61,\u67cf\u4e61,\u524d\u4e09\u91cc","pinyin":"QianSanLi","lng":"114.696160","lat":"37.506110"},{"id":35135,"parent_id":35133,"level":4,"area_code":"130524100202","zip_code":"55450","city_code":"0319","name":"\u540e\u4e09\u91cc\u6751\u59d4\u4f1a","short_name":"\u540e\u4e09\u91cc","merger_name":"\u6cb3\u5317,\u90a2\u53f0,\u67cf\u4e61,\u67cf\u4e61,\u540e\u4e09\u91cc","pinyin":"HouSanLi","lng":"114.696160","lat":"37.506110"},{"id":35136,"parent_id":35133,"level":4,"area_code":"130524100203","zip_code":"55450","city_code":"0319","name":"\u77f3\u5bb6\u5e84\u6751\u59d4\u4f1a","short_name":"\u77f3\u5bb6\u5e84","merger_name":"\u6cb3\u5317,\u90a2\u53f0,\u67cf\u4e61,\u67cf\u4e61,\u77f3\u5bb6\u5e84","pinyin":"ShiJiaZhuang","lng":"115.683490","lat":"36.968390"},{"id":35137,"parent_id":35133,"level":4,"area_code":"130524100204","zip_code":"55450","city_code":"0319","name":"\u8def\u8521\u5e84\u6751\u59d4\u4f1a","short_name":"\u8def\u8521\u5e84","merger_name":"\u6cb3\u5317,\u90a2\u53f0,\u67cf\u4e61,\u67cf\u4e61,\u8def\u8521\u5e84","pinyin":"LuCaiZhuang","lng":"114.683040","lat":"37.496350"},{"id":35138,"parent_id":35133,"level":4,"area_code":"130524100205","zip_code":"55450","city_code":"0319","name":"\u51cc\u5bb6\u6865\u6751\u59d4\u4f1a","short_name":"\u51cc\u5bb6\u6865","merger_name":"\u6cb3\u5317,\u90a2\u53f0,\u67cf\u4e61,\u67cf\u4e61,\u51cc\u5bb6\u6865","pinyin":"LingJiaQiao","lng":"114.683761","lat":"37.495809"},{"id":35139,"parent_id":35133,"level":4,"area_code":"130524100206","zip_code":"55450","city_code":"0319","name":"\u5317\u5173\u6751\u59d4\u4f1a","short_name":"\u5317\u5173","merger_name":"\u6cb3\u5317,\u90a2\u53f0,\u67cf\u4e61,\u67cf\u4e61,\u5317\u5173","pinyin":"BeiGuan","lng":"114.699130","lat":"37.001230"},{"id":35140,"parent_id":35133,"level":4,"area_code":"130524100207","zip_code":"55450","city_code":"0319","name":"\u5317\u8857\u6751\u59d4\u4f1a","short_name":"\u5317\u8857","merger_name":"\u6cb3\u5317,\u90a2\u53f0,\u67cf\u4e61,\u67cf\u4e61,\u5317\u8857","pinyin":"BeiJie","lng":"114.521617","lat":"37.295408"},{"id":35141,"parent_id":35133,"level":4,"area_code":"130524100208","zip_code":"55450","city_code":"0319","name":"\u897f\u8857\u6751\u59d4\u4f1a","short_name":"\u897f\u8857","merger_name":"\u6cb3\u5317,\u90a2\u53f0,\u67cf\u4e61,\u67cf\u4e61,\u897f\u8857","pinyin":"XiJie","lng":"114.699130","lat":"37.001230"},{"id":35142,"parent_id":35133,"level":4,"area_code":"130524100209","zip_code":"55450","city_code":"0319","name":"\u5357\u8857\u6751\u59d4\u4f1a","short_name":"\u5357\u8857","merger_name":"\u6cb3\u5317,\u90a2\u53f0,\u67cf\u4e61,\u67cf\u4e61,\u5357\u8857","pinyin":"NanJie","lng":"114.683761","lat":"37.495809"},{"id":35143,"parent_id":35133,"level":4,"area_code":"130524100210","zip_code":"55450","city_code":"0319","name":"\u4e1c\u8857\u6751\u59d4\u4f1a","short_name":"\u4e1c\u8857","merger_name":"\u6cb3\u5317,\u90a2\u53f0,\u67cf\u4e61,\u67cf\u4e61,\u4e1c\u8857","pinyin":"DongJie","lng":"114.525540","lat":"37.294200"},{"id":35144,"parent_id":35133,"level":4,"area_code":"130524100211","zip_code":"55450","city_code":"0319","name":"\u5357\u5173\u6751\u59d4\u4f1a","short_name":"\u5357\u5173","merger_name":"\u6cb3\u5317,\u90a2\u53f0,\u67cf\u4e61,\u67cf\u4e61,\u5357\u5173","pinyin":"NanGuan","lng":"114.930260","lat":"37.601260"},{"id":35145,"parent_id":35133,"level":4,"area_code":"130524100212","zip_code":"55450","city_code":"0319","name":"\u5f20\u5bb6\u5e84\u6751\u59d4\u4f1a","short_name":"\u5f20\u5bb6\u5e84","merger_name":"\u6cb3\u5317,\u90a2\u53f0,\u67cf\u4e61,\u67cf\u4e61,\u5f20\u5bb6\u5e84","pinyin":"ZhangJiaZhuang","lng":"115.229490","lat":"37.230822"},{"id":35146,"parent_id":35133,"level":4,"area_code":"130524100213","zip_code":"55450","city_code":"0319","name":"\u8def\u5bb6\u5e84\u6751\u59d4\u4f1a","short_name":"\u8def\u5bb6\u5e84","merger_name":"\u6cb3\u5317,\u90a2\u53f0,\u67cf\u4e61,\u67cf\u4e61,\u8def\u5bb6\u5e84","pinyin":"LuJiaZhuang","lng":"114.683761","lat":"37.495809"},{"id":35147,"parent_id":35133,"level":4,"area_code":"130524100214","zip_code":"55450","city_code":"0319","name":"\u65b9\u9c81\u6751\u59d4\u4f1a","short_name":"\u65b9\u9c81","merger_name":"\u6cb3\u5317,\u90a2\u53f0,\u67cf\u4e61,\u67cf\u4e61,\u65b9\u9c81","pinyin":"FangLu","lng":"114.921260","lat":"37.647820"},{"id":35148,"parent_id":35133,"level":4,"area_code":"130524100215","zip_code":"55450","city_code":"0319","name":"\u4e1c\u5218\u6751\u59d4\u4f1a","short_name":"\u4e1c\u5218","merger_name":"\u6cb3\u5317,\u90a2\u53f0,\u67cf\u4e61,\u67cf\u4e61,\u4e1c\u5218","pinyin":"DongLiu","lng":"114.709570","lat":"37.480810"},{"id":35149,"parent_id":35133,"level":4,"area_code":"130524100216","zip_code":"55450","city_code":"0319","name":"\u897f\u5218\u6751\u59d4\u4f1a","short_name":"\u897f\u5218","merger_name":"\u6cb3\u5317,\u90a2\u53f0,\u67cf\u4e61,\u67cf\u4e61,\u897f\u5218","pinyin":"XiLiu","lng":"114.702520","lat":"37.478080"},{"id":35150,"parent_id":35133,"level":4,"area_code":"130524100217","zip_code":"55450","city_code":"0319","name":"\u8d75\u5e84\u6751\u59d4\u4f1a","short_name":"\u8d75\u5e84","merger_name":"\u6cb3\u5317,\u90a2\u53f0,\u67cf\u4e61,\u67cf\u4e61,\u8d75\u5e84","pinyin":"ZhaoZhuang","lng":"114.258160","lat":"37.416350"},{"id":35151,"parent_id":35133,"level":4,"area_code":"130524100218","zip_code":"55450","city_code":"0319","name":"\u4e1c\u8def\u6751\u6751\u59d4\u4f1a","short_name":"\u4e1c\u8def\u6751","merger_name":"\u6cb3\u5317,\u90a2\u53f0,\u67cf\u4e61,\u67cf\u4e61,\u4e1c\u8def\u6751","pinyin":"DongLuCun","lng":"114.683761","lat":"37.495809"},{"id":35152,"parent_id":35133,"level":4,"area_code":"130524100219","zip_code":"55450","city_code":"0319","name":"\u897f\u8def\u6751\u6751\u59d4\u4f1a","short_name":"\u897f\u8def\u6751","merger_name":"\u6cb3\u5317,\u90a2\u53f0,\u67cf\u4e61,\u67cf\u4e61,\u897f\u8def\u6751","pinyin":"XiLuCun","lng":"114.683761","lat":"37.495809"},{"id":35153,"parent_id":35133,"level":4,"area_code":"130524100220","zip_code":"55450","city_code":"0319","name":"\u8d75\u5bb6\u5e84\u6751\u59d4\u4f1a","short_name":"\u8d75\u5bb6\u5e84","merger_name":"\u6cb3\u5317,\u90a2\u53f0,\u67cf\u4e61,\u67cf\u4e61,\u8d75\u5bb6\u5e84","pinyin":"ZhaoJiaZhuang","lng":"115.415750","lat":"37.000790"},{"id":35154,"parent_id":35133,"level":4,"area_code":"130524100221","zip_code":"55450","city_code":"0319","name":"\u5218\u5bb6\u573a\u6751\u59d4\u4f1a","short_name":"\u5218\u5bb6\u573a","merger_name":"\u6cb3\u5317,\u90a2\u53f0,\u67cf\u4e61,\u67cf\u4e61,\u5218\u5bb6\u573a","pinyin":"LiuJiaChang","lng":"114.683761","lat":"37.495809"},{"id":35155,"parent_id":35133,"level":4,"area_code":"130524100222","zip_code":"55450","city_code":"0319","name":"\u5de8\u9e7f\u5e84\u6751\u59d4\u4f1a","short_name":"\u5de8\u9e7f\u5e84","merger_name":"\u6cb3\u5317,\u90a2\u53f0,\u67cf\u4e61,\u67cf\u4e61,\u5de8\u9e7f\u5e84","pinyin":"JuLuZhuang","lng":"114.921260","lat":"37.647820"},{"id":35156,"parent_id":35133,"level":4,"area_code":"130524100223","zip_code":"55450","city_code":"0319","name":"\u5357\u9633\u6751\u59d4\u4f1a","short_name":"\u5357\u9633","merger_name":"\u6cb3\u5317,\u90a2\u53f0,\u67cf\u4e61,\u67cf\u4e61,\u5357\u9633","pinyin":"NanYang","lng":"114.921260","lat":"37.647820"},{"id":35157,"parent_id":35133,"level":4,"area_code":"130524100224","zip_code":"55450","city_code":"0319","name":"\u5317\u9633\u6751\u59d4\u4f1a","short_name":"\u5317\u9633","merger_name":"\u6cb3\u5317,\u90a2\u53f0,\u67cf\u4e61,\u67cf\u4e61,\u5317\u9633","pinyin":"BeiYang","lng":"114.572920","lat":"37.227400"},{"id":35158,"parent_id":35133,"level":4,"area_code":"130524100225","zip_code":"55450","city_code":"0319","name":"\u5317\u6ed1\u6751\u59d4\u4f1a","short_name":"\u5317\u6ed1","merger_name":"\u6cb3\u5317,\u90a2\u53f0,\u67cf\u4e61,\u67cf\u4e61,\u5317\u6ed1","pinyin":"BeiHua","lng":"114.921260","lat":"37.647820"},{"id":35159,"parent_id":35133,"level":4,"area_code":"130524100226","zip_code":"55450","city_code":"0319","name":"\u5357\u6ed1\u4e00\u6751\u59d4\u4f1a","short_name":"\u5357\u6ed1\u4e00","merger_name":"\u6cb3\u5317,\u90a2\u53f0,\u67cf\u4e61,\u67cf\u4e61,\u5357\u6ed1\u4e00","pinyin":"NanHuaYi","lng":"114.766240","lat":"37.484650"},{"id":35160,"parent_id":35133,"level":4,"area_code":"130524100227","zip_code":"55450","city_code":"0319","name":"\u5357\u6ed1\u4e8c\u6751\u59d4\u4f1a","short_name":"\u5357\u6ed1\u4e8c","merger_name":"\u6cb3\u5317,\u90a2\u53f0,\u67cf\u4e61,\u67cf\u4e61,\u5357\u6ed1\u4e8c","pinyin":"NanHuaEr","lng":"114.766240","lat":"37.484650"},{"id":35161,"parent_id":35133,"level":4,"area_code":"130524100228","zip_code":"55450","city_code":"0319","name":"\u5c0f\u5357\u6ed1\u6751\u59d4\u4f1a","short_name":"\u5c0f\u5357\u6ed1","merger_name":"\u6cb3\u5317,\u90a2\u53f0,\u67cf\u4e61,\u67cf\u4e61,\u5c0f\u5357\u6ed1","pinyin":"XiaoNanHua","lng":"114.776950","lat":"37.482730"},{"id":35162,"parent_id":35133,"level":4,"area_code":"130524100229","zip_code":"55450","city_code":"0319","name":"\u5c0f\u5357\u9633\u6751\u59d4\u4f1a","short_name":"\u5c0f\u5357\u9633","merger_name":"\u6cb3\u5317,\u90a2\u53f0,\u67cf\u4e61,\u67cf\u4e61,\u5c0f\u5357\u9633","pinyin":"XiaoNanYang","lng":"114.683761","lat":"37.495809"},{"id":35163,"parent_id":35133,"level":4,"area_code":"130524100230","zip_code":"55450","city_code":"0319","name":"\u4e1c\u5317\u9c81\u6751\u59d4\u4f1a","short_name":"\u4e1c\u5317\u9c81","merger_name":"\u6cb3\u5317,\u90a2\u53f0,\u67cf\u4e61,\u67cf\u4e61,\u4e1c\u5317\u9c81","pinyin":"DongBeiLu","lng":"114.683761","lat":"37.495809"},{"id":35164,"parent_id":35133,"level":4,"area_code":"130524100231","zip_code":"55450","city_code":"0319","name":"\u897f\u5317\u9c81\u6751\u59d4\u4f1a","short_name":"\u897f\u5317\u9c81","merger_name":"\u6cb3\u5317,\u90a2\u53f0,\u67cf\u4e61,\u67cf\u4e61,\u897f\u5317\u9c81","pinyin":"XiBeiLu","lng":"114.683761","lat":"37.495809"},{"id":35165,"parent_id":35133,"level":4,"area_code":"130524100232","zip_code":"55450","city_code":"0319","name":"\u6735\u6751\u6751\u59d4\u4f1a","short_name":"\u6735\u6751","merger_name":"\u6cb3\u5317,\u90a2\u53f0,\u67cf\u4e61,\u67cf\u4e61,\u6735\u6751","pinyin":"DuoCun","lng":"114.683761","lat":"37.495809"},{"id":35166,"parent_id":35133,"level":4,"area_code":"130524100233","zip_code":"55450","city_code":"0319","name":"\u5357\u5b59\u6751\u6751\u59d4\u4f1a","short_name":"\u5357\u5b59\u6751","merger_name":"\u6cb3\u5317,\u90a2\u53f0,\u67cf\u4e61,\u67cf\u4e61,\u5357\u5b59\u6751","pinyin":"NanSunCun","lng":"114.683761","lat":"37.495809"},{"id":35167,"parent_id":35133,"level":4,"area_code":"130524100234","zip_code":"55450","city_code":"0319","name":"\u5317\u5b59\u6751\u6751\u59d4\u4f1a","short_name":"\u5317\u5b59\u6751","merger_name":"\u6cb3\u5317,\u90a2\u53f0,\u67cf\u4e61,\u67cf\u4e61,\u5317\u5b59\u6751","pinyin":"BeiSunCun","lng":"114.683761","lat":"37.495809"},{"id":35168,"parent_id":35133,"level":4,"area_code":"130524100400","zip_code":"55450","city_code":"0319","name":"\u84dd\u5cb8\u660e\u73e0\u793e\u533a","short_name":"\u84dd\u5cb8\u660e\u73e0","merger_name":"\u6cb3\u5317,\u90a2\u53f0,\u67cf\u4e61,\u67cf\u4e61,\u84dd\u5cb8\u660e\u73e0","pinyin":"LanAnMingZhu","lng":"114.696680","lat":"37.479780"},{"id":35169,"parent_id":35132,"level":3,"area_code":"130524101000","zip_code":"55450","city_code":"0319","name":"\u56fa\u57ce\u5e97\u9547","short_name":"\u56fa\u57ce","merger_name":"\u6cb3\u5317,\u90a2\u53f0,\u67cf\u4e61,\u56fa\u57ce","pinyin":"GuCheng","lng":"114.732550","lat":"37.600800"},{"id":35170,"parent_id":35169,"level":4,"area_code":"130524101201","zip_code":"55450","city_code":"0319","name":"\u5d14\u5bb6\u5e84\u6751\u59d4\u4f1a","short_name":"\u5d14\u5bb6\u5e84","merger_name":"\u6cb3\u5317,\u90a2\u53f0,\u67cf\u4e61,\u56fa\u57ce,\u5d14\u5bb6\u5e84","pinyin":"CuiJiaZhuang","lng":"114.851633","lat":"37.404382"},{"id":35171,"parent_id":35169,"level":4,"area_code":"130524101202","zip_code":"55450","city_code":"0319","name":"\u5317\u5929\u6751\u59d4\u4f1a","short_name":"\u5317\u5929","merger_name":"\u6cb3\u5317,\u90a2\u53f0,\u67cf\u4e61,\u56fa\u57ce,\u5317\u5929","pinyin":"BeiTian","lng":"114.716650","lat":"37.575620"},{"id":35172,"parent_id":35169,"level":4,"area_code":"130524101203","zip_code":"55450","city_code":"0319","name":"\u5415\u83c5\u6751\u59d4\u4f1a","short_name":"\u5415\u83c5","merger_name":"\u6cb3\u5317,\u90a2\u53f0,\u67cf\u4e61,\u56fa\u57ce,\u5415\u83c5","pinyin":"LvJian","lng":"114.710380","lat":"37.586900"},{"id":35173,"parent_id":35169,"level":4,"area_code":"130524101204","zip_code":"55450","city_code":"0319","name":"\u5357\u6c5f\u6751\u59d4\u4f1a","short_name":"\u5357\u6c5f","merger_name":"\u6cb3\u5317,\u90a2\u53f0,\u67cf\u4e61,\u56fa\u57ce,\u5357\u6c5f","pinyin":"NanJiang","lng":"114.775850","lat":"37.461390"},{"id":35174,"parent_id":35169,"level":4,"area_code":"130524101205","zip_code":"55450","city_code":"0319","name":"\u6b63\u5143\u5bfa\u6751\u59d4\u4f1a","short_name":"\u6b63\u5143\u5bfa","merger_name":"\u6cb3\u5317,\u90a2\u53f0,\u67cf\u4e61,\u56fa\u57ce,\u6b63\u5143\u5bfa","pinyin":"ZhengYuanSi","lng":"114.720230","lat":"37.612790"},{"id":35175,"parent_id":35169,"level":4,"area_code":"130524101206","zip_code":"55450","city_code":"0319","name":"\u4e09\u5341\u91cc\u6751\u59d4\u4f1a","short_name":"\u4e09\u5341\u91cc","merger_name":"\u6cb3\u5317,\u90a2\u53f0,\u67cf\u4e61,\u56fa\u57ce,\u4e09\u5341\u91cc","pinyin":"SanShiLi","lng":"114.775850","lat":"37.461390"},{"id":35176,"parent_id":35169,"level":4,"area_code":"130524101207","zip_code":"55450","city_code":"0319","name":"\u5317\u6c5f\u6751\u6751\u59d4\u4f1a","short_name":"\u5317\u6c5f\u6751","merger_name":"\u6cb3\u5317,\u90a2\u53f0,\u67cf\u4e61,\u56fa\u57ce,\u5317\u6c5f\u6751","pinyin":"BeiJiangCun","lng":"114.851633","lat":"37.404382"},{"id":35177,"parent_id":35169,"level":4,"area_code":"130524101208","zip_code":"55450","city_code":"0319","name":"\u897f\u82cf\u6751\u59d4\u4f1a","short_name":"\u897f\u82cf","merger_name":"\u6cb3\u5317,\u90a2\u53f0,\u67cf\u4e61,\u56fa\u57ce,\u897f\u82cf","pinyin":"XiSu","lng":"114.767765","lat":"37.599018"},{"id":35178,"parent_id":35169,"level":4,"area_code":"130524101209","zip_code":"55450","city_code":"0319","name":"\u5317\u5c0f\u4eac\u6751\u59d4\u4f1a","short_name":"\u5317\u5c0f\u4eac","merger_name":"\u6cb3\u5317,\u90a2\u53f0,\u67cf\u4e61,\u56fa\u57ce,\u5317\u5c0f\u4eac","pinyin":"BeiXiaoJing","lng":"114.767765","lat":"37.599018"},{"id":35179,"parent_id":35169,"level":4,"area_code":"130524101210","zip_code":"55450","city_code":"0319","name":"\u57ce\u9633\u6751\u59d4\u4f1a","short_name":"\u57ce\u9633","merger_name":"\u6cb3\u5317,\u90a2\u53f0,\u67cf\u4e61,\u56fa\u57ce,\u57ce\u9633","pinyin":"ChengYang","lng":"114.775850","lat":"37.461390"},{"id":35180,"parent_id":35169,"level":4,"area_code":"130524101211","zip_code":"55450","city_code":"0319","name":"\u56fa\u5357\u6751\u59d4\u4f1a","short_name":"\u56fa\u5357","merger_name":"\u6cb3\u5317,\u90a2\u53f0,\u67cf\u4e61,\u56fa\u57ce,\u56fa\u5357","pinyin":"GuNan","lng":"114.851633","lat":"37.404382"},{"id":35181,"parent_id":35169,"level":4,"area_code":"130524101212","zip_code":"55450","city_code":"0319","name":"\u56fa\u5317\u6751\u59d4\u4f1a","short_name":"\u56fa\u5317","merger_name":"\u6cb3\u5317,\u90a2\u53f0,\u67cf\u4e61,\u56fa\u57ce,\u56fa\u5317","pinyin":"GuBei","lng":"114.851633","lat":"37.404382"},{"id":35182,"parent_id":35169,"level":4,"area_code":"130524101213","zip_code":"55450","city_code":"0319","name":"\u5357\u9a6c\u6751\u59d4\u4f1a","short_name":"\u5357\u9a6c","merger_name":"\u6cb3\u5317,\u90a2\u53f0,\u67cf\u4e61,\u56fa\u57ce,\u5357\u9a6c","pinyin":"NanMa","lng":"114.771930","lat":"37.568450"},{"id":35183,"parent_id":35169,"level":4,"area_code":"130524101214","zip_code":"55450","city_code":"0319","name":"\u5317\u9a6c\u6751\u59d4\u4f1a","short_name":"\u5317\u9a6c","merger_name":"\u6cb3\u5317,\u90a2\u53f0,\u67cf\u4e61,\u56fa\u57ce,\u5317\u9a6c","pinyin":"BeiMa","lng":"114.851633","lat":"37.404382"},{"id":35184,"parent_id":35169,"level":4,"area_code":"130524101215","zip_code":"55450","city_code":"0319","name":"\u4e1c\u5c0f\u4eac\u6751\u59d4\u4f1a","short_name":"\u4e1c\u5c0f\u4eac","merger_name":"\u6cb3\u5317,\u90a2\u53f0,\u67cf\u4e61,\u56fa\u57ce,\u4e1c\u5c0f\u4eac","pinyin":"DongXiaoJing","lng":"114.765750","lat":"37.585090"},{"id":35185,"parent_id":35169,"level":4,"area_code":"130524101216","zip_code":"55450","city_code":"0319","name":"\u5e38\u4e50\u6751\u59d4\u4f1a","short_name":"\u5e38\u4e50","merger_name":"\u6cb3\u5317,\u90a2\u53f0,\u67cf\u4e61,\u56fa\u57ce,\u5e38\u4e50","pinyin":"ChangLe","lng":"114.763890","lat":"37.126950"},{"id":35186,"parent_id":35169,"level":4,"area_code":"130524101217","zip_code":"55450","city_code":"0319","name":"\u5e02\u4e2d\u6751\u59d4\u4f1a","short_name":"\u5e02\u4e2d","merger_name":"\u6cb3\u5317,\u90a2\u53f0,\u67cf\u4e61,\u56fa\u57ce,\u5e02\u4e2d","pinyin":"ShiZhong","lng":"114.851633","lat":"37.404382"},{"id":35187,"parent_id":35169,"level":4,"area_code":"130524101218","zip_code":"55450","city_code":"0319","name":"\u897f\u9a6c\u6751\u59d4\u4f1a","short_name":"\u897f\u9a6c","merger_name":"\u6cb3\u5317,\u90a2\u53f0,\u67cf\u4e61,\u56fa\u57ce,\u897f\u9a6c","pinyin":"XiMa","lng":"114.775850","lat":"37.461390"},{"id":35188,"parent_id":35169,"level":4,"area_code":"130524101219","zip_code":"55450","city_code":"0319","name":"\u897f\u9ec4\u6751\u59d4\u4f1a","short_name":"\u897f\u9ec4","merger_name":"\u6cb3\u5317,\u90a2\u53f0,\u67cf\u4e61,\u56fa\u57ce,\u897f\u9ec4","pinyin":"XiHuang","lng":"114.775850","lat":"37.461390"},{"id":35189,"parent_id":35169,"level":4,"area_code":"130524101220","zip_code":"55450","city_code":"0319","name":"\u4e2d\u9ec4\u6751\u59d4\u4f1a","short_name":"\u4e2d\u9ec4","merger_name":"\u6cb3\u5317,\u90a2\u53f0,\u67cf\u4e61,\u56fa\u57ce,\u4e2d\u9ec4","pinyin":"ZhongHuang","lng":"114.520157","lat":"37.074768"},{"id":35190,"parent_id":35169,"level":4,"area_code":"130524101221","zip_code":"55450","city_code":"0319","name":"\u5317\u9ec4\u6751\u59d4\u4f1a","short_name":"\u5317\u9ec4","merger_name":"\u6cb3\u5317,\u90a2\u53f0,\u67cf\u4e61,\u56fa\u57ce,\u5317\u9ec4","pinyin":"BeiHuang","lng":"114.775850","lat":"37.461390"},{"id":35191,"parent_id":35132,"level":3,"area_code":"130524102000","zip_code":"55450","city_code":"0319","name":"\u897f\u6c6a\u9547","short_name":"\u897f\u6c6a","merger_name":"\u6cb3\u5317,\u90a2\u53f0,\u67cf\u4e61,\u897f\u6c6a","pinyin":"XiWang","lng":"114.698530","lat":"37.448650"},{"id":35192,"parent_id":35191,"level":4,"area_code":"130524102201","zip_code":"55450","city_code":"0319","name":"\u897f\u6c6a\u6751\u59d4\u4f1a","short_name":"\u897f\u6c6a","merger_name":"\u6cb3\u5317,\u90a2\u53f0,\u67cf\u4e61,\u897f\u6c6a,\u897f\u6c6a","pinyin":"XiWang","lng":"114.698530","lat":"37.448650"},{"id":35193,"parent_id":35191,"level":4,"area_code":"130524102202","zip_code":"55450","city_code":"0319","name":"\u9648\u5bb6\u5e84\u6751\u59d4\u4f1a","short_name":"\u9648\u5bb6\u5e84","merger_name":"\u6cb3\u5317,\u90a2\u53f0,\u67cf\u4e61,\u897f\u6c6a,\u9648\u5bb6\u5e84","pinyin":"ChenJiaZhuang","lng":"114.698530","lat":"37.448650"},{"id":35194,"parent_id":35191,"level":4,"area_code":"130524102203","zip_code":"55450","city_code":"0319","name":"\u9a7b\u9a7e\u6751\u6751\u59d4\u4f1a","short_name":"\u9a7b\u9a7e\u6751","merger_name":"\u6cb3\u5317,\u90a2\u53f0,\u67cf\u4e61,\u897f\u6c6a,\u9a7b\u9a7e\u6751","pinyin":"ZhuJiaCun","lng":"114.698530","lat":"37.448650"},{"id":35195,"parent_id":35191,"level":4,"area_code":"130524102204","zip_code":"55450","city_code":"0319","name":"\u9a7b\u9a7e\u94fa\u6751\u59d4\u4f1a","short_name":"\u9a7b\u9a7e\u94fa","merger_name":"\u6cb3\u5317,\u90a2\u53f0,\u67cf\u4e61,\u897f\u6c6a,\u9a7b\u9a7e\u94fa","pinyin":"ZhuJiaPu","lng":"114.673450","lat":"37.445310"},{"id":35196,"parent_id":35191,"level":4,"area_code":"130524102205","zip_code":"55450","city_code":"0319","name":"\u5be8\u897f\u6751\u59d4\u4f1a","short_name":"\u5be8\u897f","merger_name":"\u6cb3\u5317,\u90a2\u53f0,\u67cf\u4e61,\u897f\u6c6a,\u5be8\u897f","pinyin":"ZhaiXi","lng":"114.698530","lat":"37.448650"},{"id":35197,"parent_id":35191,"level":4,"area_code":"130524102206","zip_code":"55450","city_code":"0319","name":"\u5be8\u4e1c\u6751\u59d4\u4f1a","short_name":"\u5be8\u4e1c","merger_name":"\u6cb3\u5317,\u90a2\u53f0,\u67cf\u4e61,\u897f\u6c6a,\u5be8\u4e1c","pinyin":"ZhaiDong","lng":"114.683040","lat":"37.496350"},{"id":35198,"parent_id":35191,"level":4,"area_code":"130524102207","zip_code":"55450","city_code":"0319","name":"\u897f\u6587\u5b89\u6751\u59d4\u4f1a","short_name":"\u897f\u6587\u5b89","merger_name":"\u6cb3\u5317,\u90a2\u53f0,\u67cf\u4e61,\u897f\u6c6a,\u897f\u6587\u5b89","pinyin":"XiWenAn","lng":"114.698530","lat":"37.448650"},{"id":35199,"parent_id":35191,"level":4,"area_code":"130524102208","zip_code":"55450","city_code":"0319","name":"\u4e1c\u6587\u5b89\u6751\u59d4\u4f1a","short_name":"\u4e1c\u6587\u5b89","merger_name":"\u6cb3\u5317,\u90a2\u53f0,\u67cf\u4e61,\u897f\u6c6a,\u4e1c\u6587\u5b89","pinyin":"DongWenAn","lng":"114.698530","lat":"37.448650"},{"id":35200,"parent_id":35191,"level":4,"area_code":"130524102209","zip_code":"55450","city_code":"0319","name":"\u4e1c\u6c6a\u6751\u59d4\u4f1a","short_name":"\u4e1c\u6c6a","merger_name":"\u6cb3\u5317,\u90a2\u53f0,\u67cf\u4e61,\u897f\u6c6a,\u4e1c\u6c6a","pinyin":"DongWang","lng":"114.698530","lat":"37.448650"},{"id":35201,"parent_id":35191,"level":4,"area_code":"130524102210","zip_code":"55450","city_code":"0319","name":"\u5357\u9c81\u897f\u6751\u59d4\u4f1a","short_name":"\u5357\u9c81\u897f","merger_name":"\u6cb3\u5317,\u90a2\u53f0,\u67cf\u4e61,\u897f\u6c6a,\u5357\u9c81\u897f","pinyin":"NanLuXi","lng":"114.683040","lat":"37.496350"},{"id":35202,"parent_id":35191,"level":4,"area_code":"130524102211","zip_code":"55450","city_code":"0319","name":"\u5357\u9c81\u4e1c\u6751\u59d4\u4f1a","short_name":"\u5357\u9c81\u4e1c","merger_name":"\u6cb3\u5317,\u90a2\u53f0,\u67cf\u4e61,\u897f\u6c6a,\u5357\u9c81\u4e1c","pinyin":"NanLuDong","lng":"114.698530","lat":"37.448650"},{"id":35203,"parent_id":35191,"level":4,"area_code":"130524102212","zip_code":"55450","city_code":"0319","name":"\u897f\u91cc\u6751\u59d4\u4f1a","short_name":"\u897f\u91cc","merger_name":"\u6cb3\u5317,\u90a2\u53f0,\u67cf\u4e61,\u897f\u6c6a,\u897f\u91cc","pinyin":"XiLi","lng":"114.683761","lat":"37.495809"},{"id":35204,"parent_id":35191,"level":4,"area_code":"130524102213","zip_code":"55450","city_code":"0319","name":"\u4e1c\u91cc\u6751\u59d4\u4f1a","short_name":"\u4e1c\u91cc","merger_name":"\u6cb3\u5317,\u90a2\u53f0,\u67cf\u4e61,\u897f\u6c6a,\u4e1c\u91cc","pinyin":"DongLi","lng":"114.520560","lat":"37.116345"},{"id":35205,"parent_id":35191,"level":4,"area_code":"130524102214","zip_code":"55450","city_code":"0319","name":"\u4e1c\u5357\u9c81\u6751\u59d4\u4f1a","short_name":"\u4e1c\u5357\u9c81","merger_name":"\u6cb3\u5317,\u90a2\u53f0,\u67cf\u4e61,\u897f\u6c6a,\u4e1c\u5357\u9c81","pinyin":"DongNanLu","lng":"114.921260","lat":"37.647820"},{"id":35206,"parent_id":35191,"level":4,"area_code":"130524102215","zip_code":"55450","city_code":"0319","name":"\u4e2d\u9c81\u6751\u59d4\u4f1a","short_name":"\u4e2d\u9c81","merger_name":"\u6cb3\u5317,\u90a2\u53f0,\u67cf\u4e61,\u897f\u6c6a,\u4e2d\u9c81","pinyin":"ZhongLu","lng":"114.921260","lat":"37.647820"},{"id":35207,"parent_id":35191,"level":4,"area_code":"130524102216","zip_code":"55450","city_code":"0319","name":"\u897f\u65bd\u5e84\u6751\u59d4\u4f1a","short_name":"\u897f\u65bd\u5e84","merger_name":"\u6cb3\u5317,\u90a2\u53f0,\u67cf\u4e61,\u897f\u6c6a,\u897f\u65bd\u5e84","pinyin":"XiShiZhuang","lng":"114.753520","lat":"37.454930"},{"id":35208,"parent_id":35191,"level":4,"area_code":"130524102217","zip_code":"55450","city_code":"0319","name":"\u4e1c\u65bd\u5e84\u6751\u59d4\u4f1a","short_name":"\u4e1c\u65bd\u5e84","merger_name":"\u6cb3\u5317,\u90a2\u53f0,\u67cf\u4e61,\u897f\u6c6a,\u4e1c\u65bd\u5e84","pinyin":"DongShiZhuang","lng":"114.921260","lat":"37.647820"},{"id":35209,"parent_id":35132,"level":3,"area_code":"130524200000","zip_code":"55450","city_code":"0319","name":"\u738b\u5bb6\u5e84\u4e61","short_name":"\u738b\u5bb6\u5e84","merger_name":"\u6cb3\u5317,\u90a2\u53f0,\u67cf\u4e61,\u738b\u5bb6\u5e84","pinyin":"WangJiaZhuang","lng":"114.651830","lat":"37.478260"},{"id":35210,"parent_id":35209,"level":4,"area_code":"130524200201","zip_code":"55450","city_code":"0319","name":"\u738b\u5bb6\u5e84\u6751\u59d4\u4f1a","short_name":"\u738b\u5bb6\u5e84","merger_name":"\u6cb3\u5317,\u90a2\u53f0,\u67cf\u4e61,\u738b\u5bb6\u5e84,\u738b\u5bb6\u5e84","pinyin":"WangJiaZhuang","lng":"114.651830","lat":"37.478260"},{"id":35211,"parent_id":35209,"level":4,"area_code":"130524200202","zip_code":"55450","city_code":"0319","name":"\u5c0f\u91cc\u6751\u6751\u59d4\u4f1a","short_name":"\u5c0f\u91cc\u6751","merger_name":"\u6cb3\u5317,\u90a2\u53f0,\u67cf\u4e61,\u738b\u5bb6\u5e84,\u5c0f\u91cc\u6751","pinyin":"XiaoLiCun","lng":"114.683761","lat":"37.495809"},{"id":35212,"parent_id":35209,"level":4,"area_code":"130524200203","zip_code":"55450","city_code":"0319","name":"\u5c0f\u91cc\u94fa\u6751\u59d4\u4f1a","short_name":"\u5c0f\u91cc\u94fa","merger_name":"\u6cb3\u5317,\u90a2\u53f0,\u67cf\u4e61,\u738b\u5bb6\u5e84,\u5c0f\u91cc\u94fa","pinyin":"XiaoLiPu","lng":"114.650090","lat":"37.413990"},{"id":35213,"parent_id":35209,"level":4,"area_code":"130524200204","zip_code":"55450","city_code":"0319","name":"\u5357\u8425\u513f\u6751\u59d4\u4f1a","short_name":"\u5357\u8425\u513f","merger_name":"\u6cb3\u5317,\u90a2\u53f0,\u67cf\u4e61,\u738b\u5bb6\u5e84,\u5357\u8425\u513f","pinyin":"NanYingEr","lng":"114.683761","lat":"37.495809"},{"id":35214,"parent_id":35209,"level":4,"area_code":"130524200205","zip_code":"55450","city_code":"0319","name":"\u8d3e\u5e84\u6751\u59d4\u4f1a","short_name":"\u8d3e\u5e84","merger_name":"\u6cb3\u5317,\u90a2\u53f0,\u67cf\u4e61,\u738b\u5bb6\u5e84,\u8d3e\u5e84","pinyin":"JiaZhuang","lng":"114.696090","lat":"37.487740"},{"id":35215,"parent_id":35209,"level":4,"area_code":"130524200206","zip_code":"55450","city_code":"0319","name":"\u5357\u5f20\u6751\u6751\u59d4\u4f1a","short_name":"\u5357\u5f20\u6751","merger_name":"\u6cb3\u5317,\u90a2\u53f0,\u67cf\u4e61,\u738b\u5bb6\u5e84,\u5357\u5f20\u6751","pinyin":"NanZhangCun","lng":"114.683761","lat":"37.495809"},{"id":35216,"parent_id":35209,"level":4,"area_code":"130524200207","zip_code":"55450","city_code":"0319","name":"\u6768\u6751\u6751\u59d4\u4f1a","short_name":"\u6768\u6751","merger_name":"\u6cb3\u5317,\u90a2\u53f0,\u67cf\u4e61,\u738b\u5bb6\u5e84,\u6768\u6751","pinyin":"YangCun","lng":"114.696090","lat":"37.487740"},{"id":35217,"parent_id":35209,"level":4,"area_code":"130524200208","zip_code":"55450","city_code":"0319","name":"\u8d75\u6751\u6751\u59d4\u4f1a","short_name":"\u8d75\u6751","merger_name":"\u6cb3\u5317,\u90a2\u53f0,\u67cf\u4e61,\u738b\u5bb6\u5e84,\u8d75\u6751","pinyin":"ZhaoCun","lng":"114.632390","lat":"37.469790"},{"id":35218,"parent_id":35209,"level":4,"area_code":"130524200209","zip_code":"55450","city_code":"0319","name":"\u5317\u7011\u6c34\u6751\u59d4\u4f1a","short_name":"\u5317\u7011\u6c34","merger_name":"\u6cb3\u5317,\u90a2\u53f0,\u67cf\u4e61,\u738b\u5bb6\u5e84,\u5317\u7011\u6c34","pinyin":"BeiPuShui","lng":"114.683761","lat":"37.495809"},{"id":35219,"parent_id":35209,"level":4,"area_code":"130524200210","zip_code":"55450","city_code":"0319","name":"\u5357\u7011\u6c34\u6751\u59d4\u4f1a","short_name":"\u5357\u7011\u6c34","merger_name":"\u6cb3\u5317,\u90a2\u53f0,\u67cf\u4e61,\u738b\u5bb6\u5e84,\u5357\u7011\u6c34","pinyin":"NanPuShui","lng":"114.921260","lat":"37.647820"},{"id":35220,"parent_id":35132,"level":3,"area_code":"130524202000","zip_code":"55450","city_code":"0319","name":"\u9f99\u534e\u4e61","short_name":"\u9f99\u534e","merger_name":"\u6cb3\u5317,\u90a2\u53f0,\u67cf\u4e61,\u9f99\u534e","pinyin":"LongHua","lng":"114.697457","lat":"37.544907"},{"id":35221,"parent_id":35220,"level":4,"area_code":"130524202201","zip_code":"55450","city_code":"0319","name":"\u9f99\u4e1c\u6751\u59d4\u4f1a","short_name":"\u9f99\u4e1c","merger_name":"\u6cb3\u5317,\u90a2\u53f0,\u67cf\u4e61,\u9f99\u534e,\u9f99\u4e1c","pinyin":"LongDong","lng":"115.520890","lat":"36.872920"},{"id":35222,"parent_id":35220,"level":4,"area_code":"130524202202","zip_code":"55450","city_code":"0319","name":"\u9f99\u897f\u6751\u59d4\u4f1a","short_name":"\u9f99\u897f","merger_name":"\u6cb3\u5317,\u90a2\u53f0,\u67cf\u4e61,\u9f99\u534e,\u9f99\u897f","pinyin":"LongXi","lng":"114.687660","lat":"37.545710"},{"id":35223,"parent_id":35220,"level":4,"area_code":"130524202203","zip_code":"55450","city_code":"0319","name":"\u4e2d\u753a\u6751\u59d4\u4f1a","short_name":"\u4e2d\u753a","merger_name":"\u6cb3\u5317,\u90a2\u53f0,\u67cf\u4e61,\u9f99\u534e,\u4e2d\u753a","pinyin":"ZhongTing","lng":"114.921260","lat":"37.647820"},{"id":35224,"parent_id":35220,"level":4,"area_code":"130524202204","zip_code":"55450","city_code":"0319","name":"\u524d\u6e24\u6d77\u6751\u59d4\u4f1a","short_name":"\u524d\u6e24\u6d77","merger_name":"\u6cb3\u5317,\u90a2\u53f0,\u67cf\u4e61,\u9f99\u534e,\u524d\u6e24\u6d77","pinyin":"QianBoHai","lng":"114.921260","lat":"37.647820"},{"id":35225,"parent_id":35220,"level":4,"area_code":"130524202205","zip_code":"55450","city_code":"0319","name":"\u540e\u6e24\u6d77\u6751\u59d4\u4f1a","short_name":"\u540e\u6e24\u6d77","merger_name":"\u6cb3\u5317,\u90a2\u53f0,\u67cf\u4e61,\u9f99\u534e,\u540e\u6e24\u6d77","pinyin":"HouBoHai","lng":"115.389964","lat":"37.295008"},{"id":35226,"parent_id":35220,"level":4,"area_code":"130524202206","zip_code":"55450","city_code":"0319","name":"\u5341\u4e94\u91cc\u94fa\u6751\u59d4\u4f1a","short_name":"\u5341\u4e94\u91cc\u94fa","merger_name":"\u6cb3\u5317,\u90a2\u53f0,\u67cf\u4e61,\u9f99\u534e,\u5341\u4e94\u91cc\u94fa","pinyin":"ShiWuLiPu","lng":"114.697457","lat":"37.544907"},{"id":35227,"parent_id":35220,"level":4,"area_code":"130524202207","zip_code":"55450","city_code":"0319","name":"\u9a6c\u5e84\u6751\u59d4\u4f1a","short_name":"\u9a6c\u5e84","merger_name":"\u6cb3\u5317,\u90a2\u53f0,\u67cf\u4e61,\u9f99\u534e,\u9a6c\u5e84","pinyin":"MaZhuang","lng":"113.944680","lat":"37.256970"},{"id":35228,"parent_id":35220,"level":4,"area_code":"130524202208","zip_code":"55450","city_code":"0319","name":"\u8d75\u83c5\u6751\u59d4\u4f1a","short_name":"\u8d75\u83c5","merger_name":"\u6cb3\u5317,\u90a2\u53f0,\u67cf\u4e61,\u9f99\u534e,\u8d75\u83c5","pinyin":"ZhaoJian","lng":"114.414401","lat":"37.110408"},{"id":35229,"parent_id":35220,"level":4,"area_code":"130524202209","zip_code":"55450","city_code":"0319","name":"\u5c0f\u9c81\u6751\u59d4\u4f1a","short_name":"\u5c0f\u9c81","merger_name":"\u6cb3\u5317,\u90a2\u53f0,\u67cf\u4e61,\u9f99\u534e,\u5c0f\u9c81","pinyin":"XiaoLu","lng":"114.687660","lat":"37.545710"},{"id":35230,"parent_id":35220,"level":4,"area_code":"130524202210","zip_code":"55450","city_code":"0319","name":"\u767d\u697c\u6751\u59d4\u4f1a","short_name":"\u767d\u697c","merger_name":"\u6cb3\u5317,\u90a2\u53f0,\u67cf\u4e61,\u9f99\u534e,\u767d\u697c","pinyin":"BaiLou","lng":"114.687660","lat":"37.545710"},{"id":35231,"parent_id":35220,"level":4,"area_code":"130524202211","zip_code":"55450","city_code":"0319","name":"\u803f\u5bb6\u5e84\u6751\u59d4\u4f1a","short_name":"\u803f\u5bb6\u5e84","merger_name":"\u6cb3\u5317,\u90a2\u53f0,\u67cf\u4e61,\u9f99\u534e,\u803f\u5bb6\u5e84","pinyin":"GengJiaZhuang","lng":"115.714320","lat":"37.075370"},{"id":35232,"parent_id":35220,"level":4,"area_code":"130524202212","zip_code":"55450","city_code":"0319","name":"\u51af\u4e0a\u4eac\u6751\u59d4\u4f1a","short_name":"\u51af\u4e0a\u4eac","merger_name":"\u6cb3\u5317,\u90a2\u53f0,\u67cf\u4e61,\u9f99\u534e,\u51af\u4e0a\u4eac","pinyin":"FengShangJing","lng":"114.680520","lat":"37.523020"},{"id":35233,"parent_id":35220,"level":4,"area_code":"130524202213","zip_code":"55450","city_code":"0319","name":"\u524d\u9ec4\u6751\u59d4\u4f1a","short_name":"\u524d\u9ec4","merger_name":"\u6cb3\u5317,\u90a2\u53f0,\u67cf\u4e61,\u9f99\u534e,\u524d\u9ec4","pinyin":"QianHuang","lng":"114.921260","lat":"37.647820"},{"id":35234,"parent_id":35220,"level":4,"area_code":"130524202214","zip_code":"55450","city_code":"0319","name":"\u540e\u9ec4\u6751\u59d4\u4f1a","short_name":"\u540e\u9ec4","merger_name":"\u6cb3\u5317,\u90a2\u53f0,\u67cf\u4e61,\u9f99\u534e,\u540e\u9ec4","pinyin":"HouHuang","lng":"114.547370","lat":"37.049680"},{"id":35235,"parent_id":35220,"level":4,"area_code":"130524202215","zip_code":"55450","city_code":"0319","name":"\u53e9\u6751\u6751\u59d4\u4f1a","short_name":"\u53e9\u6751","merger_name":"\u6cb3\u5317,\u90a2\u53f0,\u67cf\u4e61,\u9f99\u534e,\u53e9\u6751","pinyin":"KouCun","lng":"114.687660","lat":"37.545710"},{"id":35236,"parent_id":35220,"level":4,"area_code":"130524202216","zip_code":"55450","city_code":"0319","name":"\u524d\u5f20\u6751\u59d4\u4f1a","short_name":"\u524d\u5f20","merger_name":"\u6cb3\u5317,\u90a2\u53f0,\u67cf\u4e61,\u9f99\u534e,\u524d\u5f20","pinyin":"QianZhang","lng":"114.894720","lat":"37.609800"},{"id":35237,"parent_id":35220,"level":4,"area_code":"130524202217","zip_code":"55450","city_code":"0319","name":"\u540e\u5f20\u6751\u59d4\u4f1a","short_name":"\u540e\u5f20","merger_name":"\u6cb3\u5317,\u90a2\u53f0,\u67cf\u4e61,\u9f99\u534e,\u540e\u5f20","pinyin":"HouZhang","lng":"114.751760","lat":"37.528770"},{"id":35238,"parent_id":35220,"level":4,"area_code":"130524202218","zip_code":"55450","city_code":"0319","name":"\u516b\u91cc\u5e84\u6751\u59d4\u4f1a","short_name":"\u516b\u91cc\u5e84","merger_name":"\u6cb3\u5317,\u90a2\u53f0,\u67cf\u4e61,\u9f99\u534e,\u516b\u91cc\u5e84","pinyin":"BaLiZhuang","lng":"115.079360","lat":"37.235230"},{"id":35239,"parent_id":35220,"level":4,"area_code":"130524202219","zip_code":"55450","city_code":"0319","name":"\u5357\u90dd\u6751\u6751\u59d4\u4f1a","short_name":"\u5357\u90dd\u6751","merger_name":"\u6cb3\u5317,\u90a2\u53f0,\u67cf\u4e61,\u9f99\u534e,\u5357\u90dd\u6751","pinyin":"NanHaoCun","lng":"114.687660","lat":"37.545710"},{"id":35240,"parent_id":35220,"level":4,"area_code":"130524202220","zip_code":"55450","city_code":"0319","name":"\u5317\u90dd\u6751\u6751\u59d4\u4f1a","short_name":"\u5317\u90dd\u6751","merger_name":"\u6cb3\u5317,\u90a2\u53f0,\u67cf\u4e61,\u9f99\u534e,\u5317\u90dd\u6751","pinyin":"BeiHaoCun","lng":"114.687660","lat":"37.545710"},{"id":35241,"parent_id":35220,"level":4,"area_code":"130524202221","zip_code":"55450","city_code":"0319","name":"\u5341\u91cc\u94fa\u6751\u59d4\u4f1a","short_name":"\u5341\u91cc\u94fa","merger_name":"\u6cb3\u5317,\u90a2\u53f0,\u67cf\u4e61,\u9f99\u534e,\u5341\u91cc\u94fa","pinyin":"ShiLiPu","lng":"114.511380","lat":"36.965280"},{"id":35242,"parent_id":35220,"level":4,"area_code":"130524202222","zip_code":"55450","city_code":"0319","name":"\u767d\u9633\u6751\u59d4\u4f1a","short_name":"\u767d\u9633","merger_name":"\u6cb3\u5317,\u90a2\u53f0,\u67cf\u4e61,\u9f99\u534e,\u767d\u9633","pinyin":"BaiYang","lng":"114.921260","lat":"37.647820"},{"id":35243,"parent_id":35220,"level":4,"area_code":"130524202223","zip_code":"55450","city_code":"0319","name":"\u795e\u5934\u6751\u59d4\u4f1a","short_name":"\u795e\u5934","merger_name":"\u6cb3\u5317,\u90a2\u53f0,\u67cf\u4e61,\u9f99\u534e,\u795e\u5934","pinyin":"ShenTou","lng":"114.697457","lat":"37.544907"},{"id":35244,"parent_id":35220,"level":4,"area_code":"130524202224","zip_code":"55450","city_code":"0319","name":"\u8425\u513f\u6751\u59d4\u4f1a","short_name":"\u8425\u513f","merger_name":"\u6cb3\u5317,\u90a2\u53f0,\u67cf\u4e61,\u9f99\u534e,\u8425\u513f","pinyin":"YingEr","lng":"114.738470","lat":"37.541010"},{"id":35245,"parent_id":35220,"level":4,"area_code":"130524202225","zip_code":"55450","city_code":"0319","name":"\u90a2\u6751\u6751\u59d4\u4f1a","short_name":"\u90a2\u6751","merger_name":"\u6cb3\u5317,\u90a2\u53f0,\u67cf\u4e61,\u9f99\u534e,\u90a2\u6751","pinyin":"XingCun","lng":"115.696520","lat":"36.871320"},{"id":35246,"parent_id":35132,"level":3,"area_code":"130524203000","zip_code":"55450","city_code":"0319","name":"\u5185\u6b65\u4e61","short_name":"\u5185\u6b65","merger_name":"\u6cb3\u5317,\u90a2\u53f0,\u67cf\u4e61,\u5185\u6b65","pinyin":"NeiBu","lng":"114.643470","lat":"37.513330"},{"id":35247,"parent_id":35246,"level":4,"area_code":"130524203201","zip_code":"55450","city_code":"0319","name":"\u5185\u6b65\u4e00\u6751\u59d4\u4f1a","short_name":"\u5185\u6b65\u4e00","merger_name":"\u6cb3\u5317,\u90a2\u53f0,\u67cf\u4e61,\u5185\u6b65,\u5185\u6b65\u4e00","pinyin":"NeiBuYi","lng":"114.639310","lat":"37.524730"},{"id":35248,"parent_id":35246,"level":4,"area_code":"130524203202","zip_code":"55450","city_code":"0319","name":"\u5185\u6b65\u4e8c\u6751\u59d4\u4f1a","short_name":"\u5185\u6b65\u4e8c","merger_name":"\u6cb3\u5317,\u90a2\u53f0,\u67cf\u4e61,\u5185\u6b65,\u5185\u6b65\u4e8c","pinyin":"NeiBuEr","lng":"114.639310","lat":"37.524730"},{"id":35249,"parent_id":35246,"level":4,"area_code":"130524203203","zip_code":"55450","city_code":"0319","name":"\u5185\u6b65\u4e09\u6751\u59d4\u4f1a","short_name":"\u5185\u6b65\u4e09","merger_name":"\u6cb3\u5317,\u90a2\u53f0,\u67cf\u4e61,\u5185\u6b65,\u5185\u6b65\u4e09","pinyin":"NeiBuSan","lng":"115.092580","lat":"37.668700"},{"id":35250,"parent_id":35246,"level":4,"area_code":"130524203204","zip_code":"55450","city_code":"0319","name":"\u5927\u6c6a\u6751\u59d4\u4f1a","short_name":"\u5927\u6c6a","merger_name":"\u6cb3\u5317,\u90a2\u53f0,\u67cf\u4e61,\u5185\u6b65,\u5927\u6c6a","pinyin":"DaWang","lng":"114.632870","lat":"37.544970"},{"id":35251,"parent_id":35246,"level":4,"area_code":"130524203205","zip_code":"55450","city_code":"0319","name":"\u97e9\u6751\u6751\u59d4\u4f1a","short_name":"\u97e9\u6751","merger_name":"\u6cb3\u5317,\u90a2\u53f0,\u67cf\u4e61,\u5185\u6b65,\u97e9\u6751","pinyin":"HanCun","lng":"114.696090","lat":"37.487740"},{"id":35252,"parent_id":35246,"level":4,"area_code":"130524203206","zip_code":"55450","city_code":"0319","name":"\u9a6c\u6751\u6751\u59d4\u4f1a","short_name":"\u9a6c\u6751","merger_name":"\u6cb3\u5317,\u90a2\u53f0,\u67cf\u4e61,\u5185\u6b65,\u9a6c\u6751","pinyin":"MaCun","lng":"114.428933","lat":"37.092488"},{"id":35253,"parent_id":35246,"level":4,"area_code":"130524203207","zip_code":"55450","city_code":"0319","name":"\u5317\u5927\u6c5f\u6751\u59d4\u4f1a","short_name":"\u5317\u5927\u6c5f","merger_name":"\u6cb3\u5317,\u90a2\u53f0,\u67cf\u4e61,\u5185\u6b65,\u5317\u5927\u6c5f","pinyin":"BeiDaJiang","lng":"114.618690","lat":"37.518770"},{"id":35254,"parent_id":35246,"level":4,"area_code":"130524203208","zip_code":"55450","city_code":"0319","name":"\u5357\u5927\u6c5f\u6751\u59d4\u4f1a","short_name":"\u5357\u5927\u6c5f","merger_name":"\u6cb3\u5317,\u90a2\u53f0,\u67cf\u4e61,\u5185\u6b65,\u5357\u5927\u6c5f","pinyin":"NanDaJiang","lng":"114.683761","lat":"37.495809"},{"id":35255,"parent_id":35246,"level":4,"area_code":"130524203209","zip_code":"55450","city_code":"0319","name":"\u4f59\u820d\u6751\u59d4\u4f1a","short_name":"\u4f59\u820d","merger_name":"\u6cb3\u5317,\u90a2\u53f0,\u67cf\u4e61,\u5185\u6b65,\u4f59\u820d","pinyin":"YuShe","lng":"114.921260","lat":"37.647820"},{"id":35256,"parent_id":35246,"level":4,"area_code":"130524203210","zip_code":"55450","city_code":"0319","name":"\u5b59\u4e0a\u4eac\u6751\u59d4\u4f1a","short_name":"\u5b59\u4e0a\u4eac","merger_name":"\u6cb3\u5317,\u90a2\u53f0,\u67cf\u4e61,\u5185\u6b65,\u5b59\u4e0a\u4eac","pinyin":"SunShangJing","lng":"114.661510","lat":"37.519060"},{"id":35257,"parent_id":35246,"level":4,"area_code":"130524203211","zip_code":"55450","city_code":"0319","name":"\u5218\u4e0a\u4eac\u6751\u59d4\u4f1a","short_name":"\u5218\u4e0a\u4eac","merger_name":"\u6cb3\u5317,\u90a2\u53f0,\u67cf\u4e61,\u5185\u6b65,\u5218\u4e0a\u4eac","pinyin":"LiuShangJing","lng":"114.670200","lat":"37.513520"},{"id":35258,"parent_id":35246,"level":4,"area_code":"130524203212","zip_code":"55450","city_code":"0319","name":"\u8d75\u4e0a\u4eac\u6751\u59d4\u4f1a","short_name":"\u8d75\u4e0a\u4eac","merger_name":"\u6cb3\u5317,\u90a2\u53f0,\u67cf\u4e61,\u5185\u6b65,\u8d75\u4e0a\u4eac","pinyin":"ZhaoShangJing","lng":"114.664090","lat":"37.523530"},{"id":35259,"parent_id":35246,"level":4,"area_code":"130524203213","zip_code":"55450","city_code":"0319","name":"\u80e1\u4e0a\u4eac\u6751\u59d4\u4f1a","short_name":"\u80e1\u4e0a\u4eac","merger_name":"\u6cb3\u5317,\u90a2\u53f0,\u67cf\u4e61,\u5185\u6b65,\u80e1\u4e0a\u4eac","pinyin":"HuShangJing","lng":"114.671990","lat":"37.519760"},{"id":35260,"parent_id":35246,"level":4,"area_code":"130524203214","zip_code":"55450","city_code":"0319","name":"\u738b\u4e0a\u4eac\u6751\u59d4\u4f1a","short_name":"\u738b\u4e0a\u4eac","merger_name":"\u6cb3\u5317,\u90a2\u53f0,\u67cf\u4e61,\u5185\u6b65,\u738b\u4e0a\u4eac","pinyin":"WangShangJing","lng":"114.676730","lat":"37.522650"},{"id":35261,"parent_id":33772,"level":2,"area_code":"130525000000","zip_code":"55350","city_code":"0319","name":"\u9686\u5c27\u53bf","short_name":"\u9686\u5c27","merger_name":"\u6cb3\u5317,\u90a2\u53f0,\u9686\u5c27","pinyin":"LongYao","lng":"114.770419","lat":"37.350173"},{"id":35262,"parent_id":35261,"level":3,"area_code":"130525100000","zip_code":"55350","city_code":"0319","name":"\u9686\u5c27\u9547","short_name":"\u9686\u5c27","merger_name":"\u6cb3\u5317,\u90a2\u53f0,\u9686\u5c27,\u9686\u5c27","pinyin":"LongYao","lng":"114.757260","lat":"37.345380"},{"id":35263,"parent_id":35262,"level":4,"area_code":"130525100201","zip_code":"55350","city_code":"0319","name":"\u897f\u752b\u6751\u59d4\u4f1a","short_name":"\u897f\u752b","merger_name":"\u6cb3\u5317,\u90a2\u53f0,\u9686\u5c27,\u9686\u5c27,\u897f\u752b","pinyin":"XiFu","lng":"114.770320","lat":"37.349060"},{"id":35264,"parent_id":35262,"level":4,"area_code":"130525100202","zip_code":"55350","city_code":"0319","name":"\u4e1c\u5173\u6751\u59d4\u4f1a","short_name":"\u4e1c\u5173","merger_name":"\u6cb3\u5317,\u90a2\u53f0,\u9686\u5c27,\u9686\u5c27,\u4e1c\u5173","pinyin":"DongGuan","lng":"114.936955","lat":"37.618424"},{"id":35265,"parent_id":35262,"level":4,"area_code":"130525100203","zip_code":"55350","city_code":"0319","name":"\u4e1c\u752b\u6751\u59d4\u4f1a","short_name":"\u4e1c\u752b","merger_name":"\u6cb3\u5317,\u90a2\u53f0,\u9686\u5c27,\u9686\u5c27,\u4e1c\u752b","pinyin":"DongFu","lng":"114.778500","lat":"37.355740"},{"id":35266,"parent_id":35262,"level":4,"area_code":"130525100204","zip_code":"55350","city_code":"0319","name":"\u5357\u5173\u6751\u59d4\u4f1a","short_name":"\u5357\u5173","merger_name":"\u6cb3\u5317,\u90a2\u53f0,\u9686\u5c27,\u9686\u5c27,\u5357\u5173","pinyin":"NanGuan","lng":"114.930260","lat":"37.601260"},{"id":35267,"parent_id":35262,"level":4,"area_code":"130525100205","zip_code":"55350","city_code":"0319","name":"\u5357\u752b\u6751\u59d4\u4f1a","short_name":"\u5357\u752b","merger_name":"\u6cb3\u5317,\u90a2\u53f0,\u9686\u5c27,\u9686\u5c27,\u5357\u752b","pinyin":"NanFu","lng":"114.778640","lat":"37.351290"},{"id":35268,"parent_id":35262,"level":4,"area_code":"130525100206","zip_code":"55350","city_code":"0319","name":"\u897f\u5173\u6751\u59d4\u4f1a","short_name":"\u897f\u5173","merger_name":"\u6cb3\u5317,\u90a2\u53f0,\u9686\u5c27,\u9686\u5c27,\u897f\u5173","pinyin":"XiGuan","lng":"114.689189","lat":"36.999559"},{"id":35269,"parent_id":35262,"level":4,"area_code":"130525100207","zip_code":"55350","city_code":"0319","name":"\u97e9\u5e84\u6751\u59d4\u4f1a","short_name":"\u97e9\u5e84","merger_name":"\u6cb3\u5317,\u90a2\u53f0,\u9686\u5c27,\u9686\u5c27,\u97e9\u5e84","pinyin":"HanZhuang","lng":"115.024850","lat":"37.231710"},{"id":35270,"parent_id":35262,"level":4,"area_code":"130525100208","zip_code":"55350","city_code":"0319","name":"\u5317\u752b\u6751\u59d4\u4f1a","short_name":"\u5317\u752b","merger_name":"\u6cb3\u5317,\u90a2\u53f0,\u9686\u5c27,\u9686\u5c27,\u5317\u752b","pinyin":"BeiFu","lng":"114.778500","lat":"37.355740"},{"id":35271,"parent_id":35262,"level":4,"area_code":"130525100209","zip_code":"55350","city_code":"0319","name":"\u4e18\u5e95\u4e00\u6751\u59d4\u4f1a","short_name":"\u4e18\u5e95\u4e00","merger_name":"\u6cb3\u5317,\u90a2\u53f0,\u9686\u5c27,\u9686\u5c27,\u4e18\u5e95\u4e00","pinyin":"QiuDiYi","lng":"114.794490","lat":"37.347170"},{"id":35272,"parent_id":35262,"level":4,"area_code":"130525100210","zip_code":"55350","city_code":"0319","name":"\u4e18\u5e95\u4e8c\u6751\u59d4\u4f1a","short_name":"\u4e18\u5e95\u4e8c","merger_name":"\u6cb3\u5317,\u90a2\u53f0,\u9686\u5c27,\u9686\u5c27,\u4e18\u5e95\u4e8c","pinyin":"QiuDiEr","lng":"115.687010","lat":"37.179330"},{"id":35273,"parent_id":35262,"level":4,"area_code":"130525100211","zip_code":"55350","city_code":"0319","name":"\u4e18\u5e95\u4e09\u6751\u59d4\u4f1a","short_name":"\u4e18\u5e95\u4e09","merger_name":"\u6cb3\u5317,\u90a2\u53f0,\u9686\u5c27,\u9686\u5c27,\u4e18\u5e95\u4e09","pinyin":"QiuDiSan","lng":"115.092580","lat":"37.668700"},{"id":35274,"parent_id":35262,"level":4,"area_code":"130525100212","zip_code":"55350","city_code":"0319","name":"\u4e49\u4e30\u6751\u59d4\u4f1a","short_name":"\u4e49\u4e30","merger_name":"\u6cb3\u5317,\u90a2\u53f0,\u9686\u5c27,\u9686\u5c27,\u4e49\u4e30","pinyin":"YiFeng","lng":"114.794490","lat":"37.347170"},{"id":35275,"parent_id":35262,"level":4,"area_code":"130525100213","zip_code":"55350","city_code":"0319","name":"\u6c99\u6e7e\u6751\u59d4\u4f1a","short_name":"\u6c99\u6e7e","merger_name":"\u6cb3\u5317,\u90a2\u53f0,\u9686\u5c27,\u9686\u5c27,\u6c99\u6e7e","pinyin":"ShaWan","lng":"114.794490","lat":"37.347170"},{"id":35276,"parent_id":35262,"level":4,"area_code":"130525100214","zip_code":"55350","city_code":"0319","name":"\u5317\u548c\u6751\u59d4\u4f1a","short_name":"\u5317\u548c","merger_name":"\u6cb3\u5317,\u90a2\u53f0,\u9686\u5c27,\u9686\u5c27,\u5317\u548c","pinyin":"BeiHe","lng":"115.089242","lat":"37.781099"},{"id":35277,"parent_id":35262,"level":4,"area_code":"130525100215","zip_code":"55350","city_code":"0319","name":"\u4e1c\u6cb3\u6751\u59d4\u4f1a","short_name":"\u4e1c\u6cb3","merger_name":"\u6cb3\u5317,\u90a2\u53f0,\u9686\u5c27,\u9686\u5c27,\u4e1c\u6cb3","pinyin":"DongHe","lng":"114.896400","lat":"37.564240"},{"id":35278,"parent_id":35262,"level":4,"area_code":"130525100216","zip_code":"55350","city_code":"0319","name":"\u5b98\u5e84\u6751\u59d4\u4f1a","short_name":"\u5b98\u5e84","merger_name":"\u6cb3\u5317,\u90a2\u53f0,\u9686\u5c27,\u9686\u5c27,\u5b98\u5e84","pinyin":"GuanZhuang","lng":"114.752740","lat":"37.356030"},{"id":35279,"parent_id":35262,"level":4,"area_code":"130525100217","zip_code":"55350","city_code":"0319","name":"\u9648\u6751\u6751\u59d4\u4f1a","short_name":"\u9648\u6751","merger_name":"\u6cb3\u5317,\u90a2\u53f0,\u9686\u5c27,\u9686\u5c27,\u9648\u6751","pinyin":"ChenCun","lng":"115.381670","lat":"37.033520"},{"id":35280,"parent_id":35262,"level":4,"area_code":"130525100218","zip_code":"55350","city_code":"0319","name":"\u767d\u5bb6\u5e84\u6751\u59d4\u4f1a","short_name":"\u767d\u5bb6\u5e84","merger_name":"\u6cb3\u5317,\u90a2\u53f0,\u9686\u5c27,\u9686\u5c27,\u767d\u5bb6\u5e84","pinyin":"BaiJiaZhuang","lng":"111.437210","lat":"36.050670"},{"id":35281,"parent_id":35262,"level":4,"area_code":"130525100219","zip_code":"55350","city_code":"0319","name":"\u5c27\u5bb6\u5e84\u6751\u59d4\u4f1a","short_name":"\u5c27\u5bb6\u5e84","merger_name":"\u6cb3\u5317,\u90a2\u53f0,\u9686\u5c27,\u9686\u5c27,\u5c27\u5bb6\u5e84","pinyin":"YaoJiaZhuang","lng":"114.770173","lat":"37.349151"},{"id":35282,"parent_id":35262,"level":4,"area_code":"130525100220","zip_code":"55350","city_code":"0319","name":"\u6c38\u5174\u6751\u59d4\u4f1a","short_name":"\u6c38\u5174","merger_name":"\u6cb3\u5317,\u90a2\u53f0,\u9686\u5c27,\u9686\u5c27,\u6c38\u5174","pinyin":"YongXing","lng":"114.536860","lat":"37.113920"},{"id":35283,"parent_id":35262,"level":4,"area_code":"130525100221","zip_code":"55350","city_code":"0319","name":"\u4e1c\u67cf\u820d\u6751\u59d4\u4f1a","short_name":"\u4e1c\u67cf\u820d","merger_name":"\u6cb3\u5317,\u90a2\u53f0,\u9686\u5c27,\u9686\u5c27,\u4e1c\u67cf\u820d","pinyin":"DongBaiShe","lng":"114.777520","lat":"37.317280"},{"id":35284,"parent_id":35262,"level":4,"area_code":"130525100222","zip_code":"55350","city_code":"0319","name":"\u897f\u67cf\u820d\u6751\u59d4\u4f1a","short_name":"\u897f\u67cf\u820d","merger_name":"\u6cb3\u5317,\u90a2\u53f0,\u9686\u5c27,\u9686\u5c27,\u897f\u67cf\u820d","pinyin":"XiBaiShe","lng":"114.777520","lat":"37.317280"},{"id":35285,"parent_id":35262,"level":4,"area_code":"130525100223","zip_code":"55350","city_code":"0319","name":"\u5357\u67cf\u820d\u6751\u59d4\u4f1a","short_name":"\u5357\u67cf\u820d","merger_name":"\u6cb3\u5317,\u90a2\u53f0,\u9686\u5c27,\u9686\u5c27,\u5357\u67cf\u820d","pinyin":"NanBaiShe","lng":"114.777520","lat":"37.317280"},{"id":35286,"parent_id":35262,"level":4,"area_code":"130525100224","zip_code":"55350","city_code":"0319","name":"\u5317\u67cf\u820d\u6751\u59d4\u4f1a","short_name":"\u5317\u67cf\u820d","merger_name":"\u6cb3\u5317,\u90a2\u53f0,\u9686\u5c27,\u9686\u5c27,\u5317\u67cf\u820d","pinyin":"BeiBaiShe","lng":"114.777520","lat":"37.317280"},{"id":35287,"parent_id":35262,"level":4,"area_code":"130525100225","zip_code":"55350","city_code":"0319","name":"\u663e\u5316\u5bfa\u6751\u59d4\u4f1a","short_name":"\u663e\u5316\u5bfa","merger_name":"\u6cb3\u5317,\u90a2\u53f0,\u9686\u5c27,\u9686\u5c27,\u663e\u5316\u5bfa","pinyin":"XianHuaSi","lng":"114.778070","lat":"37.328630"},{"id":35288,"parent_id":35262,"level":4,"area_code":"130525100226","zip_code":"55350","city_code":"0319","name":"\u6768\u6cb3\u6751\u59d4\u4f1a","short_name":"\u6768\u6cb3","merger_name":"\u6cb3\u5317,\u90a2\u53f0,\u9686\u5c27,\u9686\u5c27,\u6768\u6cb3","pinyin":"YangHe","lng":"114.642260","lat":"37.042940"},{"id":35289,"parent_id":35262,"level":4,"area_code":"130525100227","zip_code":"55350","city_code":"0319","name":"\u675c\u6751\u6751\u59d4\u4f1a","short_name":"\u675c\u6751","merger_name":"\u6cb3\u5317,\u90a2\u53f0,\u9686\u5c27,\u9686\u5c27,\u675c\u6751","pinyin":"DuCun","lng":"114.600635","lat":"36.910818"},{"id":35290,"parent_id":35262,"level":4,"area_code":"130525100228","zip_code":"55350","city_code":"0319","name":"\u864e\u4e2d\u6751\u59d4\u4f1a","short_name":"\u864e\u4e2d","merger_name":"\u6cb3\u5317,\u90a2\u53f0,\u9686\u5c27,\u9686\u5c27,\u864e\u4e2d","pinyin":"HuZhong","lng":"114.921260","lat":"37.647820"},{"id":35291,"parent_id":35262,"level":4,"area_code":"130525100229","zip_code":"55350","city_code":"0319","name":"\u897f\u5f20\u6751\u59d4\u4f1a","short_name":"\u897f\u5f20","merger_name":"\u6cb3\u5317,\u90a2\u53f0,\u9686\u5c27,\u9686\u5c27,\u897f\u5f20","pinyin":"XiZhang","lng":"114.583040","lat":"37.295270"},{"id":35292,"parent_id":35262,"level":4,"area_code":"130525100230","zip_code":"55350","city_code":"0319","name":"\u4e1c\u5f20\u6751\u59d4\u4f1a","short_name":"\u4e1c\u5f20","merger_name":"\u6cb3\u5317,\u90a2\u53f0,\u9686\u5c27,\u9686\u5c27,\u4e1c\u5f20","pinyin":"DongZhang","lng":"115.185020","lat":"37.187670"},{"id":35293,"parent_id":35262,"level":4,"area_code":"130525100231","zip_code":"55350","city_code":"0319","name":"\u5b8b\u6751\u6751\u59d4\u4f1a","short_name":"\u5b8b\u6751","merger_name":"\u6cb3\u5317,\u90a2\u53f0,\u9686\u5c27,\u9686\u5c27,\u5b8b\u6751","pinyin":"SongCun","lng":"114.777520","lat":"37.317280"},{"id":35294,"parent_id":35262,"level":4,"area_code":"130525100232","zip_code":"55350","city_code":"0319","name":"\u5c27\u5357\u5173\u6751\u59d4\u4f1a","short_name":"\u5c27\u5357\u5173","merger_name":"\u6cb3\u5317,\u90a2\u53f0,\u9686\u5c27,\u9686\u5c27,\u5c27\u5357\u5173","pinyin":"YaoNanGuan","lng":"114.709008","lat":"37.340917"},{"id":35295,"parent_id":35262,"level":4,"area_code":"130525100233","zip_code":"55350","city_code":"0319","name":"\u5c27\u5317\u91cc\u6751\u59d4\u4f1a","short_name":"\u5c27\u5317\u91cc","merger_name":"\u6cb3\u5317,\u90a2\u53f0,\u9686\u5c27,\u9686\u5c27,\u5c27\u5317\u91cc","pinyin":"YaoBeiLi","lng":"114.709008","lat":"37.340917"},{"id":35296,"parent_id":35262,"level":4,"area_code":"130525100234","zip_code":"55350","city_code":"0319","name":"\u5c27\u4e1c\u5e84\u6751\u59d4\u4f1a","short_name":"\u5c27\u4e1c\u5e84","merger_name":"\u6cb3\u5317,\u90a2\u53f0,\u9686\u5c27,\u9686\u5c27,\u5c27\u4e1c\u5e84","pinyin":"YaoDongZhuang","lng":"114.709008","lat":"37.340917"},{"id":35297,"parent_id":35262,"level":4,"area_code":"130525100235","zip_code":"55350","city_code":"0319","name":"\u90ed\u56ed\u6751\u59d4\u4f1a","short_name":"\u90ed\u56ed","merger_name":"\u6cb3\u5317,\u90a2\u53f0,\u9686\u5c27,\u9686\u5c27,\u90ed\u56ed","pinyin":"GuoYuan","lng":"114.520560","lat":"37.116345"},{"id":35298,"parent_id":35262,"level":4,"area_code":"130525100236","zip_code":"55350","city_code":"0319","name":"\u5357\u6f58\u5e84\u6751\u59d4\u4f1a","short_name":"\u5357\u6f58\u5e84","merger_name":"\u6cb3\u5317,\u90a2\u53f0,\u9686\u5c27,\u9686\u5c27,\u5357\u6f58\u5e84","pinyin":"NanPanZhuang","lng":"114.770173","lat":"37.349151"},{"id":35299,"parent_id":35262,"level":4,"area_code":"130525100237","zip_code":"55350","city_code":"0319","name":"\u897f\u6cb3\u6751\u59d4\u4f1a","short_name":"\u897f\u6cb3","merger_name":"\u6cb3\u5317,\u90a2\u53f0,\u9686\u5c27,\u9686\u5c27,\u897f\u6cb3","pinyin":"XiHe","lng":"114.752740","lat":"37.356030"},{"id":35300,"parent_id":35262,"level":4,"area_code":"130525100238","zip_code":"55350","city_code":"0319","name":"\u97e9\u89e3\u6751\u59d4\u4f1a","short_name":"\u97e9\u89e3","merger_name":"\u6cb3\u5317,\u90a2\u53f0,\u9686\u5c27,\u9686\u5c27,\u97e9\u89e3","pinyin":"HanJie","lng":"114.921260","lat":"37.647820"},{"id":35301,"parent_id":35262,"level":4,"area_code":"130525100239","zip_code":"55350","city_code":"0319","name":"\u4e1c\u91cc\u6751\u6751\u59d4\u4f1a","short_name":"\u4e1c\u91cc\u6751","merger_name":"\u6cb3\u5317,\u90a2\u53f0,\u9686\u5c27,\u9686\u5c27,\u4e1c\u91cc\u6751","pinyin":"DongLiCun","lng":"111.471690","lat":"36.043430"},{"id":35302,"parent_id":35262,"level":4,"area_code":"130525100240","zip_code":"55350","city_code":"0319","name":"\u5357\u5c0f\u6cb3\u6751\u59d4\u4f1a","short_name":"\u5357\u5c0f\u6cb3","merger_name":"\u6cb3\u5317,\u90a2\u53f0,\u9686\u5c27,\u9686\u5c27,\u5357\u5c0f\u6cb3","pinyin":"NanXiaoHe","lng":"114.921260","lat":"37.647820"},{"id":35303,"parent_id":35261,"level":3,"area_code":"130525101000","zip_code":"54703","city_code":"0319","name":"\u9b4f\u5bb6\u5e84\u9547","short_name":"\u9b4f\u5bb6","merger_name":"\u6cb3\u5317,\u90a2\u53f0,\u9686\u5c27,\u9b4f\u5bb6","pinyin":"WeiJia","lng":"114.751180","lat":"37.279950"},{"id":35304,"parent_id":35303,"level":4,"area_code":"130525101201","zip_code":"55350","city_code":"0319","name":"\u9b4f\u5bb6\u5e84\u6751\u59d4\u4f1a","short_name":"\u9b4f\u5bb6\u5e84","merger_name":"\u6cb3\u5317,\u90a2\u53f0,\u9686\u5c27,\u9b4f\u5bb6,\u9b4f\u5bb6\u5e84","pinyin":"WeiJiaZhuang","lng":"114.777520","lat":"37.317280"},{"id":35305,"parent_id":35303,"level":4,"area_code":"130525101202","zip_code":"55350","city_code":"0319","name":"\u5357\u725b\u6751\u59d4\u4f1a","short_name":"\u5357\u725b","merger_name":"\u6cb3\u5317,\u90a2\u53f0,\u9686\u5c27,\u9b4f\u5bb6,\u5357\u725b","pinyin":"NanNiu","lng":"114.751180","lat":"37.279950"},{"id":35306,"parent_id":35303,"level":4,"area_code":"130525101203","zip_code":"55350","city_code":"0319","name":"\u5317\u725b\u6751\u59d4\u4f1a","short_name":"\u5317\u725b","merger_name":"\u6cb3\u5317,\u90a2\u53f0,\u9686\u5c27,\u9b4f\u5bb6,\u5317\u725b","pinyin":"BeiNiu","lng":"114.751180","lat":"37.279950"},{"id":35307,"parent_id":35303,"level":4,"area_code":"130525101204","zip_code":"55350","city_code":"0319","name":"\u725b\u5f20\u6751\u59d4\u4f1a","short_name":"\u725b\u5f20","merger_name":"\u6cb3\u5317,\u90a2\u53f0,\u9686\u5c27,\u9b4f\u5bb6,\u725b\u5f20","pinyin":"NiuZhang","lng":"114.751180","lat":"37.279950"},{"id":35308,"parent_id":35303,"level":4,"area_code":"130525101205","zip_code":"55350","city_code":"0319","name":"\u591a\u5e84\u6751\u59d4\u4f1a","short_name":"\u591a\u5e84","merger_name":"\u6cb3\u5317,\u90a2\u53f0,\u9686\u5c27,\u9b4f\u5bb6,\u591a\u5e84","pinyin":"DuoZhuang","lng":"115.264780","lat":"37.539960"},{"id":35309,"parent_id":35303,"level":4,"area_code":"130525101206","zip_code":"55350","city_code":"0319","name":"\u4e1c\u5e84\u5934\u6751\u59d4\u4f1a","short_name":"\u4e1c\u5e84\u5934","merger_name":"\u6cb3\u5317,\u90a2\u53f0,\u9686\u5c27,\u9b4f\u5bb6,\u4e1c\u5e84\u5934","pinyin":"DongZhuangTou","lng":"114.761850","lat":"37.266510"},