[{"id":575001,"parent_id":572991,"level":2,"area_code":"511071000000","zip_code":"641106","city_code":"1832","name":"\u5185\u6c5f\u7ecf\u6d4e\u5f00\u53d1\u533a","short_name":"\u5185\u6c5f\u7ecf\u6d4e\u5f00\u53d1","merger_name":"\u56db\u5ddd,\u5185\u6c5f,\u5185\u6c5f\u7ecf\u6d4e\u5f00\u53d1","pinyin":"NeiJiangJingJiKaiFa","lng":"105.018446","lat":"29.583853"},{"id":575002,"parent_id":575001,"level":3,"area_code":"511071006000","zip_code":"641099","city_code":"1832","name":"\u58d5\u5b50\u53e3\u8857\u9053","short_name":"\u58d5\u5b50\u53e3","merger_name":"\u56db\u5ddd,\u5185\u6c5f,\u5185\u6c5f\u7ecf\u6d4e\u5f00\u53d1,\u58d5\u5b50\u53e3","pinyin":"HaoZiKou","lng":"105.009949","lat":"29.578030"},{"id":575003,"parent_id":575002,"level":4,"area_code":"511071006001","zip_code":"641099","city_code":"1832","name":"\u5185\u68c9\u793e\u533a\u5c45\u59d4\u4f1a","short_name":"\u5185\u68c9","merger_name":"\u56db\u5ddd,\u5185\u6c5f,\u5185\u6c5f\u7ecf\u6d4e\u5f00\u53d1,\u58d5\u5b50\u53e3,\u5185\u68c9","pinyin":"NeiMian","lng":"104.862746","lat":"29.758121"},{"id":575004,"parent_id":575002,"level":4,"area_code":"511071006002","zip_code":"641099","city_code":"1832","name":"\u5185\u953b\u793e\u533a\u5c45\u59d4\u4f1a","short_name":"\u5185\u953b","merger_name":"\u56db\u5ddd,\u5185\u6c5f,\u5185\u6c5f\u7ecf\u6d4e\u5f00\u53d1,\u58d5\u5b50\u53e3,\u5185\u953b","pinyin":"NeiDuan","lng":"104.767727","lat":"29.724496"},{"id":575005,"parent_id":575002,"level":4,"area_code":"511071006003","zip_code":"641099","city_code":"1832","name":"\u5185\u94c1\u793e\u533a\u5c45\u59d4\u4f1a","short_name":"\u5185\u94c1","merger_name":"\u56db\u5ddd,\u5185\u6c5f,\u5185\u6c5f\u7ecf\u6d4e\u5f00\u53d1,\u58d5\u5b50\u53e3,\u5185\u94c1","pinyin":"NeiTie","lng":"105.040650","lat":"29.585220"},{"id":575006,"parent_id":575002,"level":4,"area_code":"511071006004","zip_code":"641099","city_code":"1832","name":"\u58d5\u5b50\u53e3\u8def\u793e\u533a\u5c45\u59d4\u4f1a","short_name":"\u58d5\u5b50\u53e3\u8def","merger_name":"\u56db\u5ddd,\u5185\u6c5f,\u5185\u6c5f\u7ecf\u6d4e\u5f00\u53d1,\u58d5\u5b50\u53e3,\u58d5\u5b50\u53e3\u8def","pinyin":"HaoZiKouLu","lng":"105.040450","lat":"29.585850"},{"id":575007,"parent_id":575002,"level":4,"area_code":"511071006005","zip_code":"641099","city_code":"1832","name":"\u677e\u5c71\u793e\u533a\u5c45\u59d4\u4f1a","short_name":"\u677e\u5c71","merger_name":"\u56db\u5ddd,\u5185\u6c5f,\u5185\u6c5f\u7ecf\u6d4e\u5f00\u53d1,\u58d5\u5b50\u53e3,\u677e\u5c71","pinyin":"SongShan","lng":"105.009949","lat":"29.578030"},{"id":575008,"parent_id":575002,"level":4,"area_code":"511071006006","zip_code":"641099","city_code":"1832","name":"\u82cf\u5bb6\u6865\u793e\u533a\u5c45\u59d4\u4f1a","short_name":"\u82cf\u5bb6\u6865","merger_name":"\u56db\u5ddd,\u5185\u6c5f,\u5185\u6c5f\u7ecf\u6d4e\u5f00\u53d1,\u58d5\u5b50\u53e3,\u82cf\u5bb6\u6865","pinyin":"SuJiaQiao","lng":"105.036830","lat":"29.577260"},{"id":575009,"parent_id":575001,"level":3,"area_code":"511071101000","zip_code":"641099","city_code":"1832","name":"\u4ea4\u901a\u9547","short_name":"\u4ea4\u901a","merger_name":"\u56db\u5ddd,\u5185\u6c5f,\u5185\u6c5f\u7ecf\u6d4e\u5f00\u53d1,\u4ea4\u901a","pinyin":"JiaoTong","lng":"105.009949","lat":"29.578030"},{"id":575010,"parent_id":575009,"level":4,"area_code":"511071101001","zip_code":"641099","city_code":"1832","name":"\u4ea4\u901a\u793e\u533a\u5c45\u59d4\u4f1a","short_name":"\u4ea4\u901a","merger_name":"\u56db\u5ddd,\u5185\u6c5f,\u5185\u6c5f\u7ecf\u6d4e\u5f00\u53d1,\u4ea4\u901a,\u4ea4\u901a","pinyin":"JiaoTong","lng":"105.068350","lat":"29.580370"},{"id":575011,"parent_id":575009,"level":4,"area_code":"511071101002","zip_code":"641099","city_code":"1832","name":"\u6c49\u6668\u793e\u533a\u5c45\u59d4\u4f1a","short_name":"\u6c49\u6668","merger_name":"\u56db\u5ddd,\u5185\u6c5f,\u5185\u6c5f\u7ecf\u6d4e\u5f00\u53d1,\u4ea4\u901a,\u6c49\u6668","pinyin":"HanChen","lng":"105.018140","lat":"29.583890"},{"id":575012,"parent_id":575009,"level":4,"area_code":"511071101003","zip_code":"641099","city_code":"1832","name":"\u534f\u529b\u793e\u533a\u5c45\u59d4\u4f1a","short_name":"\u534f\u529b","merger_name":"\u56db\u5ddd,\u5185\u6c5f,\u5185\u6c5f\u7ecf\u6d4e\u5f00\u53d1,\u4ea4\u901a,\u534f\u529b","pinyin":"XieLi","lng":"105.311730","lat":"29.690170"},{"id":575013,"parent_id":575009,"level":4,"area_code":"511071101004","zip_code":"641099","city_code":"1832","name":"\u5e78\u798f\u793e\u533a\u5c45\u59d4\u4f1a","short_name":"\u5e78\u798f","merger_name":"\u56db\u5ddd,\u5185\u6c5f,\u5185\u6c5f\u7ecf\u6d4e\u5f00\u53d1,\u4ea4\u901a,\u5e78\u798f","pinyin":"XingFu","lng":"105.088552","lat":"29.506882"},{"id":575014,"parent_id":575009,"level":4,"area_code":"511071101005","zip_code":"641099","city_code":"1832","name":"\u66d9\u5149\u793e\u533a\u5c45\u59d4\u4f1a","short_name":"\u66d9\u5149","merger_name":"\u56db\u5ddd,\u5185\u6c5f,\u5185\u6c5f\u7ecf\u6d4e\u5f00\u53d1,\u4ea4\u901a,\u66d9\u5149","pinyin":"ShuGuang","lng":"105.088552","lat":"29.506882"},{"id":575015,"parent_id":575009,"level":4,"area_code":"511071101006","zip_code":"641099","city_code":"1832","name":"\u6668\u5149\u793e\u533a\u5c45\u59d4\u4f1a","short_name":"\u6668\u5149","merger_name":"\u56db\u5ddd,\u5185\u6c5f,\u5185\u6c5f\u7ecf\u6d4e\u5f00\u53d1,\u4ea4\u901a,\u6668\u5149","pinyin":"ChenGuang","lng":"105.088552","lat":"29.506882"},{"id":575016,"parent_id":575009,"level":4,"area_code":"511071101201","zip_code":"641099","city_code":"1832","name":"\u524d\u8fdb\u6751\u6751\u59d4\u4f1a","short_name":"\u524d\u8fdb\u6751","merger_name":"\u56db\u5ddd,\u5185\u6c5f,\u5185\u6c5f\u7ecf\u6d4e\u5f00\u53d1,\u4ea4\u901a,\u524d\u8fdb\u6751","pinyin":"QianJinCun","lng":"105.033660","lat":"29.637230"},{"id":575017,"parent_id":575009,"level":4,"area_code":"511071101202","zip_code":"641099","city_code":"1832","name":"\u540c\u610f\u6751\u6751\u59d4\u4f1a","short_name":"\u540c\u610f\u6751","merger_name":"\u56db\u5ddd,\u5185\u6c5f,\u5185\u6c5f\u7ecf\u6d4e\u5f00\u53d1,\u4ea4\u901a,\u540c\u610f\u6751","pinyin":"TongYiCun","lng":"105.027820","lat":"29.555120"},{"id":575018,"parent_id":575009,"level":4,"area_code":"511071101203","zip_code":"641099","city_code":"1832","name":"\u7ea2\u661f\u6751\u6751\u59d4\u4f1a","short_name":"\u7ea2\u661f\u6751","merger_name":"\u56db\u5ddd,\u5185\u6c5f,\u5185\u6c5f\u7ecf\u6d4e\u5f00\u53d1,\u4ea4\u901a,\u7ea2\u661f\u6751","pinyin":"HongXingCun","lng":"105.009949","lat":"29.578030"},{"id":575019,"parent_id":575009,"level":4,"area_code":"511071101212","zip_code":"641099","city_code":"1832","name":"\u987a\u6c5f\u6751\u6751\u59d4\u4f1a","short_name":"\u987a\u6c5f\u6751","merger_name":"\u56db\u5ddd,\u5185\u6c5f,\u5185\u6c5f\u7ecf\u6d4e\u5f00\u53d1,\u4ea4\u901a,\u987a\u6c5f\u6751","pinyin":"ShunJiangCun","lng":"105.011820","lat":"29.642720"},{"id":575020,"parent_id":575001,"level":3,"area_code":"511071102000","zip_code":"641007","city_code":"1832","name":"\u56db\u5408\u9547","short_name":"\u56db\u5408","merger_name":"\u56db\u5ddd,\u5185\u6c5f,\u5185\u6c5f\u7ecf\u6d4e\u5f00\u53d1,\u56db\u5408","pinyin":"SiHe","lng":"105.012390","lat":"29.601054"},{"id":575021,"parent_id":575020,"level":4,"area_code":"511071102001","zip_code":"641007","city_code":"1832","name":"\u5bff\u6eaa\u6865\u793e\u533a\u5c45\u59d4\u4f1a","short_name":"\u5bff\u6eaa\u6865","merger_name":"\u56db\u5ddd,\u5185\u6c5f,\u5185\u6c5f\u7ecf\u6d4e\u5f00\u53d1,\u56db\u5408,\u5bff\u6eaa\u6865","pinyin":"ShouXiQiao","lng":"105.011670","lat":"29.601130"},{"id":575022,"parent_id":575020,"level":4,"area_code":"511071102002","zip_code":"641007","city_code":"1832","name":"\u51c9\u98ce\u793e\u533a\u5c45\u59d4\u4f1a","short_name":"\u51c9\u98ce","merger_name":"\u56db\u5ddd,\u5185\u6c5f,\u5185\u6c5f\u7ecf\u6d4e\u5f00\u53d1,\u56db\u5408,\u51c9\u98ce","pinyin":"LiangFeng","lng":"104.767727","lat":"29.724496"},{"id":575023,"parent_id":575020,"level":4,"area_code":"511071102003","zip_code":"641007","city_code":"1832","name":"\u53cc\u5830\u793e\u533a\u5c45\u59d4\u4f1a","short_name":"\u53cc\u5830","merger_name":"\u56db\u5ddd,\u5185\u6c5f,\u5185\u6c5f\u7ecf\u6d4e\u5f00\u53d1,\u56db\u5408,\u53cc\u5830","pinyin":"ShuangYan","lng":"104.767727","lat":"29.724496"},{"id":575024,"parent_id":575020,"level":4,"area_code":"511071102004","zip_code":"641007","city_code":"1832","name":"\u56ed\u7530\u793e\u533a\u5c45\u59d4\u4f1a","short_name":"\u56ed\u7530","merger_name":"\u56db\u5ddd,\u5185\u6c5f,\u5185\u6c5f\u7ecf\u6d4e\u5f00\u53d1,\u56db\u5408,\u56ed\u7530","pinyin":"YuanTian","lng":"104.802947","lat":"29.483645"},{"id":575025,"parent_id":575020,"level":4,"area_code":"511071102005","zip_code":"641007","city_code":"1832","name":"\u6cb1\u6c5f\u793e\u533a\u5c45\u59d4\u4f1a","short_name":"\u6cb1\u6c5f","merger_name":"\u56db\u5ddd,\u5185\u6c5f,\u5185\u6c5f\u7ecf\u6d4e\u5f00\u53d1,\u56db\u5408,\u6cb1\u6c5f","pinyin":"TuoJiang","lng":"105.017990","lat":"29.456090"},{"id":575026,"parent_id":575020,"level":4,"area_code":"511071102006","zip_code":"641007","city_code":"1832","name":"\u53cc\u96c1\u793e\u533a\u5c45\u59d4\u4f1a","short_name":"\u53cc\u96c1","merger_name":"\u56db\u5ddd,\u5185\u6c5f,\u5185\u6c5f\u7ecf\u6d4e\u5f00\u53d1,\u56db\u5408,\u53cc\u96c1","pinyin":"ShuangYan","lng":"104.862746","lat":"29.758121"},{"id":575027,"parent_id":575020,"level":4,"area_code":"511071102201","zip_code":"641007","city_code":"1832","name":"\u4e09\u5c71\u6751\u6751\u59d4\u4f1a","short_name":"\u4e09\u5c71\u6751","merger_name":"\u56db\u5ddd,\u5185\u6c5f,\u5185\u6c5f\u7ecf\u6d4e\u5f00\u53d1,\u56db\u5408,\u4e09\u5c71\u6751","pinyin":"SanShanCun","lng":"105.012630","lat":"29.600950"},{"id":575028,"parent_id":575020,"level":4,"area_code":"511071102203","zip_code":"641007","city_code":"1832","name":"\u5bff\u6eaa\u6751\u6751\u59d4\u4f1a","short_name":"\u5bff\u6eaa\u6751","merger_name":"\u56db\u5ddd,\u5185\u6c5f,\u5185\u6c5f\u7ecf\u6d4e\u5f00\u53d1,\u56db\u5408,\u5bff\u6eaa\u6751","pinyin":"ShouXiCun","lng":"105.021080","lat":"29.607400"},{"id":575029,"parent_id":575020,"level":4,"area_code":"511071102205","zip_code":"641007","city_code":"1832","name":"\u5c16\u5c71\u6751\u6751\u59d4\u4f1a","short_name":"\u5c16\u5c71\u6751","merger_name":"\u56db\u5ddd,\u5185\u6c5f,\u5185\u6c5f\u7ecf\u6d4e\u5f00\u53d1,\u56db\u5408,\u5c16\u5c71\u6751","pinyin":"JianShanCun","lng":"104.770980","lat":"29.849020"},{"id":575030,"parent_id":575020,"level":4,"area_code":"511071102206","zip_code":"641007","city_code":"1832","name":"\u67cf\u6797\u6751\u6751\u59d4\u4f1a","short_name":"\u67cf\u6797\u6751","merger_name":"\u56db\u5ddd,\u5185\u6c5f,\u5185\u6c5f\u7ecf\u6d4e\u5f00\u53d1,\u56db\u5408,\u67cf\u6797\u6751","pinyin":"BoLinCun","lng":"104.984630","lat":"29.578550"},{"id":575031,"parent_id":575020,"level":4,"area_code":"511071102207","zip_code":"641007","city_code":"1832","name":"\u77f3\u8c37\u6751\u6751\u59d4\u4f1a","short_name":"\u77f3\u8c37\u6751","merger_name":"\u56db\u5ddd,\u5185\u6c5f,\u5185\u6c5f\u7ecf\u6d4e\u5f00\u53d1,\u56db\u5408,\u77f3\u8c37\u6751","pinyin":"ShiGuCun","lng":"104.993420","lat":"29.608110"},{"id":575032,"parent_id":572991,"level":2,"area_code":"511083000000","zip_code":"642150","city_code":"1832","name":"\u9686\u660c\u5e02","short_name":"\u9686\u660c","merger_name":"\u56db\u5ddd,\u5185\u6c5f,\u9686\u660c","pinyin":"LongChang","lng":"105.287612","lat":"29.339476"},{"id":575033,"parent_id":575032,"level":3,"area_code":"511083001000","zip_code":"642150","city_code":"1832","name":"\u53e4\u6e56\u8857\u9053\u529e\u4e8b\u5904","short_name":"\u53e4\u6e56","merger_name":"\u56db\u5ddd,\u5185\u6c5f,\u9686\u660c,\u53e4\u6e56","pinyin":"GuHu","lng":"105.279890","lat":"29.338290"},{"id":575034,"parent_id":575033,"level":4,"area_code":"511083001001","zip_code":"642150","city_code":"1832","name":"\u5927\u4e1c\u8857\u793e\u533a\u5c45\u59d4\u4f1a","short_name":"\u5927\u4e1c\u8857","merger_name":"\u56db\u5ddd,\u5185\u6c5f,\u9686\u660c,\u53e4\u6e56,\u5927\u4e1c\u8857","pinyin":"DaDongJie","lng":"105.288760","lat":"29.338700"},{"id":575035,"parent_id":575033,"level":4,"area_code":"511083001002","zip_code":"642150","city_code":"1832","name":"\u6e38\u56ed\u8def\u793e\u533a\u5c45\u59d4\u4f1a","short_name":"\u6e38\u56ed\u8def","merger_name":"\u56db\u5ddd,\u5185\u6c5f,\u9686\u660c,\u53e4\u6e56,\u6e38\u56ed\u8def","pinyin":"YouYuanLu","lng":"105.288760","lat":"29.338700"},{"id":575036,"parent_id":575033,"level":4,"area_code":"511083001003","zip_code":"642150","city_code":"1832","name":"\u6587\u5e99\u575d\u793e\u533a\u5c45\u59d4\u4f1a","short_name":"\u6587\u5e99\u575d","merger_name":"\u56db\u5ddd,\u5185\u6c5f,\u9686\u660c,\u53e4\u6e56,\u6587\u5e99\u575d","pinyin":"WenMiaoBa","lng":"104.862746","lat":"29.758121"},{"id":575037,"parent_id":575033,"level":4,"area_code":"511083001004","zip_code":"642150","city_code":"1832","name":"\u6625\u5149\u8def\u793e\u533a\u5c45\u59d4\u4f1a","short_name":"\u6625\u5149\u8def","merger_name":"\u56db\u5ddd,\u5185\u6c5f,\u9686\u660c,\u53e4\u6e56,\u6625\u5149\u8def","pinyin":"ChunGuangLu","lng":"105.290270","lat":"29.345092"},{"id":575038,"parent_id":575033,"level":4,"area_code":"511083001005","zip_code":"642150","city_code":"1832","name":"\u5317\u95e8\u53e3\u793e\u533a\u5c45\u59d4\u4f1a","short_name":"\u5317\u95e8\u53e3","merger_name":"\u56db\u5ddd,\u5185\u6c5f,\u9686\u660c,\u53e4\u6e56,\u5317\u95e8\u53e3","pinyin":"BeiMenKou","lng":"105.017990","lat":"29.456084"},{"id":575039,"parent_id":575033,"level":4,"area_code":"511083001006","zip_code":"642150","city_code":"1832","name":"\u5eb7\u590d\u897f\u8def\u793e\u533a\u5c45\u59d4\u4f1a","short_name":"\u5eb7\u590d\u897f\u8def","merger_name":"\u56db\u5ddd,\u5185\u6c5f,\u9686\u660c,\u53e4\u6e56,\u5eb7\u590d\u897f\u8def","pinyin":"KangFuXiLu","lng":"105.290270","lat":"29.345092"},{"id":575040,"parent_id":575033,"level":4,"area_code":"511083001007","zip_code":"642150","city_code":"1832","name":"\u8dc3\u8fdb\u8857\u793e\u533a\u5c45\u59d4\u4f1a","short_name":"\u8dc3\u8fdb\u8857","merger_name":"\u56db\u5ddd,\u5185\u6c5f,\u9686\u660c,\u53e4\u6e56,\u8dc3\u8fdb\u8857","pinyin":"YueJinJie","lng":"105.283610","lat":"29.353470"},{"id":575041,"parent_id":575033,"level":4,"area_code":"511083001009","zip_code":"642153","city_code":"1832","name":"\u5f20\u62f1\u6865\u793e\u533a\u5c45\u59d4\u4f1a","short_name":"\u5f20\u62f1\u6865","merger_name":"\u56db\u5ddd,\u5185\u6c5f,\u9686\u660c,\u53e4\u6e56,\u5f20\u62f1\u6865","pinyin":"ZhangGongQiao","lng":"105.287140","lat":"29.354000"},{"id":575042,"parent_id":575033,"level":4,"area_code":"511083001010","zip_code":"642150","city_code":"1832","name":"\u91d1\u534e\u8def\u793e\u533a\u5c45\u59d4\u4f1a","short_name":"\u91d1\u534e\u8def","merger_name":"\u56db\u5ddd,\u5185\u6c5f,\u9686\u660c,\u53e4\u6e56,\u91d1\u534e\u8def","pinyin":"JinHuaLu","lng":"105.280889","lat":"29.344631"},{"id":575043,"parent_id":575033,"level":4,"area_code":"511083001011","zip_code":"642152","city_code":"1832","name":"\u89c2\u6e56\u793e\u533a\u5c45\u6c11\u59d4\u5458\u4f1a","short_name":"\u89c2\u6e56","merger_name":"\u56db\u5ddd,\u5185\u6c5f,\u9686\u660c,\u53e4\u6e56,\u89c2\u6e56","pinyin":"GuanHu","lng":"105.275380","lat":"29.339690"},{"id":575044,"parent_id":575033,"level":4,"area_code":"511083001012","zip_code":"642150","city_code":"1832","name":"\u98de\u6cc9\u793e\u533a\u5c45\u59d4\u4f1a","short_name":"\u98de\u6cc9","merger_name":"\u56db\u5ddd,\u5185\u6c5f,\u9686\u660c,\u53e4\u6e56,\u98de\u6cc9","pinyin":"FeiQuan","lng":"105.283220","lat":"29.336820"},{"id":575045,"parent_id":575033,"level":4,"area_code":"511083001013","zip_code":"642150","city_code":"1832","name":"\u5411\u9633\u793e\u533a\u5c45\u59d4\u4f1a","short_name":"\u5411\u9633","merger_name":"\u56db\u5ddd,\u5185\u6c5f,\u9686\u660c,\u53e4\u6e56,\u5411\u9633","pinyin":"XiangYang","lng":"105.235123","lat":"29.333101"},{"id":575046,"parent_id":575033,"level":4,"area_code":"511083001014","zip_code":"642150","city_code":"1832","name":"\u671b\u57ce\u793e\u533a\u5c45\u59d4\u4f1a","short_name":"\u671b\u57ce","merger_name":"\u56db\u5ddd,\u5185\u6c5f,\u9686\u660c,\u53e4\u6e56,\u671b\u57ce","pinyin":"WangCheng","lng":"105.235123","lat":"29.333101"},{"id":575047,"parent_id":575033,"level":4,"area_code":"511083001015","zip_code":"642150","city_code":"1832","name":"\u5efa\u8bbe\u793e\u533a\u5c45\u59d4\u4f1a","short_name":"\u5efa\u8bbe","merger_name":"\u56db\u5ddd,\u5185\u6c5f,\u9686\u660c,\u53e4\u6e56,\u5efa\u8bbe","pinyin":"JianShe","lng":"105.279890","lat":"29.338290"},{"id":575048,"parent_id":575033,"level":4,"area_code":"511083001016","zip_code":"642150","city_code":"1832","name":"\u7fa4\u661f\u793e\u533a\u5c45\u59d4\u4f1a","short_name":"\u7fa4\u661f","merger_name":"\u56db\u5ddd,\u5185\u6c5f,\u9686\u660c,\u53e4\u6e56,\u7fa4\u661f","pinyin":"QunXing","lng":"105.235123","lat":"29.333101"},{"id":575049,"parent_id":575033,"level":4,"area_code":"511083001017","zip_code":"642150","city_code":"1832","name":"\u536b\u661f\u793e\u533a\u5c45\u59d4\u4f1a","short_name":"\u536b\u661f","merger_name":"\u56db\u5ddd,\u5185\u6c5f,\u9686\u660c,\u53e4\u6e56,\u536b\u661f","pinyin":"WeiXing","lng":"105.235123","lat":"29.333101"},{"id":575050,"parent_id":575033,"level":4,"area_code":"511083001205","zip_code":"642150","city_code":"1832","name":"\u91d1\u661f\u6751\u6751\u6c11\u59d4\u5458\u4f1a","short_name":"\u91d1\u661f\u6751","merger_name":"\u56db\u5ddd,\u5185\u6c5f,\u9686\u660c,\u53e4\u6e56,\u91d1\u661f\u6751","pinyin":"JinXingCun","lng":"105.279890","lat":"29.338290"},{"id":575051,"parent_id":575033,"level":4,"area_code":"511083001206","zip_code":"642150","city_code":"1832","name":"\u4e0a\u6e38\u6751\u6751\u6c11\u59d4\u5458\u4f1a","short_name":"\u4e0a\u6e38\u6751","merger_name":"\u56db\u5ddd,\u5185\u6c5f,\u9686\u660c,\u53e4\u6e56,\u4e0a\u6e38\u6751","pinyin":"ShangYouCun","lng":"105.279890","lat":"29.338290"},{"id":575052,"parent_id":575033,"level":4,"area_code":"511083001207","zip_code":"642150","city_code":"1832","name":"\u53e4\u5b87\u6751\u6751\u6c11\u59d4\u5458\u4f1a","short_name":"\u53e4\u5b87\u6751","merger_name":"\u56db\u5ddd,\u5185\u6c5f,\u9686\u660c,\u53e4\u6e56,\u53e4\u5b87\u6751","pinyin":"GuYuCun","lng":"105.245270","lat":"29.330250"},{"id":575053,"parent_id":575033,"level":4,"area_code":"511083001208","zip_code":"642150","city_code":"1832","name":"\u5de5\u519c\u6751\u6751\u6c11\u59d4\u5458\u4f1a","short_name":"\u5de5\u519c\u6751","merger_name":"\u56db\u5ddd,\u5185\u6c5f,\u9686\u660c,\u53e4\u6e56,\u5de5\u519c\u6751","pinyin":"GongNongCun","lng":"105.261380","lat":"29.329680"},{"id":575054,"parent_id":575033,"level":4,"area_code":"511083001209","zip_code":"642150","city_code":"1832","name":"\u6052\u661f\u6751\u6751\u6c11\u59d4\u5458\u4f1a","short_name":"\u6052\u661f\u6751","merger_name":"\u56db\u5ddd,\u5185\u6c5f,\u9686\u660c,\u53e4\u6e56,\u6052\u661f\u6751","pinyin":"HengXingCun","lng":"105.250500","lat":"29.365640"},{"id":575055,"parent_id":575033,"level":4,"area_code":"511083001210","zip_code":"642150","city_code":"1832","name":"\u7ea2\u536b\u6751\u6751\u6c11\u59d4\u5458\u4f1a","short_name":"\u7ea2\u536b\u6751","merger_name":"\u56db\u5ddd,\u5185\u6c5f,\u9686\u660c,\u53e4\u6e56,\u7ea2\u536b\u6751","pinyin":"HongWeiCun","lng":"105.249534","lat":"29.350692"},{"id":575056,"parent_id":575033,"level":4,"area_code":"511083001212","zip_code":"642150","city_code":"1832","name":"\u5de8\u661f\u6751\u6751\u6c11\u59d4\u5458\u4f1a","short_name":"\u5de8\u661f\u6751","merger_name":"\u56db\u5ddd,\u5185\u6c5f,\u9686\u660c,\u53e4\u6e56,\u5de8\u661f\u6751","pinyin":"JuXingCun","lng":"105.267570","lat":"29.391820"},{"id":575057,"parent_id":575033,"level":4,"area_code":"511083001213","zip_code":"642150","city_code":"1832","name":"\u660e\u661f\u6751\u6751\u6c11\u59d4\u5458\u4f1a","short_name":"\u660e\u661f\u6751","merger_name":"\u56db\u5ddd,\u5185\u6c5f,\u9686\u660c,\u53e4\u6e56,\u660e\u661f\u6751","pinyin":"MingXingCun","lng":"105.235123","lat":"29.333101"},{"id":575058,"parent_id":575033,"level":4,"area_code":"511083001214","zip_code":"642150","city_code":"1832","name":"\u7f57\u661f\u6751\u6751\u6c11\u59d4\u5458\u4f1a","short_name":"\u7f57\u661f\u6751","merger_name":"\u56db\u5ddd,\u5185\u6c5f,\u9686\u660c,\u53e4\u6e56,\u7f57\u661f\u6751","pinyin":"LuoXingCun","lng":"105.265710","lat":"29.364350"},{"id":575059,"parent_id":575032,"level":3,"area_code":"511083002000","zip_code":"642150","city_code":"1832","name":"\u91d1\u9e45\u8857\u9053\u529e\u4e8b\u5904","short_name":"\u91d1\u9e45","merger_name":"\u56db\u5ddd,\u5185\u6c5f,\u9686\u660c,\u91d1\u9e45","pinyin":"JinE","lng":"105.294330","lat":"29.331660"},{"id":575060,"parent_id":575059,"level":4,"area_code":"511083002001","zip_code":"642150","city_code":"1832","name":"\u677f\u6817\u6e7e\u793e\u533a\u5c45\u59d4\u4f1a","short_name":"\u677f\u6817\u6e7e","merger_name":"\u56db\u5ddd,\u5185\u6c5f,\u9686\u660c,\u91d1\u9e45,\u677f\u6817\u6e7e","pinyin":"BanLiWan","lng":"105.303370","lat":"29.336830"},{"id":575061,"parent_id":575059,"level":4,"area_code":"511083002002","zip_code":"642150","city_code":"1832","name":"\u4e91\u5cf0\u8def\u793e\u533a\u5c45\u59d4\u4f1a","short_name":"\u4e91\u5cf0\u8def","merger_name":"\u56db\u5ddd,\u5185\u6c5f,\u9686\u660c,\u91d1\u9e45,\u4e91\u5cf0\u8def","pinyin":"YunFengLu","lng":"105.280889","lat":"29.344631"},{"id":575062,"parent_id":575059,"level":4,"area_code":"511083002003","zip_code":"642150","city_code":"1832","name":"\u660c\u8fbe\u8857\u793e\u533a\u5c45\u59d4\u4f1a","short_name":"\u660c\u8fbe\u8857","merger_name":"\u56db\u5ddd,\u5185\u6c5f,\u9686\u660c,\u91d1\u9e45,\u660c\u8fbe\u8857","pinyin":"ChangDaJie","lng":"105.298847","lat":"29.337497"},{"id":575063,"parent_id":575059,"level":4,"area_code":"511083002004","zip_code":"642150","city_code":"1832","name":"\u9e45\u6c5f\u82b1\u56ed\u793e\u533a\u5c45\u59d4\u4f1a","short_name":"\u9e45\u6c5f\u82b1\u56ed","merger_name":"\u56db\u5ddd,\u5185\u6c5f,\u9686\u660c,\u91d1\u9e45,\u9e45\u6c5f\u82b1\u56ed","pinyin":"EJiangHuaYuan","lng":"105.290660","lat":"29.335700"},{"id":575064,"parent_id":575059,"level":4,"area_code":"511083002005","zip_code":"642150","city_code":"1832","name":"\u5927\u5357\u8857\u793e\u533a\u5c45\u59d4\u4f1a","short_name":"\u5927\u5357\u8857","merger_name":"\u56db\u5ddd,\u5185\u6c5f,\u9686\u660c,\u91d1\u9e45,\u5927\u5357\u8857","pinyin":"DaNanJie","lng":"105.290660","lat":"29.335700"},{"id":575065,"parent_id":575059,"level":4,"area_code":"511083002006","zip_code":"642150","city_code":"1832","name":"\u6842\u82b1\u56ed\u793e\u533a\u5c45\u59d4\u4f1a","short_name":"\u6842\u82b1\u56ed","merger_name":"\u56db\u5ddd,\u5185\u6c5f,\u9686\u660c,\u91d1\u9e45,\u6842\u82b1\u56ed","pinyin":"GuiHuaYuan","lng":"105.292595","lat":"29.330230"},{"id":575066,"parent_id":575059,"level":4,"area_code":"511083002007","zip_code":"642150","city_code":"1832","name":"\u5bcc\u987a\u8857\u793e\u533a\u5c45\u59d4\u4f1a","short_name":"\u5bcc\u987a\u8857","merger_name":"\u56db\u5ddd,\u5185\u6c5f,\u9686\u660c,\u91d1\u9e45,\u5bcc\u987a\u8857","pinyin":"FuShunJie","lng":"105.290660","lat":"29.335700"},{"id":575067,"parent_id":575059,"level":4,"area_code":"511083002008","zip_code":"642150","city_code":"1832","name":"\u5149\u4e30\u793e\u533a\u5c45\u59d4\u4f1a","short_name":"\u5149\u4e30","merger_name":"\u56db\u5ddd,\u5185\u6c5f,\u9686\u660c,\u91d1\u9e45,\u5149\u4e30","pinyin":"GuangFeng","lng":"105.288760","lat":"29.338700"},{"id":575068,"parent_id":575059,"level":4,"area_code":"511083002009","zip_code":"642150","city_code":"1832","name":"\u5149\u8363\u793e\u533a\u5c45\u59d4\u4f1a","short_name":"\u5149\u8363","merger_name":"\u56db\u5ddd,\u5185\u6c5f,\u9686\u660c,\u91d1\u9e45,\u5149\u8363","pinyin":"GuangRong","lng":"105.303370","lat":"29.336830"},{"id":575069,"parent_id":575059,"level":4,"area_code":"511083002010","zip_code":"642150","city_code":"1832","name":"\u5149\u8dc3\u793e\u533a\u5c45\u59d4\u4f1a","short_name":"\u5149\u8dc3","merger_name":"\u56db\u5ddd,\u5185\u6c5f,\u9686\u660c,\u91d1\u9e45,\u5149\u8dc3","pinyin":"GuangYue","lng":"105.308680","lat":"29.350570"},{"id":575070,"parent_id":575059,"level":4,"area_code":"511083002011","zip_code":"642150","city_code":"1832","name":"\u5149\u661f\u793e\u533a\u5c45\u59d4\u4f1a","short_name":"\u5149\u661f","merger_name":"\u56db\u5ddd,\u5185\u6c5f,\u9686\u660c,\u91d1\u9e45,\u5149\u661f","pinyin":"GuangXing","lng":"105.320540","lat":"29.344010"},{"id":575071,"parent_id":575059,"level":4,"area_code":"511083002012","zip_code":"642150","city_code":"1832","name":"\u661f\u661f\u793e\u533a\u5c45\u59d4\u4f1a","short_name":"\u661f\u661f","merger_name":"\u56db\u5ddd,\u5185\u6c5f,\u9686\u660c,\u91d1\u9e45,\u661f\u661f","pinyin":"XingXing","lng":"105.287140","lat":"29.354000"},{"id":575072,"parent_id":575059,"level":4,"area_code":"511083002203","zip_code":"642150","city_code":"1832","name":"\u5149\u660e\u6751\u6751\u6c11\u59d4\u5458\u4f1a","short_name":"\u5149\u660e\u6751","merger_name":"\u56db\u5ddd,\u5185\u6c5f,\u9686\u660c,\u91d1\u9e45,\u5149\u660e\u6751","pinyin":"GuangMingCun","lng":"105.246321","lat":"29.378132"},{"id":575073,"parent_id":575059,"level":4,"area_code":"511083002205","zip_code":"642150","city_code":"1832","name":"\u5149\u590d\u6751\u6751\u6c11\u59d4\u5458\u4f1a","short_name":"\u5149\u590d\u6751","merger_name":"\u56db\u5ddd,\u5185\u6c5f,\u9686\u660c,\u91d1\u9e45,\u5149\u590d\u6751","pinyin":"GuangFuCun","lng":"105.334231","lat":"29.351450"},{"id":575074,"parent_id":575059,"level":4,"area_code":"511083002206","zip_code":"642150","city_code":"1832","name":"\u5149\u707f\u6751\u6751\u6c11\u59d4\u5458\u4f1a","short_name":"\u5149\u707f\u6751","merger_name":"\u56db\u5ddd,\u5185\u6c5f,\u9686\u660c,\u91d1\u9e45,\u5149\u707f\u6751","pinyin":"GuangCanCun","lng":"105.312280","lat":"29.368990"},{"id":575075,"parent_id":575059,"level":4,"area_code":"511083002207","zip_code":"642150","city_code":"1832","name":"\u5149\u80dc\u6751\u6751\u6c11\u59d4\u5458\u4f1a","short_name":"\u5149\u80dc\u6751","merger_name":"\u56db\u5ddd,\u5185\u6c5f,\u9686\u660c,\u91d1\u9e45,\u5149\u80dc\u6751","pinyin":"GuangShengCun","lng":"105.246321","lat":"29.378132"},{"id":575076,"parent_id":575059,"level":4,"area_code":"511083002208","zip_code":"642150","city_code":"1832","name":"\u5149\u8f89\u6751\u6751\u6c11\u59d4\u5458\u4f1a","short_name":"\u5149\u8f89\u6751","merger_name":"\u56db\u5ddd,\u5185\u6c5f,\u9686\u660c,\u91d1\u9e45,\u5149\u8f89\u6751","pinyin":"GuangHuiCun","lng":"105.246321","lat":"29.378132"},{"id":575077,"parent_id":575059,"level":4,"area_code":"511083002210","zip_code":"642150","city_code":"1832","name":"\u5149\u7167\u6751\u6751\u6c11\u59d4\u5458\u4f1a","short_name":"\u5149\u7167\u6751","merger_name":"\u56db\u5ddd,\u5185\u6c5f,\u9686\u660c,\u91d1\u9e45,\u5149\u7167\u6751","pinyin":"GuangZhaoCun","lng":"105.300871","lat":"29.344114"},{"id":575078,"parent_id":575059,"level":4,"area_code":"511083002211","zip_code":"642150","city_code":"1832","name":"\u6c38\u661f\u6751\u6751\u6c11\u59d4\u5458\u4f1a","short_name":"\u6c38\u661f\u6751","merger_name":"\u56db\u5ddd,\u5185\u6c5f,\u9686\u660c,\u91d1\u9e45,\u6c38\u661f\u6751","pinyin":"YongXingCun","lng":"105.265710","lat":"29.364350"},{"id":575079,"parent_id":575059,"level":4,"area_code":"511083002212","zip_code":"642150","city_code":"1832","name":"\u4e94\u661f\u6751\u6751\u6c11\u59d4\u5458\u4f1a","short_name":"\u4e94\u661f\u6751","merger_name":"\u56db\u5ddd,\u5185\u6c5f,\u9686\u660c,\u91d1\u9e45,\u4e94\u661f\u6751","pinyin":"WuXingCun","lng":"105.265710","lat":"29.364350"},{"id":575080,"parent_id":575032,"level":3,"area_code":"511083101000","zip_code":"642177","city_code":"1832","name":"\u5c71\u5ddd\u9547","short_name":"\u5c71\u5ddd","merger_name":"\u56db\u5ddd,\u5185\u6c5f,\u9686\u660c,\u5c71\u5ddd","pinyin":"ShanChuan","lng":"105.322060","lat":"29.276120"},{"id":575081,"parent_id":575080,"level":4,"area_code":"511083101001","zip_code":"642177","city_code":"1832","name":"\u5c71\u5ddd\u793e\u533a\u5c45\u59d4\u4f1a","short_name":"\u5c71\u5ddd","merger_name":"\u56db\u5ddd,\u5185\u6c5f,\u9686\u660c,\u5c71\u5ddd,\u5c71\u5ddd","pinyin":"ShanChuan","lng":"105.329930","lat":"29.277700"},{"id":575082,"parent_id":575080,"level":4,"area_code":"511083101201","zip_code":"642177","city_code":"1832","name":"\u65b0\u6c11\u6751\u6751\u6c11\u59d4\u5458\u4f1a","short_name":"\u65b0\u6c11\u6751","merger_name":"\u56db\u5ddd,\u5185\u6c5f,\u9686\u660c,\u5c71\u5ddd,\u65b0\u6c11\u6751","pinyin":"XinMinCun","lng":"105.246321","lat":"29.378132"},{"id":575083,"parent_id":575080,"level":4,"area_code":"511083101202","zip_code":"642177","city_code":"1832","name":"\u7ea2\u5149\u6751\u6751\u6c11\u59d4\u5458\u4f1a","short_name":"\u7ea2\u5149\u6751","merger_name":"\u56db\u5ddd,\u5185\u6c5f,\u9686\u660c,\u5c71\u5ddd,\u7ea2\u5149\u6751","pinyin":"HongGuangCun","lng":"105.246321","lat":"29.378132"},{"id":575084,"parent_id":575080,"level":4,"area_code":"511083101203","zip_code":"642177","city_code":"1832","name":"\u66d9\u5149\u6751\u6751\u6c11\u59d4\u5458\u4f1a","short_name":"\u66d9\u5149\u6751","merger_name":"\u56db\u5ddd,\u5185\u6c5f,\u9686\u660c,\u5c71\u5ddd,\u66d9\u5149\u6751","pinyin":"ShuGuangCun","lng":"105.246321","lat":"29.378132"},{"id":575085,"parent_id":575080,"level":4,"area_code":"511083101204","zip_code":"642177","city_code":"1832","name":"\u548c\u5e73\u6751\u6751\u6c11\u59d4\u5458\u4f1a","short_name":"\u548c\u5e73\u6751","merger_name":"\u56db\u5ddd,\u5185\u6c5f,\u9686\u660c,\u5c71\u5ddd,\u548c\u5e73\u6751","pinyin":"HePingCun","lng":"105.246321","lat":"29.378132"},{"id":575086,"parent_id":575080,"level":4,"area_code":"511083101205","zip_code":"642177","city_code":"1832","name":"\u5149\u534e\u6751\u6751\u6c11\u59d4\u5458\u4f1a","short_name":"\u5149\u534e\u6751","merger_name":"\u56db\u5ddd,\u5185\u6c5f,\u9686\u660c,\u5c71\u5ddd,\u5149\u534e\u6751","pinyin":"GuangHuaCun","lng":"105.246321","lat":"29.378132"},{"id":575087,"parent_id":575080,"level":4,"area_code":"511083101206","zip_code":"642177","city_code":"1832","name":"\u8521\u5bb6\u6751\u6751\u6c11\u59d4\u5458\u4f1a","short_name":"\u8521\u5bb6\u6751","merger_name":"\u56db\u5ddd,\u5185\u6c5f,\u9686\u660c,\u5c71\u5ddd,\u8521\u5bb6\u6751","pinyin":"CaiJiaCun","lng":"105.285570","lat":"29.364750"},{"id":575088,"parent_id":575080,"level":4,"area_code":"511083101207","zip_code":"642177","city_code":"1832","name":"\u4e1c\u98ce\u6751\u6751\u6c11\u59d4\u5458\u4f1a","short_name":"\u4e1c\u98ce\u6751","merger_name":"\u56db\u5ddd,\u5185\u6c5f,\u9686\u660c,\u5c71\u5ddd,\u4e1c\u98ce\u6751","pinyin":"DongFengCun","lng":"105.246321","lat":"29.378132"},{"id":575089,"parent_id":575080,"level":4,"area_code":"511083101208","zip_code":"642177","city_code":"1832","name":"\u4e09\u9f99\u6751\u6751\u6c11\u59d4\u5458\u4f1a","short_name":"\u4e09\u9f99\u6751","merger_name":"\u56db\u5ddd,\u5185\u6c5f,\u9686\u660c,\u5c71\u5ddd,\u4e09\u9f99\u6751","pinyin":"SanLongCun","lng":"105.246321","lat":"29.378132"},{"id":575090,"parent_id":575080,"level":4,"area_code":"511083101209","zip_code":"642177","city_code":"1832","name":"\u754c\u724c\u6751\u6751\u6c11\u59d4\u5458\u4f1a","short_name":"\u754c\u724c\u6751","merger_name":"\u56db\u5ddd,\u5185\u6c5f,\u9686\u660c,\u5c71\u5ddd,\u754c\u724c\u6751","pinyin":"JiePaiCun","lng":"105.246321","lat":"29.378132"},{"id":575091,"parent_id":575032,"level":3,"area_code":"511083102000","zip_code":"642152","city_code":"1832","name":"\u54cd\u77f3\u9547","short_name":"\u54cd\u77f3","merger_name":"\u56db\u5ddd,\u5185\u6c5f,\u9686\u660c,\u54cd\u77f3","pinyin":"XiangShi","lng":"105.153690","lat":"29.280910"},{"id":575092,"parent_id":575091,"level":4,"area_code":"511083102001","zip_code":"642152","city_code":"1832","name":"\u54cd\u77f3\u5c71\u793e\u533a\u5c45\u59d4\u4f1a","short_name":"\u54cd\u77f3\u5c71","merger_name":"\u56db\u5ddd,\u5185\u6c5f,\u9686\u660c,\u54cd\u77f3,\u54cd\u77f3\u5c71","pinyin":"XiangShiShan","lng":"105.215390","lat":"29.262560"},{"id":575093,"parent_id":575091,"level":4,"area_code":"511083102002","zip_code":"642152","city_code":"1832","name":"\u524d\u950b\u793e\u533a\u5c45\u59d4\u4f1a","short_name":"\u524d\u950b","merger_name":"\u56db\u5ddd,\u5185\u6c5f,\u9686\u660c,\u54cd\u77f3,\u524d\u950b","pinyin":"QianFeng","lng":"105.215390","lat":"29.262560"},{"id":575094,"parent_id":575091,"level":4,"area_code":"511083102201","zip_code":"642152","city_code":"1832","name":"\u8001\u6797\u6751\u6751\u6c11\u59d4\u5458\u4f1a","short_name":"\u8001\u6797\u6751","merger_name":"\u56db\u5ddd,\u5185\u6c5f,\u9686\u660c,\u54cd\u77f3,\u8001\u6797\u6751","pinyin":"LaoLinCun","lng":"105.165150","lat":"29.301790"},{"id":575095,"parent_id":575091,"level":4,"area_code":"511083102202","zip_code":"642152","city_code":"1832","name":"\u5df4\u5c71\u6751\u6751\u6c11\u59d4\u5458\u4f1a","short_name":"\u5df4\u5c71\u6751","merger_name":"\u56db\u5ddd,\u5185\u6c5f,\u9686\u660c,\u54cd\u77f3,\u5df4\u5c71\u6751","pinyin":"BaShanCun","lng":"105.189710","lat":"29.294370"},{"id":575096,"parent_id":575091,"level":4,"area_code":"511083102203","zip_code":"642152","city_code":"1832","name":"\u67ff\u5b50\u6751\u6751\u6c11\u59d4\u5458\u4f1a","short_name":"\u67ff\u5b50\u6751","merger_name":"\u56db\u5ddd,\u5185\u6c5f,\u9686\u660c,\u54cd\u77f3,\u67ff\u5b50\u6751","pinyin":"ShiZiCun","lng":"105.153609","lat":"29.281035"},{"id":575097,"parent_id":575091,"level":4,"area_code":"511083102204","zip_code":"642152","city_code":"1832","name":"\u6843\u56ed\u6751\u6751\u6c11\u59d4\u5458\u4f1a","short_name":"\u6843\u56ed\u6751","merger_name":"\u56db\u5ddd,\u5185\u6c5f,\u9686\u660c,\u54cd\u77f3,\u6843\u56ed\u6751","pinyin":"TaoYuanCun","lng":"105.189710","lat":"29.294370"},{"id":575098,"parent_id":575091,"level":4,"area_code":"511083102205","zip_code":"642152","city_code":"1832","name":"\u5409\u5e86\u6751\u6751\u6c11\u59d4\u5458\u4f1a","short_name":"\u5409\u5e86\u6751","merger_name":"\u56db\u5ddd,\u5185\u6c5f,\u9686\u660c,\u54cd\u77f3,\u5409\u5e86\u6751","pinyin":"JiQingCun","lng":"105.153609","lat":"29.281035"},{"id":575099,"parent_id":575091,"level":4,"area_code":"511083102206","zip_code":"642152","city_code":"1832","name":"\u9171\u56ed\u6751\u6751\u6c11\u59d4\u5458\u4f1a","short_name":"\u9171\u56ed\u6751","merger_name":"\u56db\u5ddd,\u5185\u6c5f,\u9686\u660c,\u54cd\u77f3,\u9171\u56ed\u6751","pinyin":"JiangYuanCun","lng":"105.153609","lat":"29.281035"},{"id":575100,"parent_id":575091,"level":4,"area_code":"511083102207","zip_code":"642152","city_code":"1832","name":"\u77f3\u5e99\u6751\u6751\u6c11\u59d4\u5458\u4f1a","short_name":"\u77f3\u5e99\u6751","merger_name":"\u56db\u5ddd,\u5185\u6c5f,\u9686\u660c,\u54cd\u77f3,\u77f3\u5e99\u6751","pinyin":"ShiMiaoCun","lng":"105.189710","lat":"29.294370"},{"id":575101,"parent_id":575091,"level":4,"area_code":"511083102208","zip_code":"642152","city_code":"1832","name":"\u575d\u4e0a\u6751\u6751\u6c11\u59d4\u5458\u4f1a","short_name":"\u575d\u4e0a\u6751","merger_name":"\u56db\u5ddd,\u5185\u6c5f,\u9686\u660c,\u54cd\u77f3,\u575d\u4e0a\u6751","pinyin":"BaShangCun","lng":"105.170360","lat":"29.264660"},{"id":575102,"parent_id":575091,"level":4,"area_code":"511083102209","zip_code":"642152","city_code":"1832","name":"\u5927\u5c4b\u6751\u6751\u6c11\u59d4\u5458\u4f1a","short_name":"\u5927\u5c4b\u6751","merger_name":"\u56db\u5ddd,\u5185\u6c5f,\u9686\u660c,\u54cd\u77f3,\u5927\u5c4b\u6751","pinyin":"DaWuCun","lng":"105.251710","lat":"29.300230"},{"id":575103,"parent_id":575091,"level":4,"area_code":"511083102210","zip_code":"642152","city_code":"1832","name":"\u56ed\u4ed3\u6751\u6751\u6c11\u59d4\u5458\u4f1a","short_name":"\u56ed\u4ed3\u6751","merger_name":"\u56db\u5ddd,\u5185\u6c5f,\u9686\u660c,\u54cd\u77f3,\u56ed\u4ed3\u6751","pinyin":"YuanCangCun","lng":"105.170360","lat":"29.264660"},{"id":575104,"parent_id":575091,"level":4,"area_code":"511083102211","zip_code":"642152","city_code":"1832","name":"\u6c38\u5b89\u6751\u6751\u6c11\u59d4\u5458\u4f1a","short_name":"\u6c38\u5b89\u6751","merger_name":"\u56db\u5ddd,\u5185\u6c5f,\u9686\u660c,\u54cd\u77f3,\u6c38\u5b89\u6751","pinyin":"YongAnCun","lng":"105.189710","lat":"29.294370"},{"id":575105,"parent_id":575091,"level":4,"area_code":"511083102212","zip_code":"642152","city_code":"1832","name":"\u5c0f\u5634\u6751\u6751\u6c11\u59d4\u5458\u4f1a","short_name":"\u5c0f\u5634\u6751","merger_name":"\u56db\u5ddd,\u5185\u6c5f,\u9686\u660c,\u54cd\u77f3,\u5c0f\u5634\u6751","pinyin":"XiaoZuiCun","lng":"105.170360","lat":"29.264660"},{"id":575106,"parent_id":575091,"level":4,"area_code":"511083102213","zip_code":"642152","city_code":"1832","name":"\u559c\u795e\u6751\u6751\u6c11\u59d4\u5458\u4f1a","short_name":"\u559c\u795e\u6751","merger_name":"\u56db\u5ddd,\u5185\u6c5f,\u9686\u660c,\u54cd\u77f3,\u559c\u795e\u6751","pinyin":"XiShenCun","lng":"105.189710","lat":"29.294370"},{"id":575107,"parent_id":575091,"level":4,"area_code":"511083102214","zip_code":"642152","city_code":"1832","name":"\u9e70\u5634\u6751\u6751\u6c11\u59d4\u5458\u4f1a","short_name":"\u9e70\u5634\u6751","merger_name":"\u56db\u5ddd,\u5185\u6c5f,\u9686\u660c,\u54cd\u77f3,\u9e70\u5634\u6751","pinyin":"YingZuiCun","lng":"105.170360","lat":"29.264660"},{"id":575108,"parent_id":575091,"level":4,"area_code":"511083102215","zip_code":"642152","city_code":"1832","name":"\u7fa4\u4e50\u6751\u6751\u6c11\u59d4\u5458\u4f1a","short_name":"\u7fa4\u4e50\u6751","merger_name":"\u56db\u5ddd,\u5185\u6c5f,\u9686\u660c,\u54cd\u77f3,\u7fa4\u4e50\u6751","pinyin":"QunLeCun","lng":"105.166420","lat":"29.286150"},{"id":575109,"parent_id":575091,"level":4,"area_code":"511083102216","zip_code":"642152","city_code":"1832","name":"\u5929\u6210\u6751\u6751\u6c11\u59d4\u5458\u4f1a","short_name":"\u5929\u6210\u6751","merger_name":"\u56db\u5ddd,\u5185\u6c5f,\u9686\u660c,\u54cd\u77f3,\u5929\u6210\u6751","pinyin":"TianChengCun","lng":"105.189710","lat":"29.294370"},{"id":575110,"parent_id":575091,"level":4,"area_code":"511083102217","zip_code":"642152","city_code":"1832","name":"\u9f99\u51e4\u6751\u6751\u6c11\u59d4\u5458\u4f1a","short_name":"\u9f99\u51e4\u6751","merger_name":"\u56db\u5ddd,\u5185\u6c5f,\u9686\u660c,\u54cd\u77f3,\u9f99\u51e4\u6751","pinyin":"LongFengCun","lng":"105.189710","lat":"29.294370"},{"id":575111,"parent_id":575091,"level":4,"area_code":"511083102218","zip_code":"642152","city_code":"1832","name":"\u5357\u51b2\u6751\u6751\u6c11\u59d4\u5458\u4f1a","short_name":"\u5357\u51b2\u6751","merger_name":"\u56db\u5ddd,\u5185\u6c5f,\u9686\u660c,\u54cd\u77f3,\u5357\u51b2\u6751","pinyin":"NanChongCun","lng":"105.140840","lat":"29.318440"},{"id":575112,"parent_id":575091,"level":4,"area_code":"511083102219","zip_code":"642152","city_code":"1832","name":"\u5deb\u5c71\u6751\u6751\u6c11\u59d4\u5458\u4f1a","short_name":"\u5deb\u5c71\u6751","merger_name":"\u56db\u5ddd,\u5185\u6c5f,\u9686\u660c,\u54cd\u77f3,\u5deb\u5c71\u6751","pinyin":"WuShanCun","lng":"105.170360","lat":"29.264660"},{"id":575113,"parent_id":575091,"level":4,"area_code":"511083102220","zip_code":"642152","city_code":"1832","name":"\u6cb3\u575d\u6751\u6751\u6c11\u59d4\u5458\u4f1a","short_name":"\u6cb3\u575d\u6751","merger_name":"\u56db\u5ddd,\u5185\u6c5f,\u9686\u660c,\u54cd\u77f3,\u6cb3\u575d\u6751","pinyin":"HeBaCun","lng":"105.189710","lat":"29.294370"},{"id":575114,"parent_id":575091,"level":4,"area_code":"511083102221","zip_code":"642152","city_code":"1832","name":"\u6d77\u87ba\u6751\u6751\u6c11\u59d4\u5458\u4f1a","short_name":"\u6d77\u87ba\u6751","merger_name":"\u56db\u5ddd,\u5185\u6c5f,\u9686\u660c,\u54cd\u77f3,\u6d77\u87ba\u6751","pinyin":"HaiLuoCun","lng":"105.189710","lat":"29.294370"},{"id":575115,"parent_id":575091,"level":4,"area_code":"511083102222","zip_code":"642152","city_code":"1832","name":"\u6c34\u53e3\u6751\u6751\u6c11\u59d4\u5458\u4f1a","short_name":"\u6c34\u53e3\u6751","merger_name":"\u56db\u5ddd,\u5185\u6c5f,\u9686\u660c,\u54cd\u77f3,\u6c34\u53e3\u6751","pinyin":"ShuiKouCun","lng":"105.189710","lat":"29.294370"},{"id":575116,"parent_id":575091,"level":4,"area_code":"511083102223","zip_code":"642152","city_code":"1832","name":"\u5b9d\u5cf0\u6751\u6751\u6c11\u59d4\u5458\u4f1a","short_name":"\u5b9d\u5cf0\u6751","merger_name":"\u56db\u5ddd,\u5185\u6c5f,\u9686\u660c,\u54cd\u77f3,\u5b9d\u5cf0\u6751","pinyin":"BaoFengCun","lng":"105.169740","lat":"29.329540"},{"id":575117,"parent_id":575091,"level":4,"area_code":"511083102224","zip_code":"642152","city_code":"1832","name":"\u957f\u6865\u6751\u6751\u6c11\u59d4\u5458\u4f1a","short_name":"\u957f\u6865\u6751","merger_name":"\u56db\u5ddd,\u5185\u6c5f,\u9686\u660c,\u54cd\u77f3,\u957f\u6865\u6751","pinyin":"ChangQiaoCun","lng":"105.189710","lat":"29.294370"},{"id":575118,"parent_id":575091,"level":4,"area_code":"511083102225","zip_code":"642152","city_code":"1832","name":"\u9ad8\u6d1e\u6751\u6751\u6c11\u59d4\u5458\u4f1a","short_name":"\u9ad8\u6d1e\u6751","merger_name":"\u56db\u5ddd,\u5185\u6c5f,\u9686\u660c,\u54cd\u77f3,\u9ad8\u6d1e\u6751","pinyin":"GaoDongCun","lng":"104.911280","lat":"29.472110"},{"id":575119,"parent_id":575091,"level":4,"area_code":"511083102226","zip_code":"642152","city_code":"1832","name":"\u6c38\u9ad8\u6751\u6751\u6c11\u59d4\u5458\u4f1a","short_name":"\u6c38\u9ad8\u6751","merger_name":"\u56db\u5ddd,\u5185\u6c5f,\u9686\u660c,\u54cd\u77f3,\u6c38\u9ad8\u6751","pinyin":"YongGaoCun","lng":"105.145450","lat":"29.340820"},{"id":575120,"parent_id":575091,"level":4,"area_code":"511083102227","zip_code":"642152","city_code":"1832","name":"\u7f57\u5802\u6751\u6751\u6c11\u59d4\u5458\u4f1a","short_name":"\u7f57\u5802\u6751","merger_name":"\u56db\u5ddd,\u5185\u6c5f,\u9686\u660c,\u54cd\u77f3,\u7f57\u5802\u6751","pinyin":"LuoTangCun","lng":"105.179490","lat":"29.269930"},{"id":575121,"parent_id":575091,"level":4,"area_code":"511083102228","zip_code":"642152","city_code":"1832","name":"\u7f57\u9f13\u6751\u6751\u6c11\u59d4\u5458\u4f1a","short_name":"\u7f57\u9f13\u6751","merger_name":"\u56db\u5ddd,\u5185\u6c5f,\u9686\u660c,\u54cd\u77f3,\u7f57\u9f13\u6751","pinyin":"LuoGuCun","lng":"105.135370","lat":"29.352080"},{"id":575122,"parent_id":575091,"level":4,"area_code":"511083102229","zip_code":"642152","city_code":"1832","name":"\u89c2\u97f3\u6751\u6751\u6c11\u59d4\u5458\u4f1a","short_name":"\u89c2\u97f3\u6751","merger_name":"\u56db\u5ddd,\u5185\u6c5f,\u9686\u660c,\u54cd\u77f3,\u89c2\u97f3\u6751","pinyin":"GuanYinCun","lng":"105.189710","lat":"29.294370"},{"id":575123,"parent_id":575091,"level":4,"area_code":"511083102230","zip_code":"642152","city_code":"1832","name":"\u77f3\u5ce1\u6751\u6751\u6c11\u59d4\u5458\u4f1a","short_name":"\u77f3\u5ce1\u6751","merger_name":"\u56db\u5ddd,\u5185\u6c5f,\u9686\u660c,\u54cd\u77f3,\u77f3\u5ce1\u6751","pinyin":"ShiXiaCun","lng":"105.189710","lat":"29.294370"},{"id":575124,"parent_id":575091,"level":4,"area_code":"511083102231","zip_code":"642152","city_code":"1832","name":"\u5b98\u4e3b\u6751\u6751\u6c11\u59d4\u5458\u4f1a","short_name":"\u5b98\u4e3b\u6751","merger_name":"\u56db\u5ddd,\u5185\u6c5f,\u9686\u660c,\u54cd\u77f3,\u5b98\u4e3b\u6751","pinyin":"GuanZhuCun","lng":"105.160970","lat":"29.326570"},{"id":575125,"parent_id":575032,"level":3,"area_code":"511083103000","zip_code":"642150","city_code":"1832","name":"\u5723\u706f\u9547","short_name":"\u5723\u706f","merger_name":"\u56db\u5ddd,\u5185\u6c5f,\u9686\u660c,\u5723\u706f","pinyin":"ShengDeng","lng":"105.213820","lat":"29.302000"},{"id":575126,"parent_id":575125,"level":4,"area_code":"511083103001","zip_code":"642150","city_code":"1832","name":"\u5723\u706f\u793e\u533a\u5c45\u59d4\u4f1a","short_name":"\u5723\u706f","merger_name":"\u56db\u5ddd,\u5185\u6c5f,\u9686\u660c,\u5723\u706f,\u5723\u706f","pinyin":"ShengDeng","lng":"105.219181","lat":"29.302549"},{"id":575127,"parent_id":575125,"level":4,"area_code":"511083103002","zip_code":"642169","city_code":"1832","name":"\u4e50\u53ea\u793e\u533a\u5c45\u59d4\u4f1a","short_name":"\u4e50\u53ea","merger_name":"\u56db\u5ddd,\u5185\u6c5f,\u9686\u660c,\u5723\u706f,\u4e50\u53ea","pinyin":"LeZhi","lng":"105.219181","lat":"29.302549"},{"id":575128,"parent_id":575125,"level":4,"area_code":"511083103003","zip_code":"642159","city_code":"1832","name":"\u4e94\u53e3\u793e\u533a\u5c45\u59d4\u4f1a","short_name":"\u4e94\u53e3","merger_name":"\u56db\u5ddd,\u5185\u6c5f,\u9686\u660c,\u5723\u706f,\u4e94\u53e3","pinyin":"WuKou","lng":"105.219181","lat":"29.302549"},{"id":575129,"parent_id":575125,"level":4,"area_code":"511083103201","zip_code":"642159","city_code":"1832","name":"\u726f\u725b\u6751\u6751\u6c11\u59d4\u5458\u4f1a","short_name":"\u726f\u725b\u6751","merger_name":"\u56db\u5ddd,\u5185\u6c5f,\u9686\u660c,\u5723\u706f,\u726f\u725b\u6751","pinyin":"GuNiuCun","lng":"105.170360","lat":"29.264660"},{"id":575130,"parent_id":575125,"level":4,"area_code":"511083103202","zip_code":"642159","city_code":"1832","name":"\u77f3\u677f\u6751\u6751\u6c11\u59d4\u5458\u4f1a","short_name":"\u77f3\u677f\u6751","merger_name":"\u56db\u5ddd,\u5185\u6c5f,\u9686\u660c,\u5723\u706f,\u77f3\u677f\u6751","pinyin":"ShiBanCun","lng":"105.251710","lat":"29.300230"},{"id":575131,"parent_id":575125,"level":4,"area_code":"511083103203","zip_code":"642159","city_code":"1832","name":"\u5723\u5149\u6751\u6751\u6c11\u59d4\u5458\u4f1a","short_name":"\u5723\u5149\u6751","merger_name":"\u56db\u5ddd,\u5185\u6c5f,\u9686\u660c,\u5723\u706f,\u5723\u5149\u6751","pinyin":"ShengGuangCun","lng":"105.235990","lat":"29.291240"},{"id":575132,"parent_id":575125,"level":4,"area_code":"511083103204","zip_code":"642159","city_code":"1832","name":"\u5929\u87ba\u6751\u6751\u6c11\u59d4\u5458\u4f1a","short_name":"\u5929\u87ba\u6751","merger_name":"\u56db\u5ddd,\u5185\u6c5f,\u9686\u660c,\u5723\u706f,\u5929\u87ba\u6751","pinyin":"TianLuoCun","lng":"105.189710","lat":"29.294370"},{"id":575133,"parent_id":575125,"level":4,"area_code":"511083103205","zip_code":"642159","city_code":"1832","name":"\u5927\u6865\u6751\u6751\u6c11\u59d4\u5458\u4f1a","short_name":"\u5927\u6865\u6751","merger_name":"\u56db\u5ddd,\u5185\u6c5f,\u9686\u660c,\u5723\u706f,\u5927\u6865\u6751","pinyin":"DaQiaoCun","lng":"105.170360","lat":"29.264660"},{"id":575134,"parent_id":575125,"level":4,"area_code":"511083103206","zip_code":"642159","city_code":"1832","name":"\u5c0f\u6cb3\u6751\u6751\u6c11\u59d4\u5458\u4f1a","short_name":"\u5c0f\u6cb3\u6751","merger_name":"\u56db\u5ddd,\u5185\u6c5f,\u9686\u660c,\u5723\u706f,\u5c0f\u6cb3\u6751","pinyin":"XiaoHeCun","lng":"105.251710","lat":"29.300230"},{"id":575135,"parent_id":575125,"level":4,"area_code":"511083103207","zip_code":"642159","city_code":"1832","name":"\u4e94\u53e3\u6751\u6751\u6c11\u59d4\u5458\u4f1a","short_name":"\u4e94\u53e3\u6751","merger_name":"\u56db\u5ddd,\u5185\u6c5f,\u9686\u660c,\u5723\u706f,\u4e94\u53e3\u6751","pinyin":"WuKouCun","lng":"105.225940","lat":"29.305980"},{"id":575136,"parent_id":575125,"level":4,"area_code":"511083103208","zip_code":"642159","city_code":"1832","name":"\u767d\u8346\u6751\u6751\u6c11\u59d4\u5458\u4f1a","short_name":"\u767d\u8346\u6751","merger_name":"\u56db\u5ddd,\u5185\u6c5f,\u9686\u660c,\u5723\u706f,\u767d\u8346\u6751","pinyin":"BaiJingCun","lng":"105.213820","lat":"29.302000"},{"id":575137,"parent_id":575125,"level":4,"area_code":"511083103209","zip_code":"642159","city_code":"1832","name":"\u4e09\u53f0\u6751\u6751\u6c11\u59d4\u5458\u4f1a","short_name":"\u4e09\u53f0\u6751","merger_name":"\u56db\u5ddd,\u5185\u6c5f,\u9686\u660c,\u5723\u706f,\u4e09\u53f0\u6751","pinyin":"SanTaiCun","lng":"105.189710","lat":"29.294370"},{"id":575138,"parent_id":575125,"level":4,"area_code":"511083103210","zip_code":"642159","city_code":"1832","name":"\u4e8c\u90ce\u6751\u6751\u6c11\u59d4\u5458\u4f1a","short_name":"\u4e8c\u90ce\u6751","merger_name":"\u56db\u5ddd,\u5185\u6c5f,\u9686\u660c,\u5723\u706f,\u4e8c\u90ce\u6751","pinyin":"ErLangCun","lng":"105.170360","lat":"29.264660"},{"id":575139,"parent_id":575125,"level":4,"area_code":"511083103211","zip_code":"642159","city_code":"1832","name":"\u5929\u5cf0\u6751\u6751\u6c11\u59d4\u5458\u4f1a","short_name":"\u5929\u5cf0\u6751","merger_name":"\u56db\u5ddd,\u5185\u6c5f,\u9686\u660c,\u5723\u706f,\u5929\u5cf0\u6751","pinyin":"TianFengCun","lng":"105.189710","lat":"29.294370"},{"id":575140,"parent_id":575125,"level":4,"area_code":"511083103212","zip_code":"642159","city_code":"1832","name":"\u68a8\u56ed\u6751\u6751\u6c11\u59d4\u5458\u4f1a","short_name":"\u68a8\u56ed\u6751","merger_name":"\u56db\u5ddd,\u5185\u6c5f,\u9686\u660c,\u5723\u706f,\u68a8\u56ed\u6751","pinyin":"LiYuanCun","lng":"105.189710","lat":"29.294370"},{"id":575141,"parent_id":575032,"level":3,"area_code":"511083104000","zip_code":"642153","city_code":"1832","name":"\u9ec4\u5bb6\u9547","short_name":"\u9ec4\u5bb6","merger_name":"\u56db\u5ddd,\u5185\u6c5f,\u9686\u660c,\u9ec4\u5bb6","pinyin":"HuangJia","lng":"105.116100","lat":"29.384510"},{"id":575142,"parent_id":575141,"level":4,"area_code":"511083104001","zip_code":"642153","city_code":"1832","name":"\u9ec4\u5bb6\u793e\u533a\u5c45\u59d4\u4f1a","short_name":"\u9ec4\u5bb6","merger_name":"\u56db\u5ddd,\u5185\u6c5f,\u9686\u660c,\u9ec4\u5bb6,\u9ec4\u5bb6","pinyin":"HuangJia","lng":"105.189710","lat":"29.294370"},{"id":575143,"parent_id":575141,"level":4,"area_code":"511083104002","zip_code":"642153","city_code":"1832","name":"\u5148\u950b\u793e\u533a\u5c45\u59d4\u4f1a","short_name":"\u5148\u950b","merger_name":"\u56db\u5ddd,\u5185\u6c5f,\u9686\u660c,\u9ec4\u5bb6,\u5148\u950b","pinyin":"XianFeng","lng":"105.215390","lat":"29.262560"},{"id":575144,"parent_id":575141,"level":4,"area_code":"511083104201","zip_code":"642153","city_code":"1832","name":"\u5357\u534e\u6751\u6751\u6c11\u59d4\u5458\u4f1a","short_name":"\u5357\u534e\u6751","merger_name":"\u56db\u5ddd,\u5185\u6c5f,\u9686\u660c,\u9ec4\u5bb6,\u5357\u534e\u6751","pinyin":"NanHuaCun","lng":"105.112229","lat":"29.379658"},{"id":575145,"parent_id":575141,"level":4,"area_code":"511083104202","zip_code":"642153","city_code":"1832","name":"\u4e5d\u5b50\u5ca9\u6751\u6751\u6c11\u59d4\u5458\u4f1a","short_name":"\u4e5d\u5b50\u5ca9\u6751","merger_name":"\u56db\u5ddd,\u5185\u6c5f,\u9686\u660c,\u9ec4\u5bb6,\u4e5d\u5b50\u5ca9\u6751","pinyin":"JiuZiYanCun","lng":"105.132850","lat":"29.378800"},{"id":575146,"parent_id":575141,"level":4,"area_code":"511083104203","zip_code":"642153","city_code":"1832","name":"\u9ed4\u5cf0\u6751\u6751\u6c11\u59d4\u5458\u4f1a","short_name":"\u9ed4\u5cf0\u6751","merger_name":"\u56db\u5ddd,\u5185\u6c5f,\u9686\u660c,\u9ec4\u5bb6,\u9ed4\u5cf0\u6751","pinyin":"QianFengCun","lng":"105.114840","lat":"29.373620"},{"id":575147,"parent_id":575141,"level":4,"area_code":"511083104204","zip_code":"642153","city_code":"1832","name":"\u957f\u52c7\u6751\u6751\u6c11\u59d4\u5458\u4f1a","short_name":"\u957f\u52c7\u6751","merger_name":"\u56db\u5ddd,\u5185\u6c5f,\u9686\u660c,\u9ec4\u5bb6,\u957f\u52c7\u6751","pinyin":"ZhangYongCun","lng":"105.123890","lat":"29.368860"},{"id":575148,"parent_id":575141,"level":4,"area_code":"511083104205","zip_code":"642153","city_code":"1832","name":"\u5927\u540c\u6751\u6751\u6c11\u59d4\u5458\u4f1a","short_name":"\u5927\u540c\u6751","merger_name":"\u56db\u5ddd,\u5185\u6c5f,\u9686\u660c,\u9ec4\u5bb6,\u5927\u540c\u6751","pinyin":"DaTongCun","lng":"105.132850","lat":"29.378800"},{"id":575149,"parent_id":575141,"level":4,"area_code":"511083104206","zip_code":"642153","city_code":"1832","name":"\u718a\u5bb6\u6797\u6751\u6751\u6c11\u59d4\u5458\u4f1a","short_name":"\u718a\u5bb6\u6797\u6751","merger_name":"\u56db\u5ddd,\u5185\u6c5f,\u9686\u660c,\u9ec4\u5bb6,\u718a\u5bb6\u6797\u6751","pinyin":"XiongJiaLinCun","lng":"105.143820","lat":"29.390410"},{"id":575150,"parent_id":575141,"level":4,"area_code":"511083104207","zip_code":"642153","city_code":"1832","name":"\u9152\u8c37\u6751\u6751\u6c11\u59d4\u5458\u4f1a","short_name":"\u9152\u8c37\u6751","merger_name":"\u56db\u5ddd,\u5185\u6c5f,\u9686\u660c,\u9ec4\u5bb6,\u9152\u8c37\u6751","pinyin":"JiuGuCun","lng":"105.135380","lat":"29.401280"},{"id":575151,"parent_id":575141,"level":4,"area_code":"511083104208","zip_code":"642153","city_code":"1832","name":"\u9f99\u738b\u6751\u6751\u6c11\u59d4\u5458\u4f1a","short_name":"\u9f99\u738b\u6751","merger_name":"\u56db\u5ddd,\u5185\u6c5f,\u9686\u660c,\u9ec4\u5bb6,\u9f99\u738b\u6751","pinyin":"LongWangCun","lng":"105.189710","lat":"29.294370"},{"id":575152,"parent_id":575141,"level":4,"area_code":"511083104209","zip_code":"642153","city_code":"1832","name":"\u9f99\u5a01\u6751\u6751\u6c11\u59d4\u5458\u4f1a","short_name":"\u9f99\u5a01\u6751","merger_name":"\u56db\u5ddd,\u5185\u6c5f,\u9686\u660c,\u9ec4\u5bb6,\u9f99\u5a01\u6751","pinyin":"LongWeiCun","lng":"105.100770","lat":"29.404830"},{"id":575153,"parent_id":575141,"level":4,"area_code":"511083104210","zip_code":"642153","city_code":"1832","name":"\u90ed\u5bb6\u7960\u6751\u6751\u6c11\u59d4\u5458\u4f1a","short_name":"\u90ed\u5bb6\u7960\u6751","merger_name":"\u56db\u5ddd,\u5185\u6c5f,\u9686\u660c,\u9ec4\u5bb6,\u90ed\u5bb6\u7960\u6751","pinyin":"GuoJiaCiCun","lng":"105.141080","lat":"29.364280"},{"id":575154,"parent_id":575141,"level":4,"area_code":"511083104211","zip_code":"642153","city_code":"1832","name":"\u65bd\u5bb6\u6751\u6751\u6c11\u59d4\u5458\u4f1a","short_name":"\u65bd\u5bb6\u6751","merger_name":"\u56db\u5ddd,\u5185\u6c5f,\u9686\u660c,\u9ec4\u5bb6,\u65bd\u5bb6\u6751","pinyin":"ShiJiaCun","lng":"105.189710","lat":"29.294370"},{"id":575155,"parent_id":575141,"level":4,"area_code":"511083104212","zip_code":"642153","city_code":"1832","name":"\u77ee\u6d1e\u6751\u6751\u6c11\u59d4\u5458\u4f1a","short_name":"\u77ee\u6d1e\u6751","merger_name":"\u56db\u5ddd,\u5185\u6c5f,\u9686\u660c,\u9ec4\u5bb6,\u77ee\u6d1e\u6751","pinyin":"AiDongCun","lng":"105.088300","lat":"29.401320"},{"id":575156,"parent_id":575141,"level":4,"area_code":"511083104213","zip_code":"642153","city_code":"1832","name":"\u5f20\u72ee\u6751\u6751\u6c11\u59d4\u5458\u4f1a","short_name":"\u5f20\u72ee\u6751","merger_name":"\u56db\u5ddd,\u5185\u6c5f,\u9686\u660c,\u9ec4\u5bb6,\u5f20\u72ee\u6751","pinyin":"ZhangShiCun","lng":"105.189710","lat":"29.294370"},{"id":575157,"parent_id":575141,"level":4,"area_code":"511083104214","zip_code":"642153","city_code":"1832","name":"\u89c2\u97f3\u5ca9\u6751\u6751\u6c11\u59d4\u5458\u4f1a","short_name":"\u89c2\u97f3\u5ca9\u6751","merger_name":"\u56db\u5ddd,\u5185\u6c5f,\u9686\u660c,\u9ec4\u5bb6,\u89c2\u97f3\u5ca9\u6751","pinyin":"GuanYinYanCun","lng":"105.189710","lat":"29.294370"},{"id":575158,"parent_id":575141,"level":4,"area_code":"511083104215","zip_code":"642153","city_code":"1832","name":"\u5927\u4f5b\u6751\u6751\u6c11\u59d4\u5458\u4f1a","short_name":"\u5927\u4f5b\u6751","merger_name":"\u56db\u5ddd,\u5185\u6c5f,\u9686\u660c,\u9ec4\u5bb6,\u5927\u4f5b\u6751","pinyin":"DaFoCun","lng":"104.962220","lat":"29.912580"},{"id":575159,"parent_id":575141,"level":4,"area_code":"511083104216","zip_code":"642153","city_code":"1832","name":"\u6728\u5320\u51b2\u6751\u6751\u6c11\u59d4\u5458\u4f1a","short_name":"\u6728\u5320\u51b2\u6751","merger_name":"\u56db\u5ddd,\u5185\u6c5f,\u9686\u660c,\u9ec4\u5bb6,\u6728\u5320\u51b2\u6751","pinyin":"MuJiangChongCun","lng":"105.089940","lat":"29.377880"},{"id":575160,"parent_id":575141,"level":4,"area_code":"511083104217","zip_code":"642153","city_code":"1832","name":"\u5171\u548c\u6751\u6751\u6c11\u59d4\u5458\u4f1a","short_name":"\u5171\u548c\u6751","merger_name":"\u56db\u5ddd,\u5185\u6c5f,\u9686\u660c,\u9ec4\u5bb6,\u5171\u548c\u6751","pinyin":"GongHeCun","lng":"105.189710","lat":"29.294370"},{"id":575161,"parent_id":575141,"level":4,"area_code":"511083104218","zip_code":"642153","city_code":"1832","name":"\u65b0\u51e4\u6751\u6751\u6c11\u59d4\u5458\u4f1a","short_name":"\u65b0\u51e4\u6751","merger_name":"\u56db\u5ddd,\u5185\u6c5f,\u9686\u660c,\u9ec4\u5bb6,\u65b0\u51e4\u6751","pinyin":"XinFengCun","lng":"105.189710","lat":"29.294370"},{"id":575162,"parent_id":575141,"level":4,"area_code":"511083104219","zip_code":"642153","city_code":"1832","name":"\u5229\u7fa4\u6751\u6751\u6c11\u59d4\u5458\u4f1a","short_name":"\u5229\u7fa4\u6751","merger_name":"\u56db\u5ddd,\u5185\u6c5f,\u9686\u660c,\u9ec4\u5bb6,\u5229\u7fa4\u6751","pinyin":"LiQunCun","lng":"105.189710","lat":"29.294370"},{"id":575163,"parent_id":575141,"level":4,"area_code":"511083104220","zip_code":"642153","city_code":"1832","name":"\u5858\u6e7e\u6751\u6751\u6c11\u59d4\u5458\u4f1a","short_name":"\u5858\u6e7e\u6751","merger_name":"\u56db\u5ddd,\u5185\u6c5f,\u9686\u660c,\u9ec4\u5bb6,\u5858\u6e7e\u6751","pinyin":"TangWanCun","lng":"105.189710","lat":"29.294370"},{"id":575164,"parent_id":575141,"level":4,"area_code":"511083104221","zip_code":"642153","city_code":"1832","name":"\u65b0\u5149\u6751\u6751\u6c11\u59d4\u5458\u4f1a","short_name":"\u65b0\u5149\u6751","merger_name":"\u56db\u5ddd,\u5185\u6c5f,\u9686\u660c,\u9ec4\u5bb6,\u65b0\u5149\u6751","pinyin":"XinGuangCun","lng":"105.189710","lat":"29.294370"},{"id":575165,"parent_id":575141,"level":4,"area_code":"511083104222","zip_code":"642153","city_code":"1832","name":"\u4f55\u5bb6\u6751\u6751\u6c11\u59d4\u5458\u4f1a","short_name":"\u4f55\u5bb6\u6751","merger_name":"\u56db\u5ddd,\u5185\u6c5f,\u9686\u660c,\u9ec4\u5bb6,\u4f55\u5bb6\u6751","pinyin":"HeJiaCun","lng":"105.126076","lat":"29.298099"},{"id":575166,"parent_id":575141,"level":4,"area_code":"511083104223","zip_code":"642153","city_code":"1832","name":"\u7ea2\u661f\u6751\u6751\u6c11\u59d4\u5458\u4f1a","short_name":"\u7ea2\u661f\u6751","merger_name":"\u56db\u5ddd,\u5185\u6c5f,\u9686\u660c,\u9ec4\u5bb6,\u7ea2\u661f\u6751","pinyin":"HongXingCun","lng":"105.189710","lat":"29.294370"},{"id":575167,"parent_id":575141,"level":4,"area_code":"511083104224","zip_code":"642153","city_code":"1832","name":"\u4e2d\u5fc3\u6751\u6751\u6c11\u59d4\u5458\u4f1a","short_name":"\u4e2d\u5fc3\u6751","merger_name":"\u56db\u5ddd,\u5185\u6c5f,\u9686\u660c,\u9ec4\u5bb6,\u4e2d\u5fc3\u6751","pinyin":"ZhongXinCun","lng":"105.189710","lat":"29.294370"},{"id":575168,"parent_id":575141,"level":4,"area_code":"511083104225","zip_code":"642153","city_code":"1832","name":"\u767d\u6c99\u6751\u6751\u6c11\u59d4\u5458\u4f1a","short_name":"\u767d\u6c99\u6751","merger_name":"\u56db\u5ddd,\u5185\u6c5f,\u9686\u660c,\u9ec4\u5bb6,\u767d\u6c99\u6751","pinyin":"BaiShaCun","lng":"105.189710","lat":"29.294370"},{"id":575169,"parent_id":575141,"level":4,"area_code":"511083104226","zip_code":"642153","city_code":"1832","name":"\u87ba\u86f3\u6751\u6751\u6c11\u59d4\u5458\u4f1a","short_name":"\u87ba\u86f3\u6751","merger_name":"\u56db\u5ddd,\u5185\u6c5f,\u9686\u660c,\u9ec4\u5bb6,\u87ba\u86f3\u6751","pinyin":"LuoSiCun","lng":"105.123780","lat":"29.356030"},{"id":575170,"parent_id":575141,"level":4,"area_code":"511083104227","zip_code":"642153","city_code":"1832","name":"\u767d\u9f99\u6751\u6751\u6c11\u59d4\u5458\u4f1a","short_name":"\u767d\u9f99\u6751","merger_name":"\u56db\u5ddd,\u5185\u6c5f,\u9686\u660c,\u9ec4\u5bb6,\u767d\u9f99\u6751","pinyin":"BaiLongCun","lng":"105.189710","lat":"29.294370"},{"id":575171,"parent_id":575141,"level":4,"area_code":"511083104228","zip_code":"642153","city_code":"1832","name":"\u83ab\u5bb6\u6751\u6751\u6c11\u59d4\u5458\u4f1a","short_name":"\u83ab\u5bb6\u6751","merger_name":"\u56db\u5ddd,\u5185\u6c5f,\u9686\u660c,\u9ec4\u5bb6,\u83ab\u5bb6\u6751","pinyin":"MoJiaCun","lng":"105.189710","lat":"29.294370"},{"id":575172,"parent_id":575141,"level":4,"area_code":"511083104229","zip_code":"642153","city_code":"1832","name":"\u4e5d\u9f99\u6751\u6751\u6c11\u59d4\u5458\u4f1a","short_name":"\u4e5d\u9f99\u6751","merger_name":"\u56db\u5ddd,\u5185\u6c5f,\u9686\u660c,\u9ec4\u5bb6,\u4e5d\u9f99\u6751","pinyin":"JiuLongCun","lng":"105.189710","lat":"29.294370"},{"id":575173,"parent_id":575141,"level":4,"area_code":"511083104230","zip_code":"642153","city_code":"1832","name":"\u96c6\u548c\u6751\u6751\u6c11\u59d4\u5458\u4f1a","short_name":"\u96c6\u548c\u6751","merger_name":"\u56db\u5ddd,\u5185\u6c5f,\u9686\u660c,\u9ec4\u5bb6,\u96c6\u548c\u6751","pinyin":"JiHeCun","lng":"105.189710","lat":"29.294370"},{"id":575174,"parent_id":575141,"level":4,"area_code":"511083104231","zip_code":"642153","city_code":"1832","name":"\u9a6c\u69fd\u6751\u6751\u6c11\u59d4\u5458\u4f1a","short_name":"\u9a6c\u69fd\u6751","merger_name":"\u56db\u5ddd,\u5185\u6c5f,\u9686\u660c,\u9ec4\u5bb6,\u9a6c\u69fd\u6751","pinyin":"MaCaoCun","lng":"105.083000","lat":"29.348710"},{"id":575175,"parent_id":575032,"level":3,"area_code":"511083105000","zip_code":"642161","city_code":"1832","name":"\u53cc\u51e4\u9547","short_name":"\u53cc\u51e4","merger_name":"\u56db\u5ddd,\u5185\u6c5f,\u9686\u660c,\u53cc\u51e4","pinyin":"ShuangFeng","lng":"105.148800","lat":"29.443240"},{"id":575176,"parent_id":575175,"level":4,"area_code":"511083105001","zip_code":"642161","city_code":"1832","name":"\u53cc\u51e4\u9a7f\u793e\u533a\u5c45\u59d4\u4f1a","short_name":"\u53cc\u51e4\u9a7f","merger_name":"\u56db\u5ddd,\u5185\u6c5f,\u9686\u660c,\u53cc\u51e4,\u53cc\u51e4\u9a7f","pinyin":"ShuangFengYi","lng":"105.216016","lat":"29.387736"},{"id":575177,"parent_id":575175,"level":4,"area_code":"511083105002","zip_code":"642161","city_code":"1832","name":"\u5e73\u5b89\u793e\u533a\u5c45\u59d4\u4f1a","short_name":"\u5e73\u5b89","merger_name":"\u56db\u5ddd,\u5185\u6c5f,\u9686\u660c,\u53cc\u51e4,\u5e73\u5b89","pinyin":"PingAn","lng":"105.076240","lat":"29.596060"},{"id":575178,"parent_id":575175,"level":4,"area_code":"511083105201","zip_code":"642161","city_code":"1832","name":"\u7d2b\u4e91\u6751\u6751\u6c11\u59d4\u5458\u4f1a","short_name":"\u7d2b\u4e91\u6751","merger_name":"\u56db\u5ddd,\u5185\u6c5f,\u9686\u660c,\u53cc\u51e4,\u7d2b\u4e91\u6751","pinyin":"ZiYunCun","lng":"105.153307","lat":"29.436542"},{"id":575179,"parent_id":575175,"level":4,"area_code":"511083105202","zip_code":"642161","city_code":"1832","name":"\u9ad8\u5bfa\u6751\u6751\u6c11\u59d4\u5458\u4f1a","short_name":"\u9ad8\u5bfa\u6751","merger_name":"\u56db\u5ddd,\u5185\u6c5f,\u9686\u660c,\u53cc\u51e4,\u9ad8\u5bfa\u6751","pinyin":"GaoSiCun","lng":"105.246321","lat":"29.378132"},{"id":575180,"parent_id":575175,"level":4,"area_code":"511083105203","zip_code":"642161","city_code":"1832","name":"\u79e7\u7530\u6751\u6751\u6c11\u59d4\u5458\u4f1a","short_name":"\u79e7\u7530\u6751","merger_name":"\u56db\u5ddd,\u5185\u6c5f,\u9686\u660c,\u53cc\u51e4,\u79e7\u7530\u6751","pinyin":"YangTianCun","lng":"105.246321","lat":"29.378132"},{"id":575181,"parent_id":575175,"level":4,"area_code":"511083105204","zip_code":"642161","city_code":"1832","name":"\u901a\u76db\u6751\u6751\u6c11\u59d4\u5458\u4f1a","short_name":"\u901a\u76db\u6751","merger_name":"\u56db\u5ddd,\u5185\u6c5f,\u9686\u660c,\u53cc\u51e4,\u901a\u76db\u6751","pinyin":"TongShengCun","lng":"105.133510","lat":"29.446250"},{"id":575182,"parent_id":575175,"level":4,"area_code":"511083105205","zip_code":"642161","city_code":"1832","name":"\u9f99\u706f\u6751\u6751\u6c11\u59d4\u5458\u4f1a","short_name":"\u9f99\u706f\u6751","merger_name":"\u56db\u5ddd,\u5185\u6c5f,\u9686\u660c,\u53cc\u51e4,\u9f99\u706f\u6751","pinyin":"LongDengCun","lng":"105.153307","lat":"29.436542"},{"id":575183,"parent_id":575175,"level":4,"area_code":"511083105206","zip_code":"642161","city_code":"1832","name":"\u94d9\u94b9\u6751\u6751\u6c11\u59d4\u5458\u4f1a","short_name":"\u94d9\u94b9\u6751","merger_name":"\u56db\u5ddd,\u5185\u6c5f,\u9686\u660c,\u53cc\u51e4,\u94d9\u94b9\u6751","pinyin":"NaoBoCun","lng":"105.153307","lat":"29.436542"},{"id":575184,"parent_id":575175,"level":4,"area_code":"511083105207","zip_code":"642161","city_code":"1832","name":"\u82b1\u5858\u6751\u6751\u6c11\u59d4\u5458\u4f1a","short_name":"\u82b1\u5858\u6751","merger_name":"\u56db\u5ddd,\u5185\u6c5f,\u9686\u660c,\u53cc\u51e4,\u82b1\u5858\u6751","pinyin":"HuaTangCun","lng":"105.246321","lat":"29.378132"},{"id":575185,"parent_id":575175,"level":4,"area_code":"511083105208","zip_code":"642161","city_code":"1832","name":"\u592a\u5b50\u6751\u6751\u6c11\u59d4\u5458\u4f1a","short_name":"\u592a\u5b50\u6751","merger_name":"\u56db\u5ddd,\u5185\u6c5f,\u9686\u660c,\u53cc\u51e4,\u592a\u5b50\u6751","pinyin":"TaiZiCun","lng":"105.153307","lat":"29.436542"},{"id":575186,"parent_id":575175,"level":4,"area_code":"511083105209","zip_code":"642161","city_code":"1832","name":"\u97e9\u5bb6\u6c9f\u6751\u6751\u6c11\u59d4\u5458\u4f1a","short_name":"\u97e9\u5bb6\u6c9f\u6751","merger_name":"\u56db\u5ddd,\u5185\u6c5f,\u9686\u660c,\u53cc\u51e4,\u97e9\u5bb6\u6c9f\u6751","pinyin":"HanJiaGouCun","lng":"105.246321","lat":"29.378132"},{"id":575187,"parent_id":575175,"level":4,"area_code":"511083105210","zip_code":"642161","city_code":"1832","name":"\u7ea2\u571f\u6751\u6751\u6c11\u59d4\u5458\u4f1a","short_name":"\u7ea2\u571f\u6751","merger_name":"\u56db\u5ddd,\u5185\u6c5f,\u9686\u660c,\u53cc\u51e4,\u7ea2\u571f\u6751","pinyin":"HongTuCun","lng":"105.148801","lat":"29.443232"},{"id":575188,"parent_id":575175,"level":4,"area_code":"511083105211","zip_code":"642161","city_code":"1832","name":"\u6cb3\u53e3\u6751\u6751\u6c11\u59d4\u5458\u4f1a","short_name":"\u6cb3\u53e3\u6751","merger_name":"\u56db\u5ddd,\u5185\u6c5f,\u9686\u660c,\u53cc\u51e4,\u6cb3\u53e3\u6751","pinyin":"HeKouCun","lng":"105.246321","lat":"29.378132"},{"id":575189,"parent_id":575175,"level":4,"area_code":"511083105212","zip_code":"642161","city_code":"1832","name":"\u4e07\u5b89\u6751\u6751\u6c11\u59d4\u5458\u4f1a","short_name":"\u4e07\u5b89\u6751","merger_name":"\u56db\u5ddd,\u5185\u6c5f,\u9686\u660c,\u53cc\u51e4,\u4e07\u5b89\u6751","pinyin":"WanAnCun","lng":"105.246321","lat":"29.378132"},{"id":575190,"parent_id":575175,"level":4,"area_code":"511083105213","zip_code":"642161","city_code":"1832","name":"\u5929\u6e7e\u6751\u6751\u6c11\u59d4\u5458\u4f1a","short_name":"\u5929\u6e7e\u6751","merger_name":"\u56db\u5ddd,\u5185\u6c5f,\u9686\u660c,\u53cc\u51e4,\u5929\u6e7e\u6751","pinyin":"TianWanCun","lng":"104.913980","lat":"29.751940"},{"id":575191,"parent_id":575175,"level":4,"area_code":"511083105214","zip_code":"642161","city_code":"1832","name":"\u53cc\u77f3\u6751\u6751\u6c11\u59d4\u5458\u4f1a","short_name":"\u53cc\u77f3\u6751","merger_name":"\u56db\u5ddd,\u5185\u6c5f,\u9686\u660c,\u53cc\u51e4,\u53cc\u77f3\u6751","pinyin":"ShuangShiCun","lng":"105.246321","lat":"29.378132"},{"id":575192,"parent_id":575175,"level":4,"area_code":"511083105215","zip_code":"642161","city_code":"1832","name":"\u7ea2\u82b1\u6751\u6751\u6c11\u59d4\u5458\u4f1a","short_name":"\u7ea2\u82b1\u6751","merger_name":"\u56db\u5ddd,\u5185\u6c5f,\u9686\u660c,\u53cc\u51e4,\u7ea2\u82b1\u6751","pinyin":"HongHuaCun","lng":"105.246321","lat":"29.378132"},{"id":575193,"parent_id":575175,"level":4,"area_code":"511083105216","zip_code":"642161","city_code":"1832","name":"\u82ad\u8549\u6751\u6751\u6c11\u59d4\u5458\u4f1a","short_name":"\u82ad\u8549\u6751","merger_name":"\u56db\u5ddd,\u5185\u6c5f,\u9686\u660c,\u53cc\u51e4,\u82ad\u8549\u6751","pinyin":"BaJiaoCun","lng":"105.021080","lat":"29.607400"},{"id":575194,"parent_id":575175,"level":4,"area_code":"511083105217","zip_code":"642161","city_code":"1832","name":"\u592a\u5e73\u6751\u6751\u6c11\u59d4\u5458\u4f1a","short_name":"\u592a\u5e73\u6751","merger_name":"\u56db\u5ddd,\u5185\u6c5f,\u9686\u660c,\u53cc\u51e4,\u592a\u5e73\u6751","pinyin":"TaiPingCun","lng":"105.246321","lat":"29.378132"},{"id":575195,"parent_id":575175,"level":4,"area_code":"511083105218","zip_code":"642161","city_code":"1832","name":"\u4eba\u6c11\u6751\u6751\u6c11\u59d4\u5458\u4f1a","short_name":"\u4eba\u6c11\u6751","merger_name":"\u56db\u5ddd,\u5185\u6c5f,\u9686\u660c,\u53cc\u51e4,\u4eba\u6c11\u6751","pinyin":"RenMinCun","lng":"105.246321","lat":"29.378132"},{"id":575196,"parent_id":575175,"level":4,"area_code":"511083105219","zip_code":"642161","city_code":"1832","name":"\u767d\u5e99\u6751\u6751\u6c11\u59d4\u5458\u4f1a","short_name":"\u767d\u5e99\u6751","merger_name":"\u56db\u5ddd,\u5185\u6c5f,\u9686\u660c,\u53cc\u51e4,\u767d\u5e99\u6751","pinyin":"BaiMiaoCun","lng":"105.246321","lat":"29.378132"},{"id":575197,"parent_id":575175,"level":4,"area_code":"511083105220","zip_code":"642161","city_code":"1832","name":"\u4f59\u5bb6\u6865\u6751\u6751\u6c11\u59d4\u5458\u4f1a","short_name":"\u4f59\u5bb6\u6865\u6751","merger_name":"\u56db\u5ddd,\u5185\u6c5f,\u9686\u660c,\u53cc\u51e4,\u4f59\u5bb6\u6865\u6751","pinyin":"YuJiaQiaoCun","lng":"105.108810","lat":"29.433930"},{"id":575198,"parent_id":575175,"level":4,"area_code":"511083105221","zip_code":"642161","city_code":"1832","name":"\u5eb5\u5802\u6751\u6751\u6c11\u59d4\u5458\u4f1a","short_name":"\u5eb5\u5802\u6751","merger_name":"\u56db\u5ddd,\u5185\u6c5f,\u9686\u660c,\u53cc\u51e4,\u5eb5\u5802\u6751","pinyin":"AnTangCun","lng":"105.165880","lat":"29.408570"},{"id":575199,"parent_id":575175,"level":4,"area_code":"511083105222","zip_code":"642161","city_code":"1832","name":"\u4ea4\u901a\u6751\u6751\u6c11\u59d4\u5458\u4f1a","short_name":"\u4ea4\u901a\u6751","merger_name":"\u56db\u5ddd,\u5185\u6c5f,\u9686\u660c,\u53cc\u51e4,\u4ea4\u901a\u6751","pinyin":"JiaoTongCun","lng":"105.246321","lat":"29.378132"},{"id":575200,"parent_id":575175,"level":4,"area_code":"511083105223","zip_code":"642161","city_code":"1832","name":"\u56de\u9f99\u6751\u6751\u6c11\u59d4\u5458\u4f1a","short_name":"\u56de\u9f99\u6751","merger_name":"\u56db\u5ddd,\u5185\u6c5f,\u9686\u660c,\u53cc\u51e4,\u56de\u9f99\u6751","pinyin":"HuiLongCun","lng":"105.246321","lat":"29.378132"},{"id":575201,"parent_id":575175,"level":4,"area_code":"511083105224","zip_code":"642161","city_code":"1832","name":"\u671d\u9633\u6751\u6751\u6c11\u59d4\u5458\u4f1a","short_name":"\u671d\u9633\u6751","merger_name":"\u56db\u5ddd,\u5185\u6c5f,\u9686\u660c,\u53cc\u51e4,\u671d\u9633\u6751","pinyin":"ZhaoYangCun","lng":"105.246321","lat":"29.378132"},{"id":575202,"parent_id":575175,"level":4,"area_code":"511083105225","zip_code":"642161","city_code":"1832","name":"\u571f\u5899\u6751\u6751\u6c11\u59d4\u5458\u4f1a","short_name":"\u571f\u5899\u6751","merger_name":"\u56db\u5ddd,\u5185\u6c5f,\u9686\u660c,\u53cc\u51e4,\u571f\u5899\u6751","pinyin":"TuQiangCun","lng":"105.174830","lat":"29.403140"},{"id":575203,"parent_id":575175,"level":4,"area_code":"511083105226","zip_code":"642161","city_code":"1832","name":"\u4e03\u91cc\u6751\u6751\u6c11\u59d4\u5458\u4f1a","short_name":"\u4e03\u91cc\u6751","merger_name":"\u56db\u5ddd,\u5185\u6c5f,\u9686\u660c,\u53cc\u51e4,\u4e03\u91cc\u6751","pinyin":"QiLiCun","lng":"105.246321","lat":"29.378132"},{"id":575204,"parent_id":575175,"level":4,"area_code":"511083105227","zip_code":"642161","city_code":"1832","name":"\u9ebb\u67f3\u6751\u6751\u6c11\u59d4\u5458\u4f1a","short_name":"\u9ebb\u67f3\u6751","merger_name":"\u56db\u5ddd,\u5185\u6c5f,\u9686\u660c,\u53cc\u51e4,\u9ebb\u67f3\u6751","pinyin":"MaLiuCun","lng":"105.246321","lat":"29.378132"},{"id":575205,"parent_id":575175,"level":4,"area_code":"511083105228","zip_code":"642161","city_code":"1832","name":"\u5c71\u5ce1\u6751\u6751\u6c11\u59d4\u5458\u4f1a","short_name":"\u5c71\u5ce1\u6751","merger_name":"\u56db\u5ddd,\u5185\u6c5f,\u9686\u660c,\u53cc\u51e4,\u5c71\u5ce1\u6751","pinyin":"ShanXiaCun","lng":"105.155420","lat":"29.412050"},{"id":575206,"parent_id":575032,"level":3,"area_code":"511083106000","zip_code":"642154","city_code":"1832","name":"\u9f99\u5e02\u9547","short_name":"\u9f99\u5e02","merger_name":"\u56db\u5ddd,\u5185\u6c5f,\u9686\u660c,\u9f99\u5e02","pinyin":"LongShi","lng":"105.190350","lat":"29.356150"},{"id":575207,"parent_id":575206,"level":4,"area_code":"511083106001","zip_code":"642154","city_code":"1832","name":"\u9f99\u5e02\u793e\u533a\u5c45\u59d4\u4f1a","short_name":"\u9f99\u5e02","merger_name":"\u56db\u5ddd,\u5185\u6c5f,\u9686\u660c,\u9f99\u5e02,\u9f99\u5e02","pinyin":"LongShi","lng":"105.280889","lat":"29.344631"},{"id":575208,"parent_id":575206,"level":4,"area_code":"511083106201","zip_code":"642154","city_code":"1832","name":"\u4e1c\u5cb3\u6751\u6751\u6c11\u59d4\u5458\u4f1a","short_name":"\u4e1c\u5cb3\u6751","merger_name":"\u56db\u5ddd,\u5185\u6c5f,\u9686\u660c,\u9f99\u5e02,\u4e1c\u5cb3\u6751","pinyin":"DongYueCun","lng":"105.246321","lat":"29.378132"},{"id":575209,"parent_id":575206,"level":4,"area_code":"511083106202","zip_code":"642154","city_code":"1832","name":"\u53cc\u9662\u6751\u6751\u6c11\u59d4\u5458\u4f1a","short_name":"\u53cc\u9662\u6751","merger_name":"\u56db\u5ddd,\u5185\u6c5f,\u9686\u660c,\u9f99\u5e02,\u53cc\u9662\u6751","pinyin":"ShuangYuanCun","lng":"105.189710","lat":"29.294370"},{"id":575210,"parent_id":575206,"level":4,"area_code":"511083106203","zip_code":"642154","city_code":"1832","name":"\u53cc\u9f99\u6865\u6751\u6751\u6c11\u59d4\u5458\u4f1a","short_name":"\u53cc\u9f99\u6865\u6751","merger_name":"\u56db\u5ddd,\u5185\u6c5f,\u9686\u660c,\u9f99\u5e02,\u53cc\u9f99\u6865\u6751","pinyin":"ShuangLongQiaoCun","lng":"105.246321","lat":"29.378132"},{"id":575211,"parent_id":575206,"level":4,"area_code":"511083106204","zip_code":"642154","city_code":"1832","name":"\u53f6\u5bb6\u6751\u6751\u6c11\u59d4\u5458\u4f1a","short_name":"\u53f6\u5bb6\u6751","merger_name":"\u56db\u5ddd,\u5185\u6c5f,\u9686\u660c,\u9f99\u5e02,\u53f6\u5bb6\u6751","pinyin":"YeJiaCun","lng":"105.246321","lat":"29.378132"},{"id":575212,"parent_id":575206,"level":4,"area_code":"511083106205","zip_code":"642154","city_code":"1832","name":"\u6731\u5bb6\u575d\u6751\u6751\u6c11\u59d4\u5458\u4f1a","short_name":"\u6731\u5bb6\u575d\u6751","merger_name":"\u56db\u5ddd,\u5185\u6c5f,\u9686\u660c,\u9f99\u5e02,\u6731\u5bb6\u575d\u6751","pinyin":"ZhuJiaBaCun","lng":"105.189710","lat":"29.294370"},{"id":575213,"parent_id":575206,"level":4,"area_code":"511083106206","zip_code":"642154","city_code":"1832","name":"\u6d4e\u5143\u6751\u6751\u6c11\u59d4\u5458\u4f1a","short_name":"\u6d4e\u5143\u6751","merger_name":"\u56db\u5ddd,\u5185\u6c5f,\u9686\u660c,\u9f99\u5e02,\u6d4e\u5143\u6751","pinyin":"JiYuanCun","lng":"105.189710","lat":"29.294370"},{"id":575214,"parent_id":575206,"level":4,"area_code":"511083106207","zip_code":"642154","city_code":"1832","name":"\u4ed8\u5bb6\u6e7e\u6751\u6751\u6c11\u59d4\u5458\u4f1a","short_name":"\u4ed8\u5bb6\u6e7e\u6751","merger_name":"\u56db\u5ddd,\u5185\u6c5f,\u9686\u660c,\u9f99\u5e02,\u4ed8\u5bb6\u6e7e\u6751","pinyin":"FuJiaWanCun","lng":"105.246321","lat":"29.378132"},{"id":575215,"parent_id":575206,"level":4,"area_code":"511083106208","zip_code":"642154","city_code":"1832","name":"\u9a91\u9f99\u6751\u6751\u6c11\u59d4\u5458\u4f1a","short_name":"\u9a91\u9f99\u6751","merger_name":"\u56db\u5ddd,\u5185\u6c5f,\u9686\u660c,\u9f99\u5e02,\u9a91\u9f99\u6751","pinyin":"QiLongCun","lng":"105.188010","lat":"29.329620"},{"id":575216,"parent_id":575206,"level":4,"area_code":"511083106209","zip_code":"642154","city_code":"1832","name":"\u6797\u5cf0\u6751\u6751\u6c11\u59d4\u5458\u4f1a","short_name":"\u6797\u5cf0\u6751","merger_name":"\u56db\u5ddd,\u5185\u6c5f,\u9686\u660c,\u9f99\u5e02,\u6797\u5cf0\u6751","pinyin":"LinFengCun","lng":"105.202300","lat":"29.318310"},{"id":575217,"parent_id":575206,"level":4,"area_code":"511083106210","zip_code":"642154","city_code":"1832","name":"\u5d07\u4f5b\u6751\u6751\u6c11\u59d4\u5458\u4f1a","short_name":"\u5d07\u4f5b\u6751","merger_name":"\u56db\u5ddd,\u5185\u6c5f,\u9686\u660c,\u9f99\u5e02,\u5d07\u4f5b\u6751","pinyin":"ChongFuCun","lng":"105.193700","lat":"29.363400"},{"id":575218,"parent_id":575206,"level":4,"area_code":"511083106211","zip_code":"642154","city_code":"1832","name":"\u5e2d\u9a6c\u6751\u6751\u6c11\u59d4\u5458\u4f1a","short_name":"\u5e2d\u9a6c\u6751","merger_name":"\u56db\u5ddd,\u5185\u6c5f,\u9686\u660c,\u9f99\u5e02,\u5e2d\u9a6c\u6751","pinyin":"XiMaCun","lng":"105.186210","lat":"29.377180"},{"id":575219,"parent_id":575206,"level":4,"area_code":"511083106212","zip_code":"642154","city_code":"1832","name":"\u6c5f\u590f\u6751\u6751\u6c11\u59d4\u5458\u4f1a","short_name":"\u6c5f\u590f\u6751","merger_name":"\u56db\u5ddd,\u5185\u6c5f,\u9686\u660c,\u9f99\u5e02,\u6c5f\u590f\u6751","pinyin":"JiangXiaCun","lng":"105.189710","lat":"29.294370"},{"id":575220,"parent_id":575206,"level":4,"area_code":"511083106213","zip_code":"642154","city_code":"1832","name":"\u5ca9\u6e7e\u6751\u6751\u6c11\u59d4\u5458\u4f1a","short_name":"\u5ca9\u6e7e\u6751","merger_name":"\u56db\u5ddd,\u5185\u6c5f,\u9686\u660c,\u9f99\u5e02,\u5ca9\u6e7e\u6751","pinyin":"YanWanCun","lng":"105.246321","lat":"29.378132"},{"id":575221,"parent_id":575206,"level":4,"area_code":"511083106214","zip_code":"642154","city_code":"1832","name":"\u70b9\u706f\u6751\u6751\u6c11\u59d4\u5458\u4f1a","short_name":"\u70b9\u706f\u6751","merger_name":"\u56db\u5ddd,\u5185\u6c5f,\u9686\u660c,\u9f99\u5e02,\u70b9\u706f\u6751","pinyin":"DianDengCun","lng":"105.189710","lat":"29.294370"},{"id":575222,"parent_id":575206,"level":4,"area_code":"511083106215","zip_code":"642154","city_code":"1832","name":"\u534a\u8fb9\u8857\u6751\u6751\u6c11\u59d4\u5458\u4f1a","short_name":"\u534a\u8fb9\u8857\u6751","merger_name":"\u56db\u5ddd,\u5185\u6c5f,\u9686\u660c,\u9f99\u5e02,\u534a\u8fb9\u8857\u6751","pinyin":"BanBianJieCun","lng":"105.189710","lat":"29.294370"},{"id":575223,"parent_id":575206,"level":4,"area_code":"511083106216","zip_code":"642154","city_code":"1832","name":"\u9e26\u77f3\u5c71\u6751\u6751\u6c11\u59d4\u5458\u4f1a","short_name":"\u9e26\u77f3\u5c71\u6751","merger_name":"\u56db\u5ddd,\u5185\u6c5f,\u9686\u660c,\u9f99\u5e02,\u9e26\u77f3\u5c71\u6751","pinyin":"YaShiShanCun","lng":"105.173630","lat":"29.365180"},{"id":575224,"parent_id":575206,"level":4,"area_code":"511083106217","zip_code":"642154","city_code":"1832","name":"\u4e91\u9f99\u6751\u6751\u6c11\u59d4\u5458\u4f1a","short_name":"\u4e91\u9f99\u6751","merger_name":"\u56db\u5ddd,\u5185\u6c5f,\u9686\u660c,\u9f99\u5e02,\u4e91\u9f99\u6751","pinyin":"YunLongCun","lng":"105.246321","lat":"29.378132"},{"id":575225,"parent_id":575206,"level":4,"area_code":"511083106218","zip_code":"642154","city_code":"1832","name":"\u4e24\u8def\u53e3\u6751\u6751\u6c11\u59d4\u5458\u4f1a","short_name":"\u4e24\u8def\u53e3\u6751","merger_name":"\u56db\u5ddd,\u5185\u6c5f,\u9686\u660c,\u9f99\u5e02,\u4e24\u8def\u53e3\u6751","pinyin":"LiangLuKouCun","lng":"105.231038","lat":"29.382140"},{"id":575226,"parent_id":575206,"level":4,"area_code":"511083106219","zip_code":"642154","city_code":"1832","name":"\u5830\u5858\u6e7e\u6751\u6751\u6c11\u59d4\u5458\u4f1a","short_name":"\u5830\u5858\u6e7e\u6751","merger_name":"\u56db\u5ddd,\u5185\u6c5f,\u9686\u660c,\u9f99\u5e02,\u5830\u5858\u6e7e\u6751","pinyin":"YanTangWanCun","lng":"105.246321","lat":"29.378132"},{"id":575227,"parent_id":575206,"level":4,"area_code":"511083106220","zip_code":"642154","city_code":"1832","name":"\u5927\u4e91\u6751\u6751\u6c11\u59d4\u5458\u4f1a","short_name":"\u5927\u4e91\u6751","merger_name":"\u56db\u5ddd,\u5185\u6c5f,\u9686\u660c,\u9f99\u5e02,\u5927\u4e91\u6751","pinyin":"DaYunCun","lng":"105.246321","lat":"29.378132"},{"id":575228,"parent_id":575206,"level":4,"area_code":"511083106221","zip_code":"642154","city_code":"1832","name":"\u8d3a\u5bb6\u6e7e\u6751\u6751\u6c11\u59d4\u5458\u4f1a","short_name":"\u8d3a\u5bb6\u6e7e\u6751","merger_name":"\u56db\u5ddd,\u5185\u6c5f,\u9686\u660c,\u9f99\u5e02,\u8d3a\u5bb6\u6e7e\u6751","pinyin":"HeJiaWanCun","lng":"105.246321","lat":"29.378132"},{"id":575229,"parent_id":575206,"level":4,"area_code":"511083106222","zip_code":"642154","city_code":"1832","name":"\u5927\u724c\u574a\u6751\u6751\u6c11\u59d4\u5458\u4f1a","short_name":"\u5927\u724c\u574a\u6751","merger_name":"\u56db\u5ddd,\u5185\u6c5f,\u9686\u660c,\u9f99\u5e02,\u5927\u724c\u574a\u6751","pinyin":"DaPaiFangCun","lng":"105.261380","lat":"29.329680"},{"id":575230,"parent_id":575206,"level":4,"area_code":"511083106223","zip_code":"642154","city_code":"1832","name":"\u798f\u5e86\u6751\u6751\u6c11\u59d4\u5458\u4f1a","short_name":"\u798f\u5e86\u6751","merger_name":"\u56db\u5ddd,\u5185\u6c5f,\u9686\u660c,\u9f99\u5e02,\u798f\u5e86\u6751","pinyin":"FuQingCun","lng":"105.189710","lat":"29.294370"},{"id":575231,"parent_id":575206,"level":4,"area_code":"511083106224","zip_code":"642154","city_code":"1832","name":"\u4e09\u5757\u7891\u6751\u6751\u6c11\u59d4\u5458\u4f1a","short_name":"\u4e09\u5757\u7891\u6751","merger_name":"\u56db\u5ddd,\u5185\u6c5f,\u9686\u660c,\u9f99\u5e02,\u4e09\u5757\u7891\u6751","pinyin":"SanKuaiBeiCun","lng":"105.189710","lat":"29.294370"},{"id":575232,"parent_id":575206,"level":4,"area_code":"511083106225","zip_code":"642154","city_code":"1832","name":"\u7532\u5b50\u6e7e\u6751\u6751\u6c11\u59d4\u5458\u4f1a","short_name":"\u7532\u5b50\u6e7e\u6751","merger_name":"\u56db\u5ddd,\u5185\u6c5f,\u9686\u660c,\u9f99\u5e02,\u7532\u5b50\u6e7e\u6751","pinyin":"JiaZiWanCun","lng":"105.200213","lat":"29.340457"},{"id":575233,"parent_id":575206,"level":4,"area_code":"511083106226","zip_code":"642154","city_code":"1832","name":"\u666e\u7167\u6751\u6751\u6c11\u59d4\u5458\u4f1a","short_name":"\u666e\u7167\u6751","merger_name":"\u56db\u5ddd,\u5185\u6c5f,\u9686\u660c,\u9f99\u5e02,\u666e\u7167\u6751","pinyin":"PuZhaoCun","lng":"105.189710","lat":"29.294370"},{"id":575234,"parent_id":575206,"level":4,"area_code":"511083106227","zip_code":"642154","city_code":"1832","name":"\u6d82\u5bb6\u6751\u6751\u6c11\u59d4\u5458\u4f1a","short_name":"\u6d82\u5bb6\u6751","merger_name":"\u56db\u5ddd,\u5185\u6c5f,\u9686\u660c,\u9f99\u5e02,\u6d82\u5bb6\u6751","pinyin":"TuJiaCun","lng":"105.245270","lat":"29.330250"},{"id":575235,"parent_id":575206,"level":4,"area_code":"511083106228","zip_code":"642154","city_code":"1832","name":"\u9ec4\u5761\u6751\u6751\u6c11\u59d4\u5458\u4f1a","short_name":"\u9ec4\u5761\u6751","merger_name":"\u56db\u5ddd,\u5185\u6c5f,\u9686\u660c,\u9f99\u5e02,\u9ec4\u5761\u6751","pinyin":"HuangPoCun","lng":"105.202704","lat":"29.331670"},{"id":575236,"parent_id":575206,"level":4,"area_code":"511083106229","zip_code":"642154","city_code":"1832","name":"\u69d0\u6811\u6751\u6751\u6c11\u59d4\u5458\u4f1a","short_name":"\u69d0\u6811\u6751","merger_name":"\u56db\u5ddd,\u5185\u6c5f,\u9686\u660c,\u9f99\u5e02,\u69d0\u6811\u6751","pinyin":"HuaiShuCun","lng":"105.246321","lat":"29.378132"},{"id":575237,"parent_id":575032,"level":3,"area_code":"511083107000","zip_code":"642162","city_code":"1832","name":"\u8fce\u7965\u9547","short_name":"\u8fce\u7965","merger_name":"\u56db\u5ddd,\u5185\u6c5f,\u9686\u660c,\u8fce\u7965","pinyin":"YingXiang","lng":"105.216300","lat":"29.387360"},{"id":575238,"parent_id":575237,"level":4,"area_code":"511083107001","zip_code":"642162","city_code":"1832","name":"\u8fce\u7965\u793e\u533a\u5c45\u59d4\u4f1a","short_name":"\u8fce\u7965","merger_name":"\u56db\u5ddd,\u5185\u6c5f,\u9686\u660c,\u8fce\u7965,\u8fce\u7965","pinyin":"YingXiang","lng":"105.216016","lat":"29.387736"},{"id":575239,"parent_id":575237,"level":4,"area_code":"511083107002","zip_code":"642162","city_code":"1832","name":"\u9ad8\u661f\u793e\u533a\u5c45\u59d4\u4f1a","short_name":"\u9ad8\u661f","merger_name":"\u56db\u5ddd,\u5185\u6c5f,\u9686\u660c,\u8fce\u7965,\u9ad8\u661f","pinyin":"GaoXing","lng":"105.216016","lat":"29.387736"},{"id":575240,"parent_id":575237,"level":4,"area_code":"511083107201","zip_code":"642162","city_code":"1832","name":"\u82a6\u7a3f\u6751\u6751\u6c11\u59d4\u5458\u4f1a","short_name":"\u82a6\u7a3f\u6751","merger_name":"\u56db\u5ddd,\u5185\u6c5f,\u9686\u660c,\u8fce\u7965,\u82a6\u7a3f\u6751","pinyin":"LuGaoCun","lng":"105.221360","lat":"29.384143"},{"id":575241,"parent_id":575237,"level":4,"area_code":"511083107202","zip_code":"642162","city_code":"1832","name":"\u952f\u5b50\u6751\u6751\u6c11\u59d4\u5458\u4f1a","short_name":"\u952f\u5b50\u6751","merger_name":"\u56db\u5ddd,\u5185\u6c5f,\u9686\u660c,\u8fce\u7965,\u952f\u5b50\u6751","pinyin":"JuZiCun","lng":"105.211841","lat":"29.389302"},{"id":575242,"parent_id":575237,"level":4,"area_code":"511083107203","zip_code":"642162","city_code":"1832","name":"\u6b66\u68da\u6751\u6751\u6c11\u59d4\u5458\u4f1a","short_name":"\u6b66\u68da\u6751","merger_name":"\u56db\u5ddd,\u5185\u6c5f,\u9686\u660c,\u8fce\u7965,\u6b66\u68da\u6751","pinyin":"WuPengCun","lng":"105.211841","lat":"29.389302"},{"id":575243,"parent_id":575237,"level":4,"area_code":"511083107204","zip_code":"642162","city_code":"1832","name":"\u5173\u5723\u6751\u6751\u6c11\u59d4\u5458\u4f1a","short_name":"\u5173\u5723\u6751","merger_name":"\u56db\u5ddd,\u5185\u6c5f,\u9686\u660c,\u8fce\u7965,\u5173\u5723\u6751","pinyin":"GuanShengCun","lng":"105.215830","lat":"29.385750"},{"id":575244,"parent_id":575237,"level":4,"area_code":"511083107205","zip_code":"642162","city_code":"1832","name":"\u5927\u7891\u6751\u6751\u6c11\u59d4\u5458\u4f1a","short_name":"\u5927\u7891\u6751","merger_name":"\u56db\u5ddd,\u5185\u6c5f,\u9686\u660c,\u8fce\u7965,\u5927\u7891\u6751","pinyin":"DaBeiCun","lng":"105.211841","lat":"29.389302"},{"id":575245,"parent_id":575237,"level":4,"area_code":"511083107206","zip_code":"642162","city_code":"1832","name":"\u6e05\u6cb3\u6751\u6751\u6c11\u59d4\u5458\u4f1a","short_name":"\u6e05\u6cb3\u6751","merger_name":"\u56db\u5ddd,\u5185\u6c5f,\u9686\u660c,\u8fce\u7965,\u6e05\u6cb3\u6751","pinyin":"QingHeCun","lng":"105.246321","lat":"29.378132"},{"id":575246,"parent_id":575237,"level":4,"area_code":"511083107207","zip_code":"642162","city_code":"1832","name":"\u6768\u5bb6\u5c71\u6751\u6751\u6c11\u59d4\u5458\u4f1a","short_name":"\u6768\u5bb6\u5c71\u6751","merger_name":"\u56db\u5ddd,\u5185\u6c5f,\u9686\u660c,\u8fce\u7965,\u6768\u5bb6\u5c71\u6751","pinyin":"YangJiaShanCun","lng":"105.208880","lat":"29.418220"},{"id":575247,"parent_id":575237,"level":4,"area_code":"511083107208","zip_code":"642162","city_code":"1832","name":"\u957f\u5761\u6751\u6751\u6c11\u59d4\u5458\u4f1a","short_name":"\u957f\u5761\u6751","merger_name":"\u56db\u5ddd,\u5185\u6c5f,\u9686\u660c,\u8fce\u7965,\u957f\u5761\u6751","pinyin":"ZhangPoCun","lng":"105.217980","lat":"29.393820"},{"id":575248,"parent_id":575237,"level":4,"area_code":"511083107209","zip_code":"642162","city_code":"1832","name":"\u677e\u6749\u6751\u6751\u6c11\u59d4\u5458\u4f1a","short_name":"\u677e\u6749\u6751","merger_name":"\u56db\u5ddd,\u5185\u6c5f,\u9686\u660c,\u8fce\u7965,\u677e\u6749\u6751","pinyin":"SongShanCun","lng":"105.211841","lat":"29.389302"},{"id":575249,"parent_id":575237,"level":4,"area_code":"511083107210","zip_code":"642162","city_code":"1832","name":"\u9f99\u6eaa\u6751\u6751\u6c11\u59d4\u5458\u4f1a","short_name":"\u9f99\u6eaa\u6751","merger_name":"\u56db\u5ddd,\u5185\u6c5f,\u9686\u660c,\u8fce\u7965,\u9f99\u6eaa\u6751","pinyin":"LongXiCun","lng":"105.221360","lat":"29.384143"},{"id":575250,"parent_id":575237,"level":4,"area_code":"511083107211","zip_code":"642162","city_code":"1832","name":"\u9ad8\u5bb6\u6751\u6751\u6c11\u59d4\u5458\u4f1a","short_name":"\u9ad8\u5bb6\u6751","merger_name":"\u56db\u5ddd,\u5185\u6c5f,\u9686\u660c,\u8fce\u7965,\u9ad8\u5bb6\u6751","pinyin":"GaoJiaCun","lng":"105.189710","lat":"29.294370"},{"id":575251,"parent_id":575237,"level":4,"area_code":"511083107212","zip_code":"642162","city_code":"1832","name":"\u65b0\u5e99\u6751\u6751\u6c11\u59d4\u5458\u4f1a","short_name":"\u65b0\u5e99\u6751","merger_name":"\u56db\u5ddd,\u5185\u6c5f,\u9686\u660c,\u8fce\u7965,\u65b0\u5e99\u6751","pinyin":"XinMiaoCun","lng":"105.189710","lat":"29.294370"},{"id":575252,"parent_id":575237,"level":4,"area_code":"511083107213","zip_code":"642162","city_code":"1832","name":"\u9ec4\u6877\u6751\u6751\u6c11\u59d4\u5458\u4f1a","short_name":"\u9ec4\u6877\u6751","merger_name":"\u56db\u5ddd,\u5185\u6c5f,\u9686\u660c,\u8fce\u7965,\u9ec4\u6877\u6751","pinyin":"HuangJueCun","lng":"105.246321","lat":"29.378132"},{"id":575253,"parent_id":575237,"level":4,"area_code":"511083107214","zip_code":"642162","city_code":"1832","name":"\u77f3\u5858\u6751\u6751\u6c11\u59d4\u5458\u4f1a","short_name":"\u77f3\u5858\u6751","merger_name":"\u56db\u5ddd,\u5185\u6c5f,\u9686\u660c,\u8fce\u7965,\u77f3\u5858\u6751","pinyin":"ShiTangCun","lng":"105.189710","lat":"29.294370"},{"id":575254,"parent_id":575237,"level":4,"area_code":"511083107215","zip_code":"642162","city_code":"1832","name":"\u5e7f\u4ed8\u6751\u6751\u6c11\u59d4\u5458\u4f1a","short_name":"\u5e7f\u4ed8\u6751","merger_name":"\u56db\u5ddd,\u5185\u6c5f,\u9686\u660c,\u8fce\u7965,\u5e7f\u4ed8\u6751","pinyin":"GuangFuCun","lng":"105.243310","lat":"29.407440"},{"id":575255,"parent_id":575237,"level":4,"area_code":"511083107216","zip_code":"642162","city_code":"1832","name":"\u91d1\u5c71\u6751\u6751\u6c11\u59d4\u5458\u4f1a","short_name":"\u91d1\u5c71\u6751","merger_name":"\u56db\u5ddd,\u5185\u6c5f,\u9686\u660c,\u8fce\u7965,\u91d1\u5c71\u6751","pinyin":"JinShanCun","lng":"105.189710","lat":"29.294370"},{"id":575256,"parent_id":575237,"level":4,"area_code":"511083107217","zip_code":"642162","city_code":"1832","name":"\u4e94\u7075\u6751\u6751\u6c11\u59d4\u5458\u4f1a","short_name":"\u4e94\u7075\u6751","merger_name":"\u56db\u5ddd,\u5185\u6c5f,\u9686\u660c,\u8fce\u7965,\u4e94\u7075\u6751","pinyin":"WuLingCun","lng":"105.251710","lat":"29.300230"},{"id":575257,"parent_id":575237,"level":4,"area_code":"511083107218","zip_code":"642162","city_code":"1832","name":"\u98de\u86fe\u6751\u6751\u6c11\u59d4\u5458\u4f1a","short_name":"\u98de\u86fe\u6751","merger_name":"\u56db\u5ddd,\u5185\u6c5f,\u9686\u660c,\u8fce\u7965,\u98de\u86fe\u6751","pinyin":"FeiECun","lng":"105.189710","lat":"29.294370"},{"id":575258,"parent_id":575237,"level":4,"area_code":"511083107219","zip_code":"642162","city_code":"1832","name":"\u4e09\u4f1a\u6751\u6751\u6c11\u59d4\u5458\u4f1a","short_name":"\u4e09\u4f1a\u6751","merger_name":"\u56db\u5ddd,\u5185\u6c5f,\u9686\u660c,\u8fce\u7965,\u4e09\u4f1a\u6751","pinyin":"SanHuiCun","lng":"105.189710","lat":"29.294370"},{"id":575259,"parent_id":575237,"level":4,"area_code":"511083107220","zip_code":"642162","city_code":"1832","name":"\u8584\u5200\u6751\u6751\u6c11\u59d4\u5458\u4f1a","short_name":"\u8584\u5200\u6751","merger_name":"\u56db\u5ddd,\u5185\u6c5f,\u9686\u660c,\u8fce\u7965,\u8584\u5200\u6751","pinyin":"BaoDaoCun","lng":"105.226510","lat":"29.436390"},{"id":575260,"parent_id":575237,"level":4,"area_code":"511083107221","zip_code":"642162","city_code":"1832","name":"\u6c34\u7af9\u6751\u6751\u6c11\u59d4\u5458\u4f1a","short_name":"\u6c34\u7af9\u6751","merger_name":"\u56db\u5ddd,\u5185\u6c5f,\u9686\u660c,\u8fce\u7965,\u6c34\u7af9\u6751","pinyin":"ShuiZhuCun","lng":"105.207200","lat":"29.433910"},{"id":575261,"parent_id":575237,"level":4,"area_code":"511083107222","zip_code":"642162","city_code":"1832","name":"\u9ad8\u5e99\u6751\u6751\u6c11\u59d4\u5458\u4f1a","short_name":"\u9ad8\u5e99\u6751","merger_name":"\u56db\u5ddd,\u5185\u6c5f,\u9686\u660c,\u8fce\u7965,\u9ad8\u5e99\u6751","pinyin":"GaoMiaoCun","lng":"105.189710","lat":"29.294370"},{"id":575262,"parent_id":575237,"level":4,"area_code":"511083107223","zip_code":"642162","city_code":"1832","name":"\u51c9\u5c71\u6751\u6751\u6c11\u59d4\u5458\u4f1a","short_name":"\u51c9\u5c71\u6751","merger_name":"\u56db\u5ddd,\u5185\u6c5f,\u9686\u660c,\u8fce\u7965,\u51c9\u5c71\u6751","pinyin":"LiangShanCun","lng":"105.246321","lat":"29.378132"},{"id":575263,"parent_id":575237,"level":4,"area_code":"511083107224","zip_code":"642162","city_code":"1832","name":"\u534e\u76db\u6751\u6751\u6c11\u59d4\u5458\u4f1a","short_name":"\u534e\u76db\u6751","merger_name":"\u56db\u5ddd,\u5185\u6c5f,\u9686\u660c,\u8fce\u7965,\u534e\u76db\u6751","pinyin":"HuaShengCun","lng":"105.211200","lat":"29.460900"},{"id":575264,"parent_id":575237,"level":4,"area_code":"511083107225","zip_code":"642162","city_code":"1832","name":"\u6c34\u9f99\u6751\u6751\u6c11\u59d4\u5458\u4f1a","short_name":"\u6c34\u9f99\u6751","merger_name":"\u56db\u5ddd,\u5185\u6c5f,\u9686\u660c,\u8fce\u7965,\u6c34\u9f99\u6751","pinyin":"ShuiLongCun","lng":"105.198230","lat":"29.448870"},{"id":575265,"parent_id":575032,"level":3,"area_code":"511083108000","zip_code":"642155","city_code":"1832","name":"\u754c\u5e02\u9547","short_name":"\u754c\u5e02","merger_name":"\u56db\u5ddd,\u5185\u6c5f,\u9686\u660c,\u754c\u5e02","pinyin":"JieShi","lng":"105.283840","lat":"29.459660"},{"id":575266,"parent_id":575265,"level":4,"area_code":"511083108001","zip_code":"642155","city_code":"1832","name":"\u754c\u5e02\u573a\u793e\u533a\u5c45\u59d4\u4f1a","short_name":"\u754c\u5e02\u573a","merger_name":"\u56db\u5ddd,\u5185\u6c5f,\u9686\u660c,\u754c\u5e02,\u754c\u5e02\u573a","pinyin":"JieShiChang","lng":"105.216016","lat":"29.387736"},{"id":575267,"parent_id":575265,"level":4,"area_code":"511083108002","zip_code":"642155","city_code":"1832","name":"\u5929\u534e\u793e\u533a\u5c45\u59d4\u4f1a","short_name":"\u5929\u534e","merger_name":"\u56db\u5ddd,\u5185\u6c5f,\u9686\u660c,\u754c\u5e02,\u5929\u534e","pinyin":"TianHua","lng":"104.862746","lat":"29.758121"},{"id":575268,"parent_id":575265,"level":4,"area_code":"511083108201","zip_code":"642155","city_code":"1832","name":"\u4e95\u573a\u6751\u6751\u6c11\u59d4\u5458\u4f1a","short_name":"\u4e95\u573a\u6751","merger_name":"\u56db\u5ddd,\u5185\u6c5f,\u9686\u660c,\u754c\u5e02,\u4e95\u573a\u6751","pinyin":"JingChangCun","lng":"105.284193","lat":"29.455661"},{"id":575269,"parent_id":575265,"level":4,"area_code":"511083108202","zip_code":"642155","city_code":"1832","name":"\u4e94\u91cc\u6751\u6751\u6c11\u59d4\u5458\u4f1a","short_name":"\u4e94\u91cc\u6751","merger_name":"\u56db\u5ddd,\u5185\u6c5f,\u9686\u660c,\u754c\u5e02,\u4e94\u91cc\u6751","pinyin":"WuLiCun","lng":"105.246321","lat":"29.378132"},{"id":575270,"parent_id":575265,"level":4,"area_code":"511083108203","zip_code":"642155","city_code":"1832","name":"\u9f99\u53f0\u6751\u6751\u6c11\u59d4\u5458\u4f1a","short_name":"\u9f99\u53f0\u6751","merger_name":"\u56db\u5ddd,\u5185\u6c5f,\u9686\u660c,\u754c\u5e02,\u9f99\u53f0\u6751","pinyin":"LongTaiCun","lng":"105.246321","lat":"29.378132"},{"id":575271,"parent_id":575265,"level":4,"area_code":"511083108204","zip_code":"642155","city_code":"1832","name":"\u828b\u8377\u6751\u6751\u6c11\u59d4\u5458\u4f1a","short_name":"\u828b\u8377\u6751","merger_name":"\u56db\u5ddd,\u5185\u6c5f,\u9686\u660c,\u754c\u5e02,\u828b\u8377\u6751","pinyin":"YuHeCun","lng":"105.246321","lat":"29.378132"},{"id":575272,"parent_id":575265,"level":4,"area_code":"511083108205","zip_code":"642155","city_code":"1832","name":"\u6842\u82b1\u6751\u6751\u6c11\u59d4\u5458\u4f1a","short_name":"\u6842\u82b1\u6751","merger_name":"\u56db\u5ddd,\u5185\u6c5f,\u9686\u660c,\u754c\u5e02,\u6842\u82b1\u6751","pinyin":"GuiHuaCun","lng":"105.246321","lat":"29.378132"},{"id":575273,"parent_id":575265,"level":4,"area_code":"511083108206","zip_code":"642155","city_code":"1832","name":"\u67cf\u6811\u6751\u6751\u6c11\u59d4\u5458\u4f1a","short_name":"\u67cf\u6811\u6751","merger_name":"\u56db\u5ddd,\u5185\u6c5f,\u9686\u660c,\u754c\u5e02,\u67cf\u6811\u6751","pinyin":"BaiShuCun","lng":"104.951880","lat":"29.858650"},{"id":575274,"parent_id":575265,"level":4,"area_code":"511083108207","zip_code":"642155","city_code":"1832","name":"\u738b\u5bb6\u6751\u6751\u6c11\u59d4\u5458\u4f1a","short_name":"\u738b\u5bb6\u6751","merger_name":"\u56db\u5ddd,\u5185\u6c5f,\u9686\u660c,\u754c\u5e02,\u738b\u5bb6\u6751","pinyin":"WangJiaCun","lng":"105.246321","lat":"29.378132"},{"id":575275,"parent_id":575265,"level":4,"area_code":"511083108208","zip_code":"642155","city_code":"1832","name":"\u5305\u5bb6\u5c71\u6751\u6751\u6c11\u59d4\u5458\u4f1a","short_name":"\u5305\u5bb6\u5c71\u6751","merger_name":"\u56db\u5ddd,\u5185\u6c5f,\u9686\u660c,\u754c\u5e02,\u5305\u5bb6\u5c71\u6751","pinyin":"BaoJiaShanCun","lng":"105.231038","lat":"29.382140"},{"id":575276,"parent_id":575265,"level":4,"area_code":"511083108209","zip_code":"642155","city_code":"1832","name":"\u69fd\u623f\u6751\u6751\u6c11\u59d4\u5458\u4f1a","short_name":"\u69fd\u623f\u6751","merger_name":"\u56db\u5ddd,\u5185\u6c5f,\u9686\u660c,\u754c\u5e02,\u69fd\u623f\u6751","pinyin":"CaoFangCun","lng":"105.246321","lat":"29.378132"},{"id":575277,"parent_id":575265,"level":4,"area_code":"511083108210","zip_code":"642155","city_code":"1832","name":"\u6f6e\u6c34\u6751\u6751\u6c11\u59d4\u5458\u4f1a","short_name":"\u6f6e\u6c34\u6751","merger_name":"\u56db\u5ddd,\u5185\u6c5f,\u9686\u660c,\u754c\u5e02,\u6f6e\u6c34\u6751","pinyin":"ChaoShuiCun","lng":"105.246321","lat":"29.378132"},{"id":575278,"parent_id":575265,"level":4,"area_code":"511083108211","zip_code":"642155","city_code":"1832","name":"\u6bb5\u5bb6\u6751\u6751\u6c11\u59d4\u5458\u4f1a","short_name":"\u6bb5\u5bb6\u6751","merger_name":"\u56db\u5ddd,\u5185\u6c5f,\u9686\u660c,\u754c\u5e02,\u6bb5\u5bb6\u6751","pinyin":"DuanJiaCun","lng":"105.330490","lat":"29.439320"},{"id":575279,"parent_id":575265,"level":4,"area_code":"511083108212","zip_code":"642155","city_code":"1832","name":"\u77f3\u4f5b\u5bfa\u6751\u6751\u6c11\u59d4\u5458\u4f1a","short_name":"\u77f3\u4f5b\u5bfa\u6751","merger_name":"\u56db\u5ddd,\u5185\u6c5f,\u9686\u660c,\u754c\u5e02,\u77f3\u4f5b\u5bfa\u6751","pinyin":"ShiFoSiCun","lng":"105.246321","lat":"29.378132"},{"id":575280,"parent_id":575265,"level":4,"area_code":"511083108213","zip_code":"642155","city_code":"1832","name":"\u70c2\u6ce5\u6751\u6751\u6c11\u59d4\u5458\u4f1a","short_name":"\u70c2\u6ce5\u6751","merger_name":"\u56db\u5ddd,\u5185\u6c5f,\u9686\u660c,\u754c\u5e02,\u70c2\u6ce5\u6751","pinyin":"LanNiCun","lng":"105.246321","lat":"29.378132"},{"id":575281,"parent_id":575265,"level":4,"area_code":"511083108214","zip_code":"642155","city_code":"1832","name":"\u8521\u5bb6\u5bfa\u6751\u6751\u6c11\u59d4\u5458\u4f1a","short_name":"\u8521\u5bb6\u5bfa\u6751","merger_name":"\u56db\u5ddd,\u5185\u6c5f,\u9686\u660c,\u754c\u5e02,\u8521\u5bb6\u5bfa\u6751","pinyin":"CaiJiaSiCun","lng":"105.246321","lat":"29.378132"},{"id":575282,"parent_id":575265,"level":4,"area_code":"511083108215","zip_code":"642155","city_code":"1832","name":"\u8521\u5bb6\u6ee9\u6751\u6751\u6c11\u59d4\u5458\u4f1a","short_name":"\u8521\u5bb6\u6ee9\u6751","merger_name":"\u56db\u5ddd,\u5185\u6c5f,\u9686\u660c,\u754c\u5e02,\u8521\u5bb6\u6ee9\u6751","pinyin":"CaiJiaTanCun","lng":"105.231038","lat":"29.382140"},{"id":575283,"parent_id":575265,"level":4,"area_code":"511083108216","zip_code":"642155","city_code":"1832","name":"\u6e56\u6f6d\u6c9f\u6751\u6751\u6c11\u59d4\u5458\u4f1a","short_name":"\u6e56\u6f6d\u6c9f\u6751","merger_name":"\u56db\u5ddd,\u5185\u6c5f,\u9686\u660c,\u754c\u5e02,\u6e56\u6f6d\u6c9f\u6751","pinyin":"HuTanGouCun","lng":"105.246321","lat":"29.378132"},{"id":575284,"parent_id":575265,"level":4,"area_code":"511083108217","zip_code":"642155","city_code":"1832","name":"\u91d1\u76c6\u5bfa\u6751\u6751\u6c11\u59d4\u5458\u4f1a","short_name":"\u91d1\u76c6\u5bfa\u6751","merger_name":"\u56db\u5ddd,\u5185\u6c5f,\u9686\u660c,\u754c\u5e02,\u91d1\u76c6\u5bfa\u6751","pinyin":"JinPenSiCun","lng":"105.246321","lat":"29.378132"},{"id":575285,"parent_id":575265,"level":4,"area_code":"511083108218","zip_code":"642155","city_code":"1832","name":"\u6731\u5bb6\u576a\u6751\u6751\u6c11\u59d4\u5458\u4f1a","short_name":"\u6731\u5bb6\u576a\u6751","merger_name":"\u56db\u5ddd,\u5185\u6c5f,\u9686\u660c,\u754c\u5e02,\u6731\u5bb6\u576a\u6751","pinyin":"ZhuJiaPingCun","lng":"105.231038","lat":"29.382140"},{"id":575286,"parent_id":575265,"level":4,"area_code":"511083108219","zip_code":"642155","city_code":"1832","name":"\u674e\u5bb6\u5634\u6751\u6751\u6c11\u59d4\u5458\u4f1a","short_name":"\u674e\u5bb6\u5634\u6751","merger_name":"\u56db\u5ddd,\u5185\u6c5f,\u9686\u660c,\u754c\u5e02,\u674e\u5bb6\u5634\u6751","pinyin":"LiJiaZuiCun","lng":"105.246321","lat":"29.378132"},{"id":575287,"parent_id":575265,"level":4,"area_code":"511083108220","zip_code":"642155","city_code":"1832","name":"\u5927\u661f\u5bfa\u6751\u6751\u6c11\u59d4\u5458\u4f1a","short_name":"\u5927\u661f\u5bfa\u6751","merger_name":"\u56db\u5ddd,\u5185\u6c5f,\u9686\u660c,\u754c\u5e02,\u5927\u661f\u5bfa\u6751","pinyin":"DaXingSiCun","lng":"105.246321","lat":"29.378132"},{"id":575288,"parent_id":575265,"level":4,"area_code":"511083108221","zip_code":"642155","city_code":"1832","name":"\u5929\u5b9d\u6751\u6751\u6c11\u59d4\u5458\u4f1a","short_name":"\u5929\u5b9d\u6751","merger_name":"\u56db\u5ddd,\u5185\u6c5f,\u9686\u660c,\u754c\u5e02,\u5929\u5b9d\u6751","pinyin":"TianBaoCun","lng":"105.246321","lat":"29.378132"},{"id":575289,"parent_id":575265,"level":4,"area_code":"511083108222","zip_code":"642155","city_code":"1832","name":"\u5434\u5bb6\u7960\u6751\u6751\u6c11\u59d4\u5458\u4f1a","short_name":"\u5434\u5bb6\u7960\u6751","merger_name":"\u56db\u5ddd,\u5185\u6c5f,\u9686\u660c,\u754c\u5e02,\u5434\u5bb6\u7960\u6751","pinyin":"WuJiaCiCun","lng":"105.246321","lat":"29.378132"},