[{"id":719001,"parent_id":718984,"level":4,"area_code":"654223503516","zip_code":"832199","city_code":"0901","name":"\u5341\u516d\u8fde","short_name":"\u5341\u516d\u8fde","merger_name":"\u65b0\u7586,\u5854\u57ce,\u6c99\u6e7e,\u4e00\u4e8c\u4e00\u56e2,\u5341\u516d\u8fde","pinyin":"ShiLiuLian","lng":"85.722500","lat":"44.832300"},{"id":719002,"parent_id":718984,"level":4,"area_code":"654223503517","zip_code":"832199","city_code":"0901","name":"\u5341\u4e03\u8fde","short_name":"\u5341\u4e03\u8fde","merger_name":"\u65b0\u7586,\u5854\u57ce,\u6c99\u6e7e,\u4e00\u4e8c\u4e00\u56e2,\u5341\u4e03\u8fde","pinyin":"ShiQiLian","lng":"85.632470","lat":"44.807440"},{"id":719003,"parent_id":718984,"level":4,"area_code":"654223503518","zip_code":"832199","city_code":"0901","name":"\u5341\u516b\u8fde","short_name":"\u5341\u516b\u8fde","merger_name":"\u65b0\u7586,\u5854\u57ce,\u6c99\u6e7e,\u4e00\u4e8c\u4e00\u56e2,\u5341\u516b\u8fde","pinyin":"ShiBaLian","lng":"85.722500","lat":"44.832300"},{"id":719004,"parent_id":718984,"level":4,"area_code":"654223503519","zip_code":"832199","city_code":"0901","name":"\u5341\u4e5d\u8fde","short_name":"\u5341\u4e5d\u8fde","merger_name":"\u65b0\u7586,\u5854\u57ce,\u6c99\u6e7e,\u4e00\u4e8c\u4e00\u56e2,\u5341\u4e5d\u8fde","pinyin":"ShiJiuLian","lng":"85.634190","lat":"44.854300"},{"id":719005,"parent_id":718984,"level":4,"area_code":"654223503520","zip_code":"832199","city_code":"0901","name":"\u4e8c\u5341\u8fde","short_name":"\u4e8c\u5341\u8fde","merger_name":"\u65b0\u7586,\u5854\u57ce,\u6c99\u6e7e,\u4e00\u4e8c\u4e00\u56e2,\u4e8c\u5341\u8fde","pinyin":"ErShiLian","lng":"85.494660","lat":"44.822860"},{"id":719006,"parent_id":718984,"level":4,"area_code":"654223503521","zip_code":"832199","city_code":"0901","name":"\u4e8c\u5341\u4e00\u8fde","short_name":"\u4e8c\u5341\u4e00\u8fde","merger_name":"\u65b0\u7586,\u5854\u57ce,\u6c99\u6e7e,\u4e00\u4e8c\u4e00\u56e2,\u4e8c\u5341\u4e00\u8fde","pinyin":"ErShiYiLian","lng":"85.750550","lat":"44.338620"},{"id":719007,"parent_id":718984,"level":4,"area_code":"654223503522","zip_code":"832199","city_code":"0901","name":"\u4e8c\u5341\u4e8c\u8fde","short_name":"\u4e8c\u5341\u4e8c\u8fde","merger_name":"\u65b0\u7586,\u5854\u57ce,\u6c99\u6e7e,\u4e00\u4e8c\u4e00\u56e2,\u4e8c\u5341\u4e8c\u8fde","pinyin":"ErShiErLian","lng":"85.502100","lat":"44.464690"},{"id":719008,"parent_id":718984,"level":4,"area_code":"654223503523","zip_code":"832199","city_code":"0901","name":"\u4e8c\u5341\u4e09\u8fde","short_name":"\u4e8c\u5341\u4e09\u8fde","merger_name":"\u65b0\u7586,\u5854\u57ce,\u6c99\u6e7e,\u4e00\u4e8c\u4e00\u56e2,\u4e8c\u5341\u4e09\u8fde","pinyin":"ErShiSanLian","lng":"85.583970","lat":"44.835850"},{"id":719009,"parent_id":718984,"level":4,"area_code":"654223503524","zip_code":"832199","city_code":"0901","name":"\u4e8c\u5341\u56db\u8fde","short_name":"\u4e8c\u5341\u56db\u8fde","merger_name":"\u65b0\u7586,\u5854\u57ce,\u6c99\u6e7e,\u4e00\u4e8c\u4e00\u56e2,\u4e8c\u5341\u56db\u8fde","pinyin":"ErShiSiLian","lng":"85.722500","lat":"44.832300"},{"id":719010,"parent_id":718984,"level":4,"area_code":"654223503525","zip_code":"832199","city_code":"0901","name":"\u4e8c\u5341\u4e94\u8fde","short_name":"\u4e8c\u5341\u4e94\u8fde","merger_name":"\u65b0\u7586,\u5854\u57ce,\u6c99\u6e7e,\u4e00\u4e8c\u4e00\u56e2,\u4e8c\u5341\u4e94\u8fde","pinyin":"ErShiWuLian","lng":"85.722500","lat":"44.832300"},{"id":719011,"parent_id":718984,"level":4,"area_code":"654223503526","zip_code":"832199","city_code":"0901","name":"\u4e8c\u5341\u516d\u8fde","short_name":"\u4e8c\u5341\u516d\u8fde","merger_name":"\u65b0\u7586,\u5854\u57ce,\u6c99\u6e7e,\u4e00\u4e8c\u4e00\u56e2,\u4e8c\u5341\u516d\u8fde","pinyin":"ErShiLiuLian","lng":"85.683040","lat":"44.801940"},{"id":719012,"parent_id":718984,"level":4,"area_code":"654223503527","zip_code":"832199","city_code":"0901","name":"\u4e8c\u5341\u4e03\u8fde","short_name":"\u4e8c\u5341\u4e03\u8fde","merger_name":"\u65b0\u7586,\u5854\u57ce,\u6c99\u6e7e,\u4e00\u4e8c\u4e00\u56e2,\u4e8c\u5341\u4e03\u8fde","pinyin":"ErShiQiLian","lng":"85.722500","lat":"44.832300"},{"id":719013,"parent_id":718984,"level":4,"area_code":"654223503528","zip_code":"832199","city_code":"0901","name":"\u4e8c\u5341\u516b\u8fde","short_name":"\u4e8c\u5341\u516b\u8fde","merger_name":"\u65b0\u7586,\u5854\u57ce,\u6c99\u6e7e,\u4e00\u4e8c\u4e00\u56e2,\u4e8c\u5341\u516b\u8fde","pinyin":"ErShiBaLian","lng":"85.609090","lat":"44.820160"},{"id":719014,"parent_id":718984,"level":4,"area_code":"654223503529","zip_code":"832199","city_code":"0901","name":"\u4e8c\u5341\u4e5d\u8fde","short_name":"\u4e8c\u5341\u4e5d\u8fde","merger_name":"\u65b0\u7586,\u5854\u57ce,\u6c99\u6e7e,\u4e00\u4e8c\u4e00\u56e2,\u4e8c\u5341\u4e5d\u8fde","pinyin":"ErShiJiuLian","lng":"85.634190","lat":"44.854300"},{"id":719015,"parent_id":718984,"level":4,"area_code":"654223503530","zip_code":"832199","city_code":"0901","name":"\u4e09\u5341\u8fde","short_name":"\u4e09\u5341\u8fde","merger_name":"\u65b0\u7586,\u5854\u57ce,\u6c99\u6e7e,\u4e00\u4e8c\u4e00\u56e2,\u4e09\u5341\u8fde","pinyin":"SanShiLian","lng":"85.722500","lat":"44.832300"},{"id":719016,"parent_id":718984,"level":4,"area_code":"654223503531","zip_code":"832199","city_code":"0901","name":"\u4e09\u5341\u4e00\u8fde","short_name":"\u4e09\u5341\u4e00\u8fde","merger_name":"\u65b0\u7586,\u5854\u57ce,\u6c99\u6e7e,\u4e00\u4e8c\u4e00\u56e2,\u4e09\u5341\u4e00\u8fde","pinyin":"SanShiYiLian","lng":"85.609090","lat":"44.820160"},{"id":719017,"parent_id":718984,"level":4,"area_code":"654223503532","zip_code":"832199","city_code":"0901","name":"\u4e09\u5341\u4e8c\u8fde","short_name":"\u4e09\u5341\u4e8c\u8fde","merger_name":"\u65b0\u7586,\u5854\u57ce,\u6c99\u6e7e,\u4e00\u4e8c\u4e00\u56e2,\u4e09\u5341\u4e8c\u8fde","pinyin":"SanShiErLian","lng":"85.609090","lat":"44.820160"},{"id":719018,"parent_id":718984,"level":4,"area_code":"654223503533","zip_code":"832199","city_code":"0901","name":"\u4e09\u5341\u4e09\u8fde","short_name":"\u4e09\u5341\u4e09\u8fde","merger_name":"\u65b0\u7586,\u5854\u57ce,\u6c99\u6e7e,\u4e00\u4e8c\u4e00\u56e2,\u4e09\u5341\u4e09\u8fde","pinyin":"SanShiSanLian","lng":"85.722500","lat":"44.832300"},{"id":719019,"parent_id":718984,"level":4,"area_code":"654223503534","zip_code":"832199","city_code":"0901","name":"\u4e09\u5341\u56db\u8fde","short_name":"\u4e09\u5341\u56db\u8fde","merger_name":"\u65b0\u7586,\u5854\u57ce,\u6c99\u6e7e,\u4e00\u4e8c\u4e00\u56e2,\u4e09\u5341\u56db\u8fde","pinyin":"SanShiSiLian","lng":"85.609090","lat":"44.820160"},{"id":719020,"parent_id":718984,"level":4,"area_code":"654223503535","zip_code":"832199","city_code":"0901","name":"\u4e09\u5341\u4e94\u8fde","short_name":"\u4e09\u5341\u4e94\u8fde","merger_name":"\u65b0\u7586,\u5854\u57ce,\u6c99\u6e7e,\u4e00\u4e8c\u4e00\u56e2,\u4e09\u5341\u4e94\u8fde","pinyin":"SanShiWuLian","lng":"85.722500","lat":"44.832300"},{"id":719021,"parent_id":718984,"level":4,"area_code":"654223503536","zip_code":"832199","city_code":"0901","name":"\u4e09\u5341\u516d\u8fde","short_name":"\u4e09\u5341\u516d\u8fde","merger_name":"\u65b0\u7586,\u5854\u57ce,\u6c99\u6e7e,\u4e00\u4e8c\u4e00\u56e2,\u4e09\u5341\u516d\u8fde","pinyin":"SanShiLiuLian","lng":"85.683040","lat":"44.801940"},{"id":719022,"parent_id":718984,"level":4,"area_code":"654223503537","zip_code":"832199","city_code":"0901","name":"\u4e09\u5341\u4e03\u8fde","short_name":"\u4e09\u5341\u4e03\u8fde","merger_name":"\u65b0\u7586,\u5854\u57ce,\u6c99\u6e7e,\u4e00\u4e8c\u4e00\u56e2,\u4e09\u5341\u4e03\u8fde","pinyin":"SanShiQiLian","lng":"85.609090","lat":"44.820160"},{"id":719023,"parent_id":718984,"level":4,"area_code":"654223503538","zip_code":"832199","city_code":"0901","name":"\u4e09\u5341\u516b\u8fde","short_name":"\u4e09\u5341\u516b\u8fde","merger_name":"\u65b0\u7586,\u5854\u57ce,\u6c99\u6e7e,\u4e00\u4e8c\u4e00\u56e2,\u4e09\u5341\u516b\u8fde","pinyin":"SanShiBaLian","lng":"85.609090","lat":"44.820160"},{"id":719024,"parent_id":718704,"level":3,"area_code":"654223506000","zip_code":"834700","city_code":"0901","name":"\u5175\u56e2\u4e00\u4e09\u4e09\u56e2","short_name":"\u4e00\u4e09\u4e09\u56e2","merger_name":"\u65b0\u7586,\u5854\u57ce,\u6c99\u6e7e,\u4e00\u4e09\u4e09\u56e2","pinyin":"YiSanSanTuan","lng":"85.275080","lat":"44.668390"},{"id":719025,"parent_id":719024,"level":4,"area_code":"654223506400","zip_code":"834700","city_code":"0901","name":"\u56e2\u90e8","short_name":"\u56e2\u90e8","merger_name":"\u65b0\u7586,\u5854\u57ce,\u6c99\u6e7e,\u4e00\u4e09\u4e09\u56e2,\u56e2\u90e8","pinyin":"TuanBu","lng":"85.308550","lat":"44.665160"},{"id":719026,"parent_id":719024,"level":4,"area_code":"654223506501","zip_code":"834700","city_code":"0901","name":"\u7ea2\u5149\u9547\u533a\u751f\u6d3b\u533a","short_name":"\u7ea2\u5149\u9547\u533a","merger_name":"\u65b0\u7586,\u5854\u57ce,\u6c99\u6e7e,\u4e00\u4e09\u4e09\u56e2,\u7ea2\u5149\u9547\u533a","pinyin":"HongGuangZhenQu","lng":"85.167530","lat":"44.686430"},{"id":719027,"parent_id":719024,"level":4,"area_code":"654223506502","zip_code":"832199","city_code":"0901","name":"\u4e00\u8fde","short_name":"\u4e00\u8fde","merger_name":"\u65b0\u7586,\u5854\u57ce,\u6c99\u6e7e,\u4e00\u4e09\u4e09\u56e2,\u4e00\u8fde","pinyin":"YiLian","lng":"85.240610","lat":"44.651340"},{"id":719028,"parent_id":719024,"level":4,"area_code":"654223506503","zip_code":"832199","city_code":"0901","name":"\u4e8c\u8fde","short_name":"\u4e8c\u8fde","merger_name":"\u65b0\u7586,\u5854\u57ce,\u6c99\u6e7e,\u4e00\u4e09\u4e09\u56e2,\u4e8c\u8fde","pinyin":"ErLian","lng":"85.262240","lat":"44.689420"},{"id":719029,"parent_id":719024,"level":4,"area_code":"654223506504","zip_code":"832199","city_code":"0901","name":"\u4e09\u8fde","short_name":"\u4e09\u8fde","merger_name":"\u65b0\u7586,\u5854\u57ce,\u6c99\u6e7e,\u4e00\u4e09\u4e09\u56e2,\u4e09\u8fde","pinyin":"SanLian","lng":"85.287000","lat":"44.675870"},{"id":719030,"parent_id":719024,"level":4,"area_code":"654223506505","zip_code":"832199","city_code":"0901","name":"\u56db\u8fde","short_name":"\u56db\u8fde","merger_name":"\u65b0\u7586,\u5854\u57ce,\u6c99\u6e7e,\u4e00\u4e09\u4e09\u56e2,\u56db\u8fde","pinyin":"SiLian","lng":"85.240610","lat":"44.651340"},{"id":719031,"parent_id":719024,"level":4,"area_code":"654223506506","zip_code":"832199","city_code":"0901","name":"\u4e94\u8fde","short_name":"\u4e94\u8fde","merger_name":"\u65b0\u7586,\u5854\u57ce,\u6c99\u6e7e,\u4e00\u4e09\u4e09\u56e2,\u4e94\u8fde","pinyin":"WuLian","lng":"85.315620","lat":"44.700430"},{"id":719032,"parent_id":719024,"level":4,"area_code":"654223506507","zip_code":"834700","city_code":"0901","name":"\u516d\u8fde","short_name":"\u516d\u8fde","merger_name":"\u65b0\u7586,\u5854\u57ce,\u6c99\u6e7e,\u4e00\u4e09\u4e09\u56e2,\u516d\u8fde","pinyin":"LiuLian","lng":"85.300190","lat":"44.699690"},{"id":719033,"parent_id":719024,"level":4,"area_code":"654223506508","zip_code":"832199","city_code":"0901","name":"\u4e03\u8fde","short_name":"\u4e03\u8fde","merger_name":"\u65b0\u7586,\u5854\u57ce,\u6c99\u6e7e,\u4e00\u4e09\u4e09\u56e2,\u4e03\u8fde","pinyin":"QiLian","lng":"85.320550","lat":"44.651840"},{"id":719034,"parent_id":719024,"level":4,"area_code":"654223506509","zip_code":"832103","city_code":"0901","name":"\u516b\u8fde","short_name":"\u516b\u8fde","merger_name":"\u65b0\u7586,\u5854\u57ce,\u6c99\u6e7e,\u4e00\u4e09\u4e09\u56e2,\u516b\u8fde","pinyin":"BaLian","lng":"85.296580","lat":"44.650940"},{"id":719035,"parent_id":719024,"level":4,"area_code":"654223506510","zip_code":"832199","city_code":"0901","name":"\u4e5d\u8fde","short_name":"\u4e5d\u8fde","merger_name":"\u65b0\u7586,\u5854\u57ce,\u6c99\u6e7e,\u4e00\u4e09\u4e09\u56e2,\u4e5d\u8fde","pinyin":"JiuLian","lng":"85.308550","lat":"44.665160"},{"id":719036,"parent_id":719024,"level":4,"area_code":"654223506511","zip_code":"832199","city_code":"0901","name":"\u5341\u8fde","short_name":"\u5341\u8fde","merger_name":"\u65b0\u7586,\u5854\u57ce,\u6c99\u6e7e,\u4e00\u4e09\u4e09\u56e2,\u5341\u8fde","pinyin":"ShiLian","lng":"85.240610","lat":"44.651340"},{"id":719037,"parent_id":719024,"level":4,"area_code":"654223506512","zip_code":"832199","city_code":"0901","name":"\u5341\u4e00\u8fde","short_name":"\u5341\u4e00\u8fde","merger_name":"\u65b0\u7586,\u5854\u57ce,\u6c99\u6e7e,\u4e00\u4e09\u4e09\u56e2,\u5341\u4e00\u8fde","pinyin":"ShiYiLian","lng":"85.268520","lat":"44.653390"},{"id":719038,"parent_id":719024,"level":4,"area_code":"654223506513","zip_code":"832199","city_code":"0901","name":"\u5341\u4e8c\u8fde","short_name":"\u5341\u4e8c\u8fde","merger_name":"\u65b0\u7586,\u5854\u57ce,\u6c99\u6e7e,\u4e00\u4e09\u4e09\u56e2,\u5341\u4e8c\u8fde","pinyin":"ShiErLian","lng":"85.170160","lat":"44.656240"},{"id":719039,"parent_id":719024,"level":4,"area_code":"654223506514","zip_code":"832109","city_code":"0901","name":"\u5341\u4e09\u8fde","short_name":"\u5341\u4e09\u8fde","merger_name":"\u65b0\u7586,\u5854\u57ce,\u6c99\u6e7e,\u4e00\u4e09\u4e09\u56e2,\u5341\u4e09\u8fde","pinyin":"ShiSanLian","lng":"85.225320","lat":"44.688710"},{"id":719040,"parent_id":719024,"level":4,"area_code":"654223506515","zip_code":"832199","city_code":"0901","name":"\u5341\u56db\u8fde","short_name":"\u5341\u56db\u8fde","merger_name":"\u65b0\u7586,\u5854\u57ce,\u6c99\u6e7e,\u4e00\u4e09\u4e09\u56e2,\u5341\u56db\u8fde","pinyin":"ShiSiLian","lng":"85.237370","lat":"44.708290"},{"id":719041,"parent_id":719024,"level":4,"area_code":"654223506516","zip_code":"832199","city_code":"0901","name":"\u5341\u4e94\u8fde","short_name":"\u5341\u4e94\u8fde","merger_name":"\u65b0\u7586,\u5854\u57ce,\u6c99\u6e7e,\u4e00\u4e09\u4e09\u56e2,\u5341\u4e94\u8fde","pinyin":"ShiWuLian","lng":"85.670740","lat":"44.464410"},{"id":719042,"parent_id":719024,"level":4,"area_code":"654223506517","zip_code":"832199","city_code":"0901","name":"\u5341\u516d\u8fde","short_name":"\u5341\u516d\u8fde","merger_name":"\u65b0\u7586,\u5854\u57ce,\u6c99\u6e7e,\u4e00\u4e09\u4e09\u56e2,\u5341\u516d\u8fde","pinyin":"ShiLiuLian","lng":"85.240610","lat":"44.651340"},{"id":719043,"parent_id":719024,"level":4,"area_code":"654223506518","zip_code":"832199","city_code":"0901","name":"\u5341\u4e03\u8fde","short_name":"\u5341\u4e03\u8fde","merger_name":"\u65b0\u7586,\u5854\u57ce,\u6c99\u6e7e,\u4e00\u4e09\u4e09\u56e2,\u5341\u4e03\u8fde","pinyin":"ShiQiLian","lng":"85.206960","lat":"44.776920"},{"id":719044,"parent_id":719024,"level":4,"area_code":"654223506519","zip_code":"832199","city_code":"0901","name":"\u5341\u516b\u8fde","short_name":"\u5341\u516b\u8fde","merger_name":"\u65b0\u7586,\u5854\u57ce,\u6c99\u6e7e,\u4e00\u4e09\u4e09\u56e2,\u5341\u516b\u8fde","pinyin":"ShiBaLian","lng":"85.240610","lat":"44.651340"},{"id":719045,"parent_id":719024,"level":4,"area_code":"654223506520","zip_code":"832199","city_code":"0901","name":"\u5341\u4e5d\u8fde","short_name":"\u5341\u4e5d\u8fde","merger_name":"\u65b0\u7586,\u5854\u57ce,\u6c99\u6e7e,\u4e00\u4e09\u4e09\u56e2,\u5341\u4e5d\u8fde","pinyin":"ShiJiuLian","lng":"85.160138","lat":"44.657131"},{"id":719046,"parent_id":719024,"level":4,"area_code":"654223506521","zip_code":"832199","city_code":"0901","name":"\u4e8c\u5341\u8fde","short_name":"\u4e8c\u5341\u8fde","merger_name":"\u65b0\u7586,\u5854\u57ce,\u6c99\u6e7e,\u4e00\u4e09\u4e09\u56e2,\u4e8c\u5341\u8fde","pinyin":"ErShiLian","lng":"85.308550","lat":"44.665160"},{"id":719047,"parent_id":719024,"level":4,"area_code":"654223506522","zip_code":"832199","city_code":"0901","name":"\u4e8c\u5341\u4e00\u8fde","short_name":"\u4e8c\u5341\u4e00\u8fde","merger_name":"\u65b0\u7586,\u5854\u57ce,\u6c99\u6e7e,\u4e00\u4e09\u4e09\u56e2,\u4e8c\u5341\u4e00\u8fde","pinyin":"ErShiYiLian","lng":"85.750550","lat":"44.338620"},{"id":719048,"parent_id":719024,"level":4,"area_code":"654223506523","zip_code":"832199","city_code":"0901","name":"\u4e8c\u5341\u4e8c\u8fde","short_name":"\u4e8c\u5341\u4e8c\u8fde","merger_name":"\u65b0\u7586,\u5854\u57ce,\u6c99\u6e7e,\u4e00\u4e09\u4e09\u56e2,\u4e8c\u5341\u4e8c\u8fde","pinyin":"ErShiErLian","lng":"85.502100","lat":"44.464690"},{"id":719049,"parent_id":719024,"level":4,"area_code":"654223506524","zip_code":"832199","city_code":"0901","name":"\u4e8c\u5341\u4e09\u8fde","short_name":"\u4e8c\u5341\u4e09\u8fde","merger_name":"\u65b0\u7586,\u5854\u57ce,\u6c99\u6e7e,\u4e00\u4e09\u4e09\u56e2,\u4e8c\u5341\u4e09\u8fde","pinyin":"ErShiSanLian","lng":"85.225320","lat":"44.688710"},{"id":719050,"parent_id":719024,"level":4,"area_code":"654223506525","zip_code":"832199","city_code":"0901","name":"\u4e8c\u5341\u56db\u8fde","short_name":"\u4e8c\u5341\u56db\u8fde","merger_name":"\u65b0\u7586,\u5854\u57ce,\u6c99\u6e7e,\u4e00\u4e09\u4e09\u56e2,\u4e8c\u5341\u56db\u8fde","pinyin":"ErShiSiLian","lng":"85.237370","lat":"44.708290"},{"id":719051,"parent_id":719024,"level":4,"area_code":"654223506526","zip_code":"832199","city_code":"0901","name":"\u4e8c\u5341\u4e94\u8fde","short_name":"\u4e8c\u5341\u4e94\u8fde","merger_name":"\u65b0\u7586,\u5854\u57ce,\u6c99\u6e7e,\u4e00\u4e09\u4e09\u56e2,\u4e8c\u5341\u4e94\u8fde","pinyin":"ErShiWuLian","lng":"85.308550","lat":"44.665160"},{"id":719052,"parent_id":719024,"level":4,"area_code":"654223506527","zip_code":"832199","city_code":"0901","name":"\u4e8c\u5341\u516d\u8fde","short_name":"\u4e8c\u5341\u516d\u8fde","merger_name":"\u65b0\u7586,\u5854\u57ce,\u6c99\u6e7e,\u4e00\u4e09\u4e09\u56e2,\u4e8c\u5341\u516d\u8fde","pinyin":"ErShiLiuLian","lng":"85.240610","lat":"44.651340"},{"id":719053,"parent_id":719024,"level":4,"area_code":"654223506528","zip_code":"832199","city_code":"0901","name":"\u4e8c\u5341\u4e03\u8fde","short_name":"\u4e8c\u5341\u4e03\u8fde","merger_name":"\u65b0\u7586,\u5854\u57ce,\u6c99\u6e7e,\u4e00\u4e09\u4e09\u56e2,\u4e8c\u5341\u4e03\u8fde","pinyin":"ErShiQiLian","lng":"85.308550","lat":"44.665160"},{"id":719054,"parent_id":719024,"level":4,"area_code":"654223506529","zip_code":"832199","city_code":"0901","name":"\u4e8c\u5341\u516b\u8fde","short_name":"\u4e8c\u5341\u516b\u8fde","merger_name":"\u65b0\u7586,\u5854\u57ce,\u6c99\u6e7e,\u4e00\u4e09\u4e09\u56e2,\u4e8c\u5341\u516b\u8fde","pinyin":"ErShiBaLian","lng":"85.267780","lat":"44.663470"},{"id":719055,"parent_id":719024,"level":4,"area_code":"654223506530","zip_code":"832199","city_code":"0901","name":"\u4e8c\u5341\u4e5d\u8fde","short_name":"\u4e8c\u5341\u4e5d\u8fde","merger_name":"\u65b0\u7586,\u5854\u57ce,\u6c99\u6e7e,\u4e00\u4e09\u4e09\u56e2,\u4e8c\u5341\u4e5d\u8fde","pinyin":"ErShiJiuLian","lng":"85.240610","lat":"44.651340"},{"id":719056,"parent_id":719024,"level":4,"area_code":"654223506531","zip_code":"832199","city_code":"0901","name":"\u4e09\u5341\u8fde","short_name":"\u4e09\u5341\u8fde","merger_name":"\u65b0\u7586,\u5854\u57ce,\u6c99\u6e7e,\u4e00\u4e09\u4e09\u56e2,\u4e09\u5341\u8fde","pinyin":"SanShiLian","lng":"85.326080","lat":"44.499760"},{"id":719057,"parent_id":718704,"level":3,"area_code":"654223507000","zip_code":"834700","city_code":"0901","name":"\u5175\u56e2\u4e00\u4e09\u56db\u56e2","short_name":"\u4e00\u4e09\u56db\u56e2","merger_name":"\u65b0\u7586,\u5854\u57ce,\u6c99\u6e7e,\u4e00\u4e09\u56db\u56e2","pinyin":"YiSanSiTuan","lng":"85.284260","lat":"44.910300"},{"id":719058,"parent_id":719057,"level":4,"area_code":"654223507400","zip_code":"834700","city_code":"0901","name":"\u56e2\u90e8","short_name":"\u56e2\u90e8","merger_name":"\u65b0\u7586,\u5854\u57ce,\u6c99\u6e7e,\u4e00\u4e09\u56db\u56e2,\u56e2\u90e8","pinyin":"TuanBu","lng":"85.535850","lat":"44.659810"},{"id":719059,"parent_id":719057,"level":4,"area_code":"654223507501","zip_code":"832199","city_code":"0901","name":"\u4e00\u8fde","short_name":"\u4e00\u8fde","merger_name":"\u65b0\u7586,\u5854\u57ce,\u6c99\u6e7e,\u4e00\u4e09\u56db\u56e2,\u4e00\u8fde","pinyin":"YiLian","lng":"85.304710","lat":"44.884370"},{"id":719060,"parent_id":719057,"level":4,"area_code":"654223507502","zip_code":"832199","city_code":"0901","name":"\u4e09\u8fde","short_name":"\u4e09\u8fde","merger_name":"\u65b0\u7586,\u5854\u57ce,\u6c99\u6e7e,\u4e00\u4e09\u56db\u56e2,\u4e09\u8fde","pinyin":"SanLian","lng":"85.419030","lat":"44.707200"},{"id":719061,"parent_id":719057,"level":4,"area_code":"654223507503","zip_code":"832199","city_code":"0901","name":"\u56db\u8fde","short_name":"\u56db\u8fde","merger_name":"\u65b0\u7586,\u5854\u57ce,\u6c99\u6e7e,\u4e00\u4e09\u56db\u56e2,\u56db\u8fde","pinyin":"SiLian","lng":"85.292800","lat":"44.913100"},{"id":719062,"parent_id":719057,"level":4,"area_code":"654223507504","zip_code":"832199","city_code":"0901","name":"\u4e94\u8fde","short_name":"\u4e94\u8fde","merger_name":"\u65b0\u7586,\u5854\u57ce,\u6c99\u6e7e,\u4e00\u4e09\u56db\u56e2,\u4e94\u8fde","pinyin":"WuLian","lng":"85.358200","lat":"44.662410"},{"id":719063,"parent_id":719057,"level":4,"area_code":"654223507505","zip_code":"834700","city_code":"0901","name":"\u516d\u8fde","short_name":"\u516d\u8fde","merger_name":"\u65b0\u7586,\u5854\u57ce,\u6c99\u6e7e,\u4e00\u4e09\u56db\u56e2,\u516d\u8fde","pinyin":"LiuLian","lng":"85.487440","lat":"44.697520"},{"id":719064,"parent_id":719057,"level":4,"area_code":"654223507506","zip_code":"832103","city_code":"0901","name":"\u516b\u8fde","short_name":"\u516b\u8fde","merger_name":"\u65b0\u7586,\u5854\u57ce,\u6c99\u6e7e,\u4e00\u4e09\u56db\u56e2,\u516b\u8fde","pinyin":"BaLian","lng":"85.420310","lat":"44.672250"},{"id":719065,"parent_id":719057,"level":4,"area_code":"654223507507","zip_code":"832199","city_code":"0901","name":"\u4e5d\u8fde","short_name":"\u4e5d\u8fde","merger_name":"\u65b0\u7586,\u5854\u57ce,\u6c99\u6e7e,\u4e00\u4e09\u56db\u56e2,\u4e5d\u8fde","pinyin":"JiuLian","lng":"85.368560","lat":"44.748990"},{"id":719066,"parent_id":719057,"level":4,"area_code":"654223507508","zip_code":"832199","city_code":"0901","name":"\u5341\u8fde","short_name":"\u5341\u8fde","merger_name":"\u65b0\u7586,\u5854\u57ce,\u6c99\u6e7e,\u4e00\u4e09\u56db\u56e2,\u5341\u8fde","pinyin":"ShiLian","lng":"85.468795","lat":"44.801033"},{"id":719067,"parent_id":719057,"level":4,"area_code":"654223507509","zip_code":"832199","city_code":"0901","name":"\u5341\u4e00\u8fde","short_name":"\u5341\u4e00\u8fde","merger_name":"\u65b0\u7586,\u5854\u57ce,\u6c99\u6e7e,\u4e00\u4e09\u56db\u56e2,\u5341\u4e00\u8fde","pinyin":"ShiYiLian","lng":"85.482560","lat":"44.732080"},{"id":719068,"parent_id":719057,"level":4,"area_code":"654223507510","zip_code":"832199","city_code":"0901","name":"\u5341\u4e8c\u8fde","short_name":"\u5341\u4e8c\u8fde","merger_name":"\u65b0\u7586,\u5854\u57ce,\u6c99\u6e7e,\u4e00\u4e09\u56db\u56e2,\u5341\u4e8c\u8fde","pinyin":"ShiErLian","lng":"85.437250","lat":"44.708750"},{"id":719069,"parent_id":719057,"level":4,"area_code":"654223507511","zip_code":"832109","city_code":"0901","name":"\u5341\u4e09\u8fde","short_name":"\u5341\u4e09\u8fde","merger_name":"\u65b0\u7586,\u5854\u57ce,\u6c99\u6e7e,\u4e00\u4e09\u56db\u56e2,\u5341\u4e09\u8fde","pinyin":"ShiSanLian","lng":"85.371900","lat":"44.768490"},{"id":719070,"parent_id":719057,"level":4,"area_code":"654223507512","zip_code":"832199","city_code":"0901","name":"\u5341\u56db\u8fde","short_name":"\u5341\u56db\u8fde","merger_name":"\u65b0\u7586,\u5854\u57ce,\u6c99\u6e7e,\u4e00\u4e09\u56db\u56e2,\u5341\u56db\u8fde","pinyin":"ShiSiLian","lng":"85.422910","lat":"44.753260"},{"id":719071,"parent_id":719057,"level":4,"area_code":"654223507513","zip_code":"832199","city_code":"0901","name":"\u5341\u516d\u8fde","short_name":"\u5341\u516d\u8fde","merger_name":"\u65b0\u7586,\u5854\u57ce,\u6c99\u6e7e,\u4e00\u4e09\u56db\u56e2,\u5341\u516d\u8fde","pinyin":"ShiLiuLian","lng":"85.336620","lat":"44.738180"},{"id":719072,"parent_id":719057,"level":4,"area_code":"654223507514","zip_code":"832199","city_code":"0901","name":"\u5341\u4e03\u8fde","short_name":"\u5341\u4e03\u8fde","merger_name":"\u65b0\u7586,\u5854\u57ce,\u6c99\u6e7e,\u4e00\u4e09\u56db\u56e2,\u5341\u4e03\u8fde","pinyin":"ShiQiLian","lng":"85.354120","lat":"44.720930"},{"id":719073,"parent_id":719057,"level":4,"area_code":"654223507515","zip_code":"832199","city_code":"0901","name":"\u5341\u516b\u8fde","short_name":"\u5341\u516b\u8fde","merger_name":"\u65b0\u7586,\u5854\u57ce,\u6c99\u6e7e,\u4e00\u4e09\u56db\u56e2,\u5341\u516b\u8fde","pinyin":"ShiBaLian","lng":"85.468795","lat":"44.801033"},{"id":719074,"parent_id":719057,"level":4,"area_code":"654223507516","zip_code":"832109","city_code":"0901","name":"\u897f\u4e09\u7ad9\u751f\u6d3b\u533a","short_name":"\u897f\u4e09\u7ad9","merger_name":"\u65b0\u7586,\u5854\u57ce,\u6c99\u6e7e,\u4e00\u4e09\u56db\u56e2,\u897f\u4e09\u7ad9","pinyin":"XiSanZhan","lng":"85.626520","lat":"44.335630"},{"id":719075,"parent_id":719057,"level":4,"area_code":"654223507518","zip_code":"832104","city_code":"0901","name":"\u6c99\u95e8\u5b50\u9547\u533a\u751f\u6d3b\u533a","short_name":"\u6c99\u95e8\u5b50\u9547\u533a","merger_name":"\u65b0\u7586,\u5854\u57ce,\u6c99\u6e7e,\u4e00\u4e09\u56db\u56e2,\u6c99\u95e8\u5b50\u9547\u533a","pinyin":"ShaMenZiZhenQu","lng":"85.276670","lat":"44.910990"},{"id":719076,"parent_id":719057,"level":4,"area_code":"654223507519","zip_code":"832199","city_code":"0901","name":"\u4e8c\u5341\u4e00\u8fde","short_name":"\u4e8c\u5341\u4e00\u8fde","merger_name":"\u65b0\u7586,\u5854\u57ce,\u6c99\u6e7e,\u4e00\u4e09\u56db\u56e2,\u4e8c\u5341\u4e00\u8fde","pinyin":"ErShiYiLian","lng":"85.482560","lat":"44.732080"},{"id":719077,"parent_id":719057,"level":4,"area_code":"654223507520","zip_code":"832199","city_code":"0901","name":"\u4e8c\u5341\u4e8c\u8fde","short_name":"\u4e8c\u5341\u4e8c\u8fde","merger_name":"\u65b0\u7586,\u5854\u57ce,\u6c99\u6e7e,\u4e00\u4e09\u56db\u56e2,\u4e8c\u5341\u4e8c\u8fde","pinyin":"ErShiErLian","lng":"85.502100","lat":"44.464690"},{"id":719078,"parent_id":719057,"level":4,"area_code":"654223507521","zip_code":"832199","city_code":"0901","name":"\u4e8c\u5341\u4e09\u8fde","short_name":"\u4e8c\u5341\u4e09\u8fde","merger_name":"\u65b0\u7586,\u5854\u57ce,\u6c99\u6e7e,\u4e00\u4e09\u56db\u56e2,\u4e8c\u5341\u4e09\u8fde","pinyin":"ErShiSanLian","lng":"85.468795","lat":"44.801033"},{"id":719079,"parent_id":719057,"level":4,"area_code":"654223507522","zip_code":"832199","city_code":"0901","name":"\u4e8c\u5341\u56db\u8fde","short_name":"\u4e8c\u5341\u56db\u8fde","merger_name":"\u65b0\u7586,\u5854\u57ce,\u6c99\u6e7e,\u4e00\u4e09\u56db\u56e2,\u4e8c\u5341\u56db\u8fde","pinyin":"ErShiSiLian","lng":"85.422910","lat":"44.753260"},{"id":719080,"parent_id":719057,"level":4,"area_code":"654223507523","zip_code":"832199","city_code":"0901","name":"\u4e8c\u5341\u4e94\u8fde","short_name":"\u4e8c\u5341\u4e94\u8fde","merger_name":"\u65b0\u7586,\u5854\u57ce,\u6c99\u6e7e,\u4e00\u4e09\u56db\u56e2,\u4e8c\u5341\u4e94\u8fde","pinyin":"ErShiWuLian","lng":"85.447540","lat":"44.676310"},{"id":719081,"parent_id":719057,"level":4,"area_code":"654223507524","zip_code":"832199","city_code":"0901","name":"\u4e8c\u5341\u516d\u8fde","short_name":"\u4e8c\u5341\u516d\u8fde","merger_name":"\u65b0\u7586,\u5854\u57ce,\u6c99\u6e7e,\u4e00\u4e09\u56db\u56e2,\u4e8c\u5341\u516d\u8fde","pinyin":"ErShiLiuLian","lng":"85.468795","lat":"44.801033"},{"id":719082,"parent_id":719057,"level":4,"area_code":"654223507525","zip_code":"832199","city_code":"0901","name":"\u4e8c\u5341\u4e03\u8fde","short_name":"\u4e8c\u5341\u4e03\u8fde","merger_name":"\u65b0\u7586,\u5854\u57ce,\u6c99\u6e7e,\u4e00\u4e09\u56db\u56e2,\u4e8c\u5341\u4e03\u8fde","pinyin":"ErShiQiLian","lng":"85.468795","lat":"44.801033"},{"id":719083,"parent_id":719057,"level":4,"area_code":"654223507526","zip_code":"832199","city_code":"0901","name":"\u4e8c\u5341\u4e5d\u8fde","short_name":"\u4e8c\u5341\u4e5d\u8fde","merger_name":"\u65b0\u7586,\u5854\u57ce,\u6c99\u6e7e,\u4e00\u4e09\u56db\u56e2,\u4e8c\u5341\u4e5d\u8fde","pinyin":"ErShiJiuLian","lng":"85.468795","lat":"44.801033"},{"id":719084,"parent_id":719057,"level":4,"area_code":"654223507527","zip_code":"832199","city_code":"0901","name":"\u4e09\u5341\u8fde","short_name":"\u4e09\u5341\u8fde","merger_name":"\u65b0\u7586,\u5854\u57ce,\u6c99\u6e7e,\u4e00\u4e09\u56db\u56e2,\u4e09\u5341\u8fde","pinyin":"SanShiLian","lng":"85.326080","lat":"44.499760"},{"id":719085,"parent_id":719057,"level":4,"area_code":"654223507528","zip_code":"834700","city_code":"0901","name":"\u826f\u7e41\u8fde","short_name":"\u826f\u7e41\u8fde","merger_name":"\u65b0\u7586,\u5854\u57ce,\u6c99\u6e7e,\u4e00\u4e09\u56db\u56e2,\u826f\u7e41\u8fde","pinyin":"LiangFanLian","lng":"85.257310","lat":"44.921330"},{"id":719086,"parent_id":718704,"level":3,"area_code":"654223509000","zip_code":"834700","city_code":"0901","name":"\u5175\u56e2\u4e00\u56db\u4e00\u56e2","short_name":"\u4e00\u56db\u4e00\u56e2","merger_name":"\u65b0\u7586,\u5854\u57ce,\u6c99\u6e7e,\u4e00\u56db\u4e00\u56e2","pinyin":"YiSiYiTuan","lng":"85.363480","lat":"44.617580"},{"id":719087,"parent_id":719086,"level":4,"area_code":"654223509400","zip_code":"834700","city_code":"0901","name":"\u56e2\u90e8","short_name":"\u56e2\u90e8","merger_name":"\u65b0\u7586,\u5854\u57ce,\u6c99\u6e7e,\u4e00\u56db\u4e00\u56e2,\u56e2\u90e8","pinyin":"TuanBu","lng":"85.535850","lat":"44.659810"},{"id":719088,"parent_id":719086,"level":4,"area_code":"654223509501","zip_code":"832199","city_code":"0901","name":"\u4e00\u8fde","short_name":"\u4e00\u8fde","merger_name":"\u65b0\u7586,\u5854\u57ce,\u6c99\u6e7e,\u4e00\u56db\u4e00\u56e2,\u4e00\u8fde","pinyin":"YiLian","lng":"85.363480","lat":"44.617580"},{"id":719089,"parent_id":719086,"level":4,"area_code":"654223509502","zip_code":"832199","city_code":"0901","name":"\u4e8c\u8fde","short_name":"\u4e8c\u8fde","merger_name":"\u65b0\u7586,\u5854\u57ce,\u6c99\u6e7e,\u4e00\u56db\u4e00\u56e2,\u4e8c\u8fde","pinyin":"ErLian","lng":"85.443230","lat":"44.614250"},{"id":719090,"parent_id":719086,"level":4,"area_code":"654223509503","zip_code":"832199","city_code":"0901","name":"\u4e09\u8fde","short_name":"\u4e09\u8fde","merger_name":"\u65b0\u7586,\u5854\u57ce,\u6c99\u6e7e,\u4e00\u56db\u4e00\u56e2,\u4e09\u8fde","pinyin":"SanLian","lng":"85.436170","lat":"44.570480"},{"id":719091,"parent_id":719086,"level":4,"area_code":"654223509504","zip_code":"832199","city_code":"0901","name":"\u56db\u8fde","short_name":"\u56db\u8fde","merger_name":"\u65b0\u7586,\u5854\u57ce,\u6c99\u6e7e,\u4e00\u56db\u4e00\u56e2,\u56db\u8fde","pinyin":"SiLian","lng":"85.404590","lat":"44.561970"},{"id":719092,"parent_id":719086,"level":4,"area_code":"654223509505","zip_code":"832199","city_code":"0901","name":"\u4e94\u8fde","short_name":"\u4e94\u8fde","merger_name":"\u65b0\u7586,\u5854\u57ce,\u6c99\u6e7e,\u4e00\u56db\u4e00\u56e2,\u4e94\u8fde","pinyin":"WuLian","lng":"85.260420","lat":"44.633840"},{"id":719093,"parent_id":719086,"level":4,"area_code":"654223509506","zip_code":"834700","city_code":"0901","name":"\u516d\u8fde","short_name":"\u516d\u8fde","merger_name":"\u65b0\u7586,\u5854\u57ce,\u6c99\u6e7e,\u4e00\u56db\u4e00\u56e2,\u516d\u8fde","pinyin":"LiuLian","lng":"85.312360","lat":"44.629260"},{"id":719094,"parent_id":719086,"level":4,"area_code":"654223509507","zip_code":"832199","city_code":"0901","name":"\u4e03\u8fde","short_name":"\u4e03\u8fde","merger_name":"\u65b0\u7586,\u5854\u57ce,\u6c99\u6e7e,\u4e00\u56db\u4e00\u56e2,\u4e03\u8fde","pinyin":"QiLian","lng":"85.363480","lat":"44.617580"},{"id":719095,"parent_id":719086,"level":4,"area_code":"654223509508","zip_code":"832103","city_code":"0901","name":"\u516b\u8fde","short_name":"\u516b\u8fde","merger_name":"\u65b0\u7586,\u5854\u57ce,\u6c99\u6e7e,\u4e00\u56db\u4e00\u56e2,\u516b\u8fde","pinyin":"BaLian","lng":"85.373140","lat":"44.559990"},{"id":719096,"parent_id":719086,"level":4,"area_code":"654223509509","zip_code":"832199","city_code":"0901","name":"\u5341\u8fde","short_name":"\u5341\u8fde","merger_name":"\u65b0\u7586,\u5854\u57ce,\u6c99\u6e7e,\u4e00\u56db\u4e00\u56e2,\u5341\u8fde","pinyin":"ShiLian","lng":"85.404590","lat":"44.561970"},{"id":719097,"parent_id":719086,"level":4,"area_code":"654223509510","zip_code":"832199","city_code":"0901","name":"\u5341\u4e00\u8fde","short_name":"\u5341\u4e00\u8fde","merger_name":"\u65b0\u7586,\u5854\u57ce,\u6c99\u6e7e,\u4e00\u56db\u4e00\u56e2,\u5341\u4e00\u8fde","pinyin":"ShiYiLian","lng":"85.334060","lat":"44.561750"},{"id":719098,"parent_id":719086,"level":4,"area_code":"654223509511","zip_code":"832199","city_code":"0901","name":"\u5341\u4e8c\u8fde","short_name":"\u5341\u4e8c\u8fde","merger_name":"\u65b0\u7586,\u5854\u57ce,\u6c99\u6e7e,\u4e00\u56db\u4e00\u56e2,\u5341\u4e8c\u8fde","pinyin":"ShiErLian","lng":"85.259640","lat":"44.591570"},{"id":719099,"parent_id":719086,"level":4,"area_code":"654223509512","zip_code":"832109","city_code":"0901","name":"\u5341\u4e09\u8fde","short_name":"\u5341\u4e09\u8fde","merger_name":"\u65b0\u7586,\u5854\u57ce,\u6c99\u6e7e,\u4e00\u56db\u4e00\u56e2,\u5341\u4e09\u8fde","pinyin":"ShiSanLian","lng":"85.325420","lat":"44.584240"},{"id":719100,"parent_id":719086,"level":4,"area_code":"654223509513","zip_code":"832199","city_code":"0901","name":"\u5341\u56db\u8fde","short_name":"\u5341\u56db\u8fde","merger_name":"\u65b0\u7586,\u5854\u57ce,\u6c99\u6e7e,\u4e00\u56db\u4e00\u56e2,\u5341\u56db\u8fde","pinyin":"ShiSiLian","lng":"85.404590","lat":"44.561970"},{"id":719101,"parent_id":719086,"level":4,"area_code":"654223509514","zip_code":"832199","city_code":"0901","name":"\u5341\u516d\u8fde","short_name":"\u5341\u516d\u8fde","merger_name":"\u65b0\u7586,\u5854\u57ce,\u6c99\u6e7e,\u4e00\u56db\u4e00\u56e2,\u5341\u516d\u8fde","pinyin":"ShiLiuLian","lng":"85.312360","lat":"44.629260"},{"id":719102,"parent_id":718704,"level":3,"area_code":"654223510000","zip_code":"834700","city_code":"0901","name":"\u5175\u56e2\u4e00\u56db\u4e8c\u56e2","short_name":"\u4e00\u56db\u4e8c\u56e2","merger_name":"\u65b0\u7586,\u5854\u57ce,\u6c99\u6e7e,\u4e00\u56db\u4e8c\u56e2","pinyin":"YiSiErTuan","lng":"85.403530","lat":"44.430050"},{"id":719103,"parent_id":719102,"level":4,"area_code":"654223510400","zip_code":"834700","city_code":"0901","name":"\u56e2\u90e8","short_name":"\u56e2\u90e8","merger_name":"\u65b0\u7586,\u5854\u57ce,\u6c99\u6e7e,\u4e00\u56db\u4e8c\u56e2,\u56e2\u90e8","pinyin":"TuanBu","lng":"85.391040","lat":"44.433370"},{"id":719104,"parent_id":719102,"level":4,"area_code":"654223510501","zip_code":"832199","city_code":"0901","name":"\u4e00\u8fde","short_name":"\u4e00\u8fde","merger_name":"\u65b0\u7586,\u5854\u57ce,\u6c99\u6e7e,\u4e00\u56db\u4e8c\u56e2,\u4e00\u8fde","pinyin":"YiLian","lng":"85.375170","lat":"44.341520"},{"id":719105,"parent_id":719102,"level":4,"area_code":"654223510502","zip_code":"832199","city_code":"0901","name":"\u4e8c\u8fde","short_name":"\u4e8c\u8fde","merger_name":"\u65b0\u7586,\u5854\u57ce,\u6c99\u6e7e,\u4e00\u56db\u4e8c\u56e2,\u4e8c\u8fde","pinyin":"ErLian","lng":"85.465940","lat":"44.520350"},{"id":719106,"parent_id":719102,"level":4,"area_code":"654223510503","zip_code":"832199","city_code":"0901","name":"\u4e09\u8fde","short_name":"\u4e09\u8fde","merger_name":"\u65b0\u7586,\u5854\u57ce,\u6c99\u6e7e,\u4e00\u56db\u4e8c\u56e2,\u4e09\u8fde","pinyin":"SanLian","lng":"85.286120","lat":"44.499470"},{"id":719107,"parent_id":719102,"level":4,"area_code":"654223510504","zip_code":"832199","city_code":"0901","name":"\u56db\u8fde","short_name":"\u56db\u8fde","merger_name":"\u65b0\u7586,\u5854\u57ce,\u6c99\u6e7e,\u4e00\u56db\u4e8c\u56e2,\u56db\u8fde","pinyin":"SiLian","lng":"85.202840","lat":"44.659790"},{"id":719108,"parent_id":719102,"level":4,"area_code":"654223510505","zip_code":"834700","city_code":"0901","name":"\u516d\u8fde","short_name":"\u516d\u8fde","merger_name":"\u65b0\u7586,\u5854\u57ce,\u6c99\u6e7e,\u4e00\u56db\u4e8c\u56e2,\u516d\u8fde","pinyin":"LiuLian","lng":"85.413400","lat":"44.035870"},{"id":719109,"parent_id":719102,"level":4,"area_code":"654223510506","zip_code":"832199","city_code":"0901","name":"\u4e03\u8fde","short_name":"\u4e03\u8fde","merger_name":"\u65b0\u7586,\u5854\u57ce,\u6c99\u6e7e,\u4e00\u56db\u4e8c\u56e2,\u4e03\u8fde","pinyin":"QiLian","lng":"85.399224","lat":"44.431890"},{"id":719110,"parent_id":719102,"level":4,"area_code":"654223510507","zip_code":"832103","city_code":"0901","name":"\u516b\u8fde","short_name":"\u516b\u8fde","merger_name":"\u65b0\u7586,\u5854\u57ce,\u6c99\u6e7e,\u4e00\u56db\u4e8c\u56e2,\u516b\u8fde","pinyin":"BaLian","lng":"85.503420","lat":"44.752660"},{"id":719111,"parent_id":719102,"level":4,"area_code":"654223510508","zip_code":"832199","city_code":"0901","name":"\u5341\u8fde","short_name":"\u5341\u8fde","merger_name":"\u65b0\u7586,\u5854\u57ce,\u6c99\u6e7e,\u4e00\u56db\u4e8c\u56e2,\u5341\u8fde","pinyin":"ShiLian","lng":"85.406200","lat":"44.477800"},{"id":719112,"parent_id":719102,"level":4,"area_code":"654223510509","zip_code":"832199","city_code":"0901","name":"\u826f\u79cd\u8fde","short_name":"\u826f\u79cd\u8fde","merger_name":"\u65b0\u7586,\u5854\u57ce,\u6c99\u6e7e,\u4e00\u56db\u4e8c\u56e2,\u826f\u79cd\u8fde","pinyin":"LiangZhongLian","lng":"85.645200","lat":"44.786730"},{"id":719113,"parent_id":719102,"level":4,"area_code":"654223510510","zip_code":"832199","city_code":"0901","name":"\u5341\u4e00\u8fde","short_name":"\u5341\u4e00\u8fde","merger_name":"\u65b0\u7586,\u5854\u57ce,\u6c99\u6e7e,\u4e00\u56db\u4e8c\u56e2,\u5341\u4e00\u8fde","pinyin":"ShiYiLian","lng":"85.159880","lat":"44.688390"},{"id":719114,"parent_id":719102,"level":4,"area_code":"654223510511","zip_code":"832199","city_code":"0901","name":"\u5341\u4e8c\u8fde","short_name":"\u5341\u4e8c\u8fde","merger_name":"\u65b0\u7586,\u5854\u57ce,\u6c99\u6e7e,\u4e00\u56db\u4e8c\u56e2,\u5341\u4e8c\u8fde","pinyin":"ShiErLian","lng":"85.477000","lat":"44.873900"},{"id":719115,"parent_id":719102,"level":4,"area_code":"654223510512","zip_code":"832109","city_code":"0901","name":"\u5341\u4e09\u8fde","short_name":"\u5341\u4e09\u8fde","merger_name":"\u65b0\u7586,\u5854\u57ce,\u6c99\u6e7e,\u4e00\u56db\u4e8c\u56e2,\u5341\u4e09\u8fde","pinyin":"ShiSanLian","lng":"85.324860","lat":"44.499580"},{"id":719116,"parent_id":719102,"level":4,"area_code":"654223510513","zip_code":"832199","city_code":"0901","name":"\u5341\u56db\u8fde","short_name":"\u5341\u56db\u8fde","merger_name":"\u65b0\u7586,\u5854\u57ce,\u6c99\u6e7e,\u4e00\u56db\u4e8c\u56e2,\u5341\u56db\u8fde","pinyin":"ShiSiLian","lng":"85.473810","lat":"44.853880"},{"id":719117,"parent_id":719102,"level":4,"area_code":"654223510514","zip_code":"832199","city_code":"0901","name":"\u5341\u4e94\u8fde","short_name":"\u5341\u4e94\u8fde","merger_name":"\u65b0\u7586,\u5854\u57ce,\u6c99\u6e7e,\u4e00\u56db\u4e8c\u56e2,\u5341\u4e94\u8fde","pinyin":"ShiWuLian","lng":"85.722500","lat":"44.832300"},{"id":719118,"parent_id":719102,"level":4,"area_code":"654223510515","zip_code":"832199","city_code":"0901","name":"\u5341\u516d\u8fde","short_name":"\u5341\u516d\u8fde","merger_name":"\u65b0\u7586,\u5854\u57ce,\u6c99\u6e7e,\u4e00\u56db\u4e8c\u56e2,\u5341\u516d\u8fde","pinyin":"ShiLiuLian","lng":"85.154630","lat":"44.827640"},{"id":719119,"parent_id":719102,"level":4,"area_code":"654223510516","zip_code":"832199","city_code":"0901","name":"\u5341\u4e03\u8fde","short_name":"\u5341\u4e03\u8fde","merger_name":"\u65b0\u7586,\u5854\u57ce,\u6c99\u6e7e,\u4e00\u56db\u4e8c\u56e2,\u5341\u4e03\u8fde","pinyin":"ShiQiLian","lng":"85.756740","lat":"44.315650"},{"id":719120,"parent_id":719102,"level":4,"area_code":"654223510517","zip_code":"832199","city_code":"0901","name":"\u5341\u516b\u8fde","short_name":"\u5341\u516b\u8fde","merger_name":"\u65b0\u7586,\u5854\u57ce,\u6c99\u6e7e,\u4e00\u56db\u4e8c\u56e2,\u5341\u516b\u8fde","pinyin":"ShiBaLian","lng":"85.522460","lat":"44.557370"},{"id":719121,"parent_id":719102,"level":4,"area_code":"654223510518","zip_code":"832199","city_code":"0901","name":"\u5341\u4e5d\u8fde","short_name":"\u5341\u4e5d\u8fde","merger_name":"\u65b0\u7586,\u5854\u57ce,\u6c99\u6e7e,\u4e00\u56db\u4e8c\u56e2,\u5341\u4e5d\u8fde","pinyin":"ShiJiuLian","lng":"85.826910","lat":"44.307860"},{"id":719122,"parent_id":719102,"level":4,"area_code":"654223510519","zip_code":"832199","city_code":"0901","name":"\u4e8c\u5341\u8fde","short_name":"\u4e8c\u5341\u8fde","merger_name":"\u65b0\u7586,\u5854\u57ce,\u6c99\u6e7e,\u4e00\u56db\u4e8c\u56e2,\u4e8c\u5341\u8fde","pinyin":"ErShiLian","lng":"85.370010","lat":"44.517890"},{"id":719123,"parent_id":719102,"level":4,"area_code":"654223510520","zip_code":"832199","city_code":"0901","name":"\u4e8c\u5341\u4e00\u8fde","short_name":"\u4e8c\u5341\u4e00\u8fde","merger_name":"\u65b0\u7586,\u5854\u57ce,\u6c99\u6e7e,\u4e00\u56db\u4e8c\u56e2,\u4e8c\u5341\u4e00\u8fde","pinyin":"ErShiYiLian","lng":"85.750550","lat":"44.338620"},{"id":719124,"parent_id":719102,"level":4,"area_code":"654223510521","zip_code":"832199","city_code":"0901","name":"\u4e8c\u5341\u4e8c\u8fde","short_name":"\u4e8c\u5341\u4e8c\u8fde","merger_name":"\u65b0\u7586,\u5854\u57ce,\u6c99\u6e7e,\u4e00\u56db\u4e8c\u56e2,\u4e8c\u5341\u4e8c\u8fde","pinyin":"ErShiErLian","lng":"85.522460","lat":"44.557370"},{"id":719125,"parent_id":719102,"level":4,"area_code":"654223510522","zip_code":"832199","city_code":"0901","name":"\u4e8c\u5341\u4e09\u8fde","short_name":"\u4e8c\u5341\u4e09\u8fde","merger_name":"\u65b0\u7586,\u5854\u57ce,\u6c99\u6e7e,\u4e00\u56db\u4e8c\u56e2,\u4e8c\u5341\u4e09\u8fde","pinyin":"ErShiSanLian","lng":"85.769380","lat":"44.333020"},{"id":719126,"parent_id":719102,"level":4,"area_code":"654223510523","zip_code":"832199","city_code":"0901","name":"\u4e8c\u5341\u56db\u8fde","short_name":"\u4e8c\u5341\u56db\u8fde","merger_name":"\u65b0\u7586,\u5854\u57ce,\u6c99\u6e7e,\u4e00\u56db\u4e8c\u56e2,\u4e8c\u5341\u56db\u8fde","pinyin":"ErShiSiLian","lng":"85.286120","lat":"44.499470"},{"id":719127,"parent_id":719102,"level":4,"area_code":"654223510524","zip_code":"832199","city_code":"0901","name":"\u4e8c\u5341\u4e94\u8fde","short_name":"\u4e8c\u5341\u4e94\u8fde","merger_name":"\u65b0\u7586,\u5854\u57ce,\u6c99\u6e7e,\u4e00\u56db\u4e8c\u56e2,\u4e8c\u5341\u4e94\u8fde","pinyin":"ErShiWuLian","lng":"85.264147","lat":"44.504089"},{"id":719128,"parent_id":719102,"level":4,"area_code":"654223510525","zip_code":"832199","city_code":"0901","name":"\u4e8c\u5341\u516d\u8fde","short_name":"\u4e8c\u5341\u516d\u8fde","merger_name":"\u65b0\u7586,\u5854\u57ce,\u6c99\u6e7e,\u4e00\u56db\u4e8c\u56e2,\u4e8c\u5341\u516d\u8fde","pinyin":"ErShiLiuLian","lng":"85.317490","lat":"44.538230"},{"id":719129,"parent_id":719102,"level":4,"area_code":"654223510526","zip_code":"832199","city_code":"0901","name":"\u4e8c\u5341\u4e03\u8fde","short_name":"\u4e8c\u5341\u4e03\u8fde","merger_name":"\u65b0\u7586,\u5854\u57ce,\u6c99\u6e7e,\u4e00\u56db\u4e8c\u56e2,\u4e8c\u5341\u4e03\u8fde","pinyin":"ErShiQiLian","lng":"85.265255","lat":"44.547581"},{"id":719130,"parent_id":719102,"level":4,"area_code":"654223510527","zip_code":"832199","city_code":"0901","name":"\u4e8c\u5341\u4e5d\u8fde","short_name":"\u4e8c\u5341\u4e5d\u8fde","merger_name":"\u65b0\u7586,\u5854\u57ce,\u6c99\u6e7e,\u4e00\u56db\u4e8c\u56e2,\u4e8c\u5341\u4e5d\u8fde","pinyin":"ErShiJiuLian","lng":"85.370010","lat":"44.517890"},{"id":719131,"parent_id":719102,"level":4,"area_code":"654223510528","zip_code":"832199","city_code":"0901","name":"\u4e09\u5341\u8fde","short_name":"\u4e09\u5341\u8fde","merger_name":"\u65b0\u7586,\u5854\u57ce,\u6c99\u6e7e,\u4e00\u56db\u4e8c\u56e2,\u4e09\u5341\u8fde","pinyin":"SanShiLian","lng":"85.324860","lat":"44.499580"},{"id":719132,"parent_id":719102,"level":4,"area_code":"654223510529","zip_code":"832199","city_code":"0901","name":"\u4e09\u5341\u4e00\u8fde","short_name":"\u4e09\u5341\u4e00\u8fde","merger_name":"\u65b0\u7586,\u5854\u57ce,\u6c99\u6e7e,\u4e00\u56db\u4e8c\u56e2,\u4e09\u5341\u4e00\u8fde","pinyin":"SanShiYiLian","lng":"85.447400","lat":"44.255950"},{"id":719133,"parent_id":719102,"level":4,"area_code":"654223510530","zip_code":"832199","city_code":"0901","name":"\u4e09\u5341\u4e8c\u8fde","short_name":"\u4e09\u5341\u4e8c\u8fde","merger_name":"\u65b0\u7586,\u5854\u57ce,\u6c99\u6e7e,\u4e00\u56db\u4e8c\u56e2,\u4e09\u5341\u4e8c\u8fde","pinyin":"SanShiErLian","lng":"85.324860","lat":"44.499580"},{"id":719134,"parent_id":719102,"level":4,"area_code":"654223510531","zip_code":"834700","city_code":"0901","name":"\u5df4\u7ba1\u5904\u751f\u6d3b\u533a","short_name":"\u5df4\u7ba1\u5904","merger_name":"\u65b0\u7586,\u5854\u57ce,\u6c99\u6e7e,\u4e00\u56db\u4e8c\u56e2,\u5df4\u7ba1\u5904","pinyin":"BaGuanChu","lng":"85.627570","lat":"44.330430"},{"id":719135,"parent_id":718704,"level":3,"area_code":"654223511000","zip_code":"834700","city_code":"0901","name":"\u5175\u56e2\u4e00\u56db\u4e09\u56e2","short_name":"\u4e00\u56db\u4e09\u56e2","merger_name":"\u65b0\u7586,\u5854\u57ce,\u6c99\u6e7e,\u4e00\u56db\u4e09\u56e2","pinyin":"YiSiSanTuan","lng":"85.806660","lat":"44.277650"},{"id":719136,"parent_id":719135,"level":4,"area_code":"654223511400","zip_code":"834700","city_code":"0901","name":"\u56e2\u90e8","short_name":"\u56e2\u90e8","merger_name":"\u65b0\u7586,\u5854\u57ce,\u6c99\u6e7e,\u4e00\u56db\u4e09\u56e2,\u56e2\u90e8","pinyin":"TuanBu","lng":"85.535850","lat":"44.659810"},{"id":719137,"parent_id":719135,"level":4,"area_code":"654223511501","zip_code":"832199","city_code":"0901","name":"\u4e00\u8fde","short_name":"\u4e00\u8fde","merger_name":"\u65b0\u7586,\u5854\u57ce,\u6c99\u6e7e,\u4e00\u56db\u4e09\u56e2,\u4e00\u8fde","pinyin":"YiLian","lng":"85.811680","lat":"44.267750"},{"id":719138,"parent_id":719135,"level":4,"area_code":"654223511502","zip_code":"832199","city_code":"0901","name":"\u4e8c\u8fde","short_name":"\u4e8c\u8fde","merger_name":"\u65b0\u7586,\u5854\u57ce,\u6c99\u6e7e,\u4e00\u56db\u4e09\u56e2,\u4e8c\u8fde","pinyin":"ErLian","lng":"85.762670","lat":"44.280750"},{"id":719139,"parent_id":719135,"level":4,"area_code":"654223511503","zip_code":"832199","city_code":"0901","name":"\u4e09\u8fde","short_name":"\u4e09\u8fde","merger_name":"\u65b0\u7586,\u5854\u57ce,\u6c99\u6e7e,\u4e00\u56db\u4e09\u56e2,\u4e09\u8fde","pinyin":"SanLian","lng":"85.785580","lat":"44.236320"},{"id":719140,"parent_id":719135,"level":4,"area_code":"654223511504","zip_code":"832199","city_code":"0901","name":"\u56db\u8fde","short_name":"\u56db\u8fde","merger_name":"\u65b0\u7586,\u5854\u57ce,\u6c99\u6e7e,\u4e00\u56db\u4e09\u56e2,\u56db\u8fde","pinyin":"SiLian","lng":"85.909760","lat":"44.311200"},{"id":719141,"parent_id":719135,"level":4,"area_code":"654223511505","zip_code":"832199","city_code":"0901","name":"\u4e94\u8fde","short_name":"\u4e94\u8fde","merger_name":"\u65b0\u7586,\u5854\u57ce,\u6c99\u6e7e,\u4e00\u56db\u4e09\u56e2,\u4e94\u8fde","pinyin":"WuLian","lng":"85.769380","lat":"44.333020"},{"id":719142,"parent_id":719135,"level":4,"area_code":"654223511506","zip_code":"834700","city_code":"0901","name":"\u516d\u8fde","short_name":"\u516d\u8fde","merger_name":"\u65b0\u7586,\u5854\u57ce,\u6c99\u6e7e,\u4e00\u56db\u4e09\u56e2,\u516d\u8fde","pinyin":"LiuLian","lng":"85.860140","lat":"44.289640"},{"id":719143,"parent_id":719135,"level":4,"area_code":"654223511507","zip_code":"832199","city_code":"0901","name":"\u4e03\u8fde","short_name":"\u4e03\u8fde","merger_name":"\u65b0\u7586,\u5854\u57ce,\u6c99\u6e7e,\u4e00\u56db\u4e09\u56e2,\u4e03\u8fde","pinyin":"QiLian","lng":"85.796470","lat":"44.273790"},{"id":719144,"parent_id":719135,"level":4,"area_code":"654223511508","zip_code":"832103","city_code":"0901","name":"\u516b\u8fde","short_name":"\u516b\u8fde","merger_name":"\u65b0\u7586,\u5854\u57ce,\u6c99\u6e7e,\u4e00\u56db\u4e09\u56e2,\u516b\u8fde","pinyin":"BaLian","lng":"85.860140","lat":"44.289640"},{"id":719145,"parent_id":719135,"level":4,"area_code":"654223511509","zip_code":"832199","city_code":"0901","name":"\u4e5d\u8fde","short_name":"\u4e5d\u8fde","merger_name":"\u65b0\u7586,\u5854\u57ce,\u6c99\u6e7e,\u4e00\u56db\u4e09\u56e2,\u4e5d\u8fde","pinyin":"JiuLian","lng":"85.832400","lat":"44.272180"},{"id":719146,"parent_id":719135,"level":4,"area_code":"654223511510","zip_code":"832199","city_code":"0901","name":"\u5341\u8fde","short_name":"\u5341\u8fde","merger_name":"\u65b0\u7586,\u5854\u57ce,\u6c99\u6e7e,\u4e00\u56db\u4e09\u56e2,\u5341\u8fde","pinyin":"ShiLian","lng":"85.850880","lat":"44.254840"},{"id":719147,"parent_id":719135,"level":4,"area_code":"654223511511","zip_code":"832199","city_code":"0901","name":"\u5341\u4e00\u8fde","short_name":"\u5341\u4e00\u8fde","merger_name":"\u65b0\u7586,\u5854\u57ce,\u6c99\u6e7e,\u4e00\u56db\u4e09\u56e2,\u5341\u4e00\u8fde","pinyin":"ShiYiLian","lng":"85.875310","lat":"44.258930"},{"id":719148,"parent_id":719135,"level":4,"area_code":"654223511512","zip_code":"832199","city_code":"0901","name":"\u5341\u4e8c\u8fde","short_name":"\u5341\u4e8c\u8fde","merger_name":"\u65b0\u7586,\u5854\u57ce,\u6c99\u6e7e,\u4e00\u56db\u4e09\u56e2,\u5341\u4e8c\u8fde","pinyin":"ShiErLian","lng":"85.901330","lat":"44.273330"},{"id":719149,"parent_id":719135,"level":4,"area_code":"654223511513","zip_code":"832109","city_code":"0901","name":"\u5341\u4e09\u8fde","short_name":"\u5341\u4e09\u8fde","merger_name":"\u65b0\u7586,\u5854\u57ce,\u6c99\u6e7e,\u4e00\u56db\u4e09\u56e2,\u5341\u4e09\u8fde","pinyin":"ShiSanLian","lng":"85.762670","lat":"44.280750"},{"id":719150,"parent_id":719135,"level":4,"area_code":"654223511514","zip_code":"832199","city_code":"0901","name":"\u5341\u56db\u8fde","short_name":"\u5341\u56db\u8fde","merger_name":"\u65b0\u7586,\u5854\u57ce,\u6c99\u6e7e,\u4e00\u56db\u4e09\u56e2,\u5341\u56db\u8fde","pinyin":"ShiSiLian","lng":"85.765770","lat":"44.277660"},{"id":719151,"parent_id":719135,"level":4,"area_code":"654223511515","zip_code":"832199","city_code":"0901","name":"\u5341\u4e94\u8fde","short_name":"\u5341\u4e94\u8fde","merger_name":"\u65b0\u7586,\u5854\u57ce,\u6c99\u6e7e,\u4e00\u56db\u4e09\u56e2,\u5341\u4e94\u8fde","pinyin":"ShiWuLian","lng":"85.785580","lat":"44.236320"},{"id":719152,"parent_id":719135,"level":4,"area_code":"654223511516","zip_code":"832199","city_code":"0901","name":"\u5341\u516d\u8fde","short_name":"\u5341\u516d\u8fde","merger_name":"\u65b0\u7586,\u5854\u57ce,\u6c99\u6e7e,\u4e00\u56db\u4e09\u56e2,\u5341\u516d\u8fde","pinyin":"ShiLiuLian","lng":"85.683040","lat":"44.801940"},{"id":719153,"parent_id":719135,"level":4,"area_code":"654223511517","zip_code":"832199","city_code":"0901","name":"\u5341\u4e03\u8fde","short_name":"\u5341\u4e03\u8fde","merger_name":"\u65b0\u7586,\u5854\u57ce,\u6c99\u6e7e,\u4e00\u56db\u4e09\u56e2,\u5341\u4e03\u8fde","pinyin":"ShiQiLian","lng":"85.770400","lat":"44.312930"},{"id":719154,"parent_id":719135,"level":4,"area_code":"654223511518","zip_code":"832199","city_code":"0901","name":"\u5341\u516b\u8fde","short_name":"\u5341\u516b\u8fde","merger_name":"\u65b0\u7586,\u5854\u57ce,\u6c99\u6e7e,\u4e00\u56db\u4e09\u56e2,\u5341\u516b\u8fde","pinyin":"ShiBaLian","lng":"85.793800","lat":"44.297640"},{"id":719155,"parent_id":719135,"level":4,"area_code":"654223511519","zip_code":"832199","city_code":"0901","name":"\u5341\u4e5d\u8fde","short_name":"\u5341\u4e5d\u8fde","merger_name":"\u65b0\u7586,\u5854\u57ce,\u6c99\u6e7e,\u4e00\u56db\u4e09\u56e2,\u5341\u4e5d\u8fde","pinyin":"ShiJiuLian","lng":"85.826910","lat":"44.307860"},{"id":719156,"parent_id":719135,"level":4,"area_code":"654223511520","zip_code":"832199","city_code":"0901","name":"\u4e8c\u5341\u8fde","short_name":"\u4e8c\u5341\u8fde","merger_name":"\u65b0\u7586,\u5854\u57ce,\u6c99\u6e7e,\u4e00\u56db\u4e09\u56e2,\u4e8c\u5341\u8fde","pinyin":"ErShiLian","lng":"85.909760","lat":"44.311200"},{"id":719157,"parent_id":719135,"level":4,"area_code":"654223511521","zip_code":"832199","city_code":"0901","name":"\u4e8c\u5341\u4e00\u8fde","short_name":"\u4e8c\u5341\u4e00\u8fde","merger_name":"\u65b0\u7586,\u5854\u57ce,\u6c99\u6e7e,\u4e00\u56db\u4e09\u56e2,\u4e8c\u5341\u4e00\u8fde","pinyin":"ErShiYiLian","lng":"85.875310","lat":"44.258930"},{"id":719158,"parent_id":719135,"level":4,"area_code":"654223511522","zip_code":"832199","city_code":"0901","name":"\u4e8c\u5341\u4e09\u8fde","short_name":"\u4e8c\u5341\u4e09\u8fde","merger_name":"\u65b0\u7586,\u5854\u57ce,\u6c99\u6e7e,\u4e00\u56db\u4e09\u56e2,\u4e8c\u5341\u4e09\u8fde","pinyin":"ErShiSanLian","lng":"85.769380","lat":"44.333020"},{"id":719159,"parent_id":719135,"level":4,"area_code":"654223511523","zip_code":"832199","city_code":"0901","name":"\u56db\u7816\u5382\u751f\u6d3b\u533a","short_name":"\u56db\u7816\u5382","merger_name":"\u65b0\u7586,\u5854\u57ce,\u6c99\u6e7e,\u4e00\u56db\u4e09\u56e2,\u56db\u7816\u5382","pinyin":"SiZhuanChang","lng":"85.860140","lat":"44.289640"},{"id":719160,"parent_id":719135,"level":4,"area_code":"654223511524","zip_code":"834700","city_code":"0901","name":"\u6c34\u6ce5\u5382\u751f\u6d3b\u533a","short_name":"\u6c34\u6ce5\u5382","merger_name":"\u65b0\u7586,\u5854\u57ce,\u6c99\u6e7e,\u4e00\u56db\u4e09\u56e2,\u6c34\u6ce5\u5382","pinyin":"ShuiNiChang","lng":"85.860140","lat":"44.289640"},{"id":719161,"parent_id":719135,"level":4,"area_code":"654223511525","zip_code":"834700","city_code":"0901","name":"\u5929\u987a\u6728\u4e1a\u751f\u6d3b\u533a","short_name":"\u5929\u987a\u6728\u4e1a","merger_name":"\u65b0\u7586,\u5854\u57ce,\u6c99\u6e7e,\u4e00\u56db\u4e09\u56e2,\u5929\u987a\u6728\u4e1a","pinyin":"TianShunMuYe","lng":"85.860140","lat":"44.289640"},{"id":719162,"parent_id":719135,"level":4,"area_code":"654223511526","zip_code":"834700","city_code":"0901","name":"\u6c34\u4e00\u7ad9\u751f\u6d3b\u533a","short_name":"\u6c34\u4e00\u7ad9","merger_name":"\u65b0\u7586,\u5854\u57ce,\u6c99\u6e7e,\u4e00\u56db\u4e09\u56e2,\u6c34\u4e00\u7ad9","pinyin":"ShuiYiZhan","lng":"85.858153","lat":"44.288352"},{"id":719163,"parent_id":719135,"level":4,"area_code":"654223511527","zip_code":"832109","city_code":"0901","name":"\u91d1\u7ba1\u5904\u751f\u6d3b\u533a","short_name":"\u91d1\u7ba1\u5904","merger_name":"\u65b0\u7586,\u5854\u57ce,\u6c99\u6e7e,\u4e00\u56db\u4e09\u56e2,\u91d1\u7ba1\u5904","pinyin":"JinGuanChu","lng":"85.858153","lat":"44.288352"},{"id":719164,"parent_id":719135,"level":4,"area_code":"654223511528","zip_code":"834700","city_code":"0901","name":"\u5de5\u4e8c\u961f","short_name":"\u5de5\u4e8c\u961f","merger_name":"\u65b0\u7586,\u5854\u57ce,\u6c99\u6e7e,\u4e00\u56db\u4e09\u56e2,\u5de5\u4e8c\u961f","pinyin":"GongErDui","lng":"85.810890","lat":"44.301030"},{"id":719165,"parent_id":719135,"level":4,"area_code":"654223511529","zip_code":"834700","city_code":"0901","name":"\u7d2b\u6ce5\u6cc9\u79cd\u7f8a\u573a\u573a\u90e8","short_name":"\u7d2b\u6ce5\u6cc9\u79cd\u7f8a\u573a\u573a\u90e8","merger_name":"\u65b0\u7586,\u5854\u57ce,\u6c99\u6e7e,\u4e00\u56db\u4e09\u56e2,\u7d2b\u6ce5\u6cc9\u79cd\u7f8a\u573a\u573a\u90e8","pinyin":"ZiNiQuanZhongYangChangChangBu","lng":"85.860140","lat":"44.289640"},{"id":719166,"parent_id":719135,"level":4,"area_code":"654223511530","zip_code":"834700","city_code":"0901","name":"\u7d2b\u6ce5\u6cc9\u79cd\u7f8a\u573a\u4e8c\u8fde","short_name":"\u7d2b\u6ce5\u6cc9\u79cd\u7f8a\u573a\u4e8c\u8fde","merger_name":"\u65b0\u7586,\u5854\u57ce,\u6c99\u6e7e,\u4e00\u56db\u4e09\u56e2,\u7d2b\u6ce5\u6cc9\u79cd\u7f8a\u573a\u4e8c\u8fde","pinyin":"ZiNiQuanZhongYangChangErLian","lng":"85.177240","lat":"44.684860"},{"id":719167,"parent_id":719135,"level":4,"area_code":"654223511531","zip_code":"834700","city_code":"0901","name":"\u7d2b\u6ce5\u6cc9\u79cd\u7f8a\u573a\u4e09\u8fde","short_name":"\u7d2b\u6ce5\u6cc9\u79cd\u7f8a\u573a\u4e09\u8fde","merger_name":"\u65b0\u7586,\u5854\u57ce,\u6c99\u6e7e,\u4e00\u56db\u4e09\u56e2,\u7d2b\u6ce5\u6cc9\u79cd\u7f8a\u573a\u4e09\u8fde","pinyin":"ZiNiQuanZhongYangChangSanLian","lng":"85.757490","lat":"43.984930"},{"id":719168,"parent_id":719135,"level":4,"area_code":"654223511532","zip_code":"834700","city_code":"0901","name":"\u7d2b\u6ce5\u6cc9\u79cd\u7f8a\u573a\u56db\u8fde","short_name":"\u7d2b\u6ce5\u6cc9\u79cd\u7f8a\u573a\u56db\u8fde","merger_name":"\u65b0\u7586,\u5854\u57ce,\u6c99\u6e7e,\u4e00\u56db\u4e09\u56e2,\u7d2b\u6ce5\u6cc9\u79cd\u7f8a\u573a\u56db\u8fde","pinyin":"ZiNiQuanZhongYangChangSiLian","lng":"85.778200","lat":"44.023140"},{"id":719169,"parent_id":719135,"level":4,"area_code":"654223511533","zip_code":"834700","city_code":"0901","name":"\u7d2b\u6ce5\u6cc9\u79cd\u7f8a\u573a\u4e94\u8fde","short_name":"\u7d2b\u6ce5\u6cc9\u79cd\u7f8a\u573a\u4e94\u8fde","merger_name":"\u65b0\u7586,\u5854\u57ce,\u6c99\u6e7e,\u4e00\u56db\u4e09\u56e2,\u7d2b\u6ce5\u6cc9\u79cd\u7f8a\u573a\u4e94\u8fde","pinyin":"ZiNiQuanZhongYangChangWuLian","lng":"85.714760","lat":"44.064020"},{"id":719170,"parent_id":719135,"level":4,"area_code":"654223511534","zip_code":"834700","city_code":"0901","name":"\u7d2b\u6ce5\u6cc9\u79cd\u7f8a\u573a\u516d\u8fde","short_name":"\u7d2b\u6ce5\u6cc9\u79cd\u7f8a\u573a\u516d\u8fde","merger_name":"\u65b0\u7586,\u5854\u57ce,\u6c99\u6e7e,\u4e00\u56db\u4e09\u56e2,\u7d2b\u6ce5\u6cc9\u79cd\u7f8a\u573a\u516d\u8fde","pinyin":"ZiNiQuanZhongYangChangLiuLian","lng":"85.754400","lat":"43.983870"},{"id":719171,"parent_id":719135,"level":4,"area_code":"654223511535","zip_code":"834700","city_code":"0901","name":"\u7d2b\u6ce5\u6cc9\u79cd\u7f8a\u573a\u4e03\u8fde","short_name":"\u7d2b\u6ce5\u6cc9\u79cd\u7f8a\u573a\u4e03\u8fde","merger_name":"\u65b0\u7586,\u5854\u57ce,\u6c99\u6e7e,\u4e00\u56db\u4e09\u56e2,\u7d2b\u6ce5\u6cc9\u79cd\u7f8a\u573a\u4e03\u8fde","pinyin":"ZiNiQuanZhongYangChangQiLian","lng":"85.763090","lat":"44.063970"},{"id":719172,"parent_id":719135,"level":4,"area_code":"654223511536","zip_code":"834700","city_code":"0901","name":"\u7d2b\u6ce5\u6cc9\u79cd\u7f8a\u573a\u516b\u8fde","short_name":"\u7d2b\u6ce5\u6cc9\u79cd\u7f8a\u573a\u516b\u8fde","merger_name":"\u65b0\u7586,\u5854\u57ce,\u6c99\u6e7e,\u4e00\u56db\u4e09\u56e2,\u7d2b\u6ce5\u6cc9\u79cd\u7f8a\u573a\u516b\u8fde","pinyin":"ZiNiQuanZhongYangChangBaLian","lng":"85.797940","lat":"44.065760"},{"id":719173,"parent_id":719135,"level":4,"area_code":"654223511537","zip_code":"834700","city_code":"0901","name":"\u7d2b\u6ce5\u6cc9\u79cd\u7f8a\u573a\u5341\u8fde","short_name":"\u7d2b\u6ce5\u6cc9\u79cd\u7f8a\u573a\u5341\u8fde","merger_name":"\u65b0\u7586,\u5854\u57ce,\u6c99\u6e7e,\u4e00\u56db\u4e09\u56e2,\u7d2b\u6ce5\u6cc9\u79cd\u7f8a\u573a\u5341\u8fde","pinyin":"ZiNiQuanZhongYangChangShiLian","lng":"85.733870","lat":"44.056600"},{"id":719174,"parent_id":719135,"level":4,"area_code":"654223511538","zip_code":"834700","city_code":"0901","name":"\u7d2b\u6ce5\u6cc9\u79cd\u7f8a\u573a\u6c34\u7ba1\u6240","short_name":"\u7d2b\u6ce5\u6cc9\u79cd\u7f8a\u573a\u6c34\u7ba1\u6240","merger_name":"\u65b0\u7586,\u5854\u57ce,\u6c99\u6e7e,\u4e00\u56db\u4e09\u56e2,\u7d2b\u6ce5\u6cc9\u79cd\u7f8a\u573a\u6c34\u7ba1\u6240","pinyin":"ZiNiQuanZhongYangChangShuiGuan","lng":"85.767240","lat":"44.053510"},{"id":719175,"parent_id":719135,"level":4,"area_code":"654223511539","zip_code":"834700","city_code":"0901","name":"\u77f3\u5357\u519c\u573a\u573a\u90e8","short_name":"\u77f3\u5357\u519c\u573a\u573a\u90e8","merger_name":"\u65b0\u7586,\u5854\u57ce,\u6c99\u6e7e,\u4e00\u56db\u4e09\u56e2,\u77f3\u5357\u519c\u573a\u573a\u90e8","pinyin":"ShiNanNongChangChangBu","lng":"85.541731","lat":"44.423609"},{"id":719176,"parent_id":719135,"level":4,"area_code":"654223511540","zip_code":"834700","city_code":"0901","name":"\u77f3\u5357\u519c\u573a\u4e09\u8fde","short_name":"\u77f3\u5357\u519c\u573a\u4e09\u8fde","merger_name":"\u65b0\u7586,\u5854\u57ce,\u6c99\u6e7e,\u4e00\u56db\u4e09\u56e2,\u77f3\u5357\u519c\u573a\u4e09\u8fde","pinyin":"ShiNanNongChangSanLian","lng":"85.811630","lat":"44.236220"},{"id":719177,"parent_id":719135,"level":4,"area_code":"654223511541","zip_code":"834700","city_code":"0901","name":"\u826f\u7e41\u8fde","short_name":"\u826f\u7e41\u8fde","merger_name":"\u65b0\u7586,\u5854\u57ce,\u6c99\u6e7e,\u4e00\u56db\u4e09\u56e2,\u826f\u7e41\u8fde","pinyin":"LiangFanLian","lng":"85.860140","lat":"44.289640"},{"id":719178,"parent_id":719135,"level":4,"area_code":"654223511542","zip_code":"834700","city_code":"0901","name":"\u6c34\u4e8c\u7ad9\u751f\u6d3b\u533a","short_name":"\u6c34\u4e8c\u7ad9","merger_name":"\u65b0\u7586,\u5854\u57ce,\u6c99\u6e7e,\u4e00\u56db\u4e09\u56e2,\u6c34\u4e8c\u7ad9","pinyin":"ShuiErZhan","lng":"85.858153","lat":"44.288352"},{"id":719179,"parent_id":719135,"level":4,"area_code":"654223511543","zip_code":"834700","city_code":"0901","name":"\u6c34\u4e09\u7ad9\u751f\u6d3b\u533a","short_name":"\u6c34\u4e09\u7ad9","merger_name":"\u65b0\u7586,\u5854\u57ce,\u6c99\u6e7e,\u4e00\u56db\u4e09\u56e2,\u6c34\u4e09\u7ad9","pinyin":"ShuiSanZhan","lng":"85.858153","lat":"44.288352"},{"id":719180,"parent_id":719135,"level":4,"area_code":"654223511544","zip_code":"834700","city_code":"0901","name":"\u7d2b\u6ce5\u6cc9\u79cd\u7f8a\u573a\u4e00\u8fde","short_name":"\u7d2b\u6ce5\u6cc9\u79cd\u7f8a\u573a\u4e00\u8fde","merger_name":"\u65b0\u7586,\u5854\u57ce,\u6c99\u6e7e,\u4e00\u56db\u4e09\u56e2,\u7d2b\u6ce5\u6cc9\u79cd\u7f8a\u573a\u4e00\u8fde","pinyin":"ZiNiQuanZhongYangChangYiLian","lng":"85.976270","lat":"44.459780"},{"id":719181,"parent_id":719135,"level":4,"area_code":"654223511545","zip_code":"834700","city_code":"0901","name":"\u77f3\u5357\u519c\u573a\u4e00\u8fde","short_name":"\u77f3\u5357\u519c\u573a\u4e00\u8fde","merger_name":"\u65b0\u7586,\u5854\u57ce,\u6c99\u6e7e,\u4e00\u56db\u4e09\u56e2,\u77f3\u5357\u519c\u573a\u4e00\u8fde","pinyin":"ShiNanNongChangYiLian","lng":"85.811680","lat":"44.267750"},{"id":719182,"parent_id":719135,"level":4,"area_code":"654223511546","zip_code":"834700","city_code":"0901","name":"\u5de5\u4e09\u961f","short_name":"\u5de5\u4e09\u961f","merger_name":"\u65b0\u7586,\u5854\u57ce,\u6c99\u6e7e,\u4e00\u56db\u4e09\u56e2,\u5de5\u4e09\u961f","pinyin":"GongSanDui","lng":"85.860140","lat":"44.289640"},{"id":719183,"parent_id":719135,"level":4,"area_code":"654223511547","zip_code":"834700","city_code":"0901","name":"\u4e00\u56db\u4e09\u56e2\u7b2c\u4e00\u4e2d\u5b66\u751f\u6d3b\u533a","short_name":"\u4e00\u56db\u4e09\u56e2\u7b2c\u4e00\u4e2d\u5b66","merger_name":"\u65b0\u7586,\u5854\u57ce,\u6c99\u6e7e,\u4e00\u56db\u4e09\u56e2,\u4e00\u56db\u4e09\u56e2\u7b2c\u4e00\u4e2d\u5b66","pinyin":"YiSiSanTuanDiYiZhongXue","lng":"85.656540","lat":"44.333360"},{"id":719184,"parent_id":718704,"level":3,"area_code":"654223512000","zip_code":"834700","city_code":"0901","name":"\u5175\u56e2\u4e00\u56db\u56db\u56e2","short_name":"\u4e00\u56db\u56db\u56e2","merger_name":"\u65b0\u7586,\u5854\u57ce,\u6c99\u6e7e,\u4e00\u56db\u56db\u56e2","pinyin":"YiSiSiTuan","lng":"85.676910","lat":"44.486110"},{"id":719185,"parent_id":719184,"level":4,"area_code":"654223512400","zip_code":"834700","city_code":"0901","name":"\u56e2\u90e8","short_name":"\u56e2\u90e8","merger_name":"\u65b0\u7586,\u5854\u57ce,\u6c99\u6e7e,\u4e00\u56db\u56db\u56e2,\u56e2\u90e8","pinyin":"TuanBu","lng":"85.535850","lat":"44.659810"},{"id":719186,"parent_id":719184,"level":4,"area_code":"654223512501","zip_code":"832199","city_code":"0901","name":"\u4e00\u8fde","short_name":"\u4e00\u8fde","merger_name":"\u65b0\u7586,\u5854\u57ce,\u6c99\u6e7e,\u4e00\u56db\u56db\u56e2,\u4e00\u8fde","pinyin":"YiLian","lng":"85.798280","lat":"44.488580"},{"id":719187,"parent_id":719184,"level":4,"area_code":"654223512502","zip_code":"832199","city_code":"0901","name":"\u4e8c\u8fde","short_name":"\u4e8c\u8fde","merger_name":"\u65b0\u7586,\u5854\u57ce,\u6c99\u6e7e,\u4e00\u56db\u56db\u56e2,\u4e8c\u8fde","pinyin":"ErLian","lng":"85.766060","lat":"44.506080"},{"id":719188,"parent_id":719184,"level":4,"area_code":"654223512503","zip_code":"832199","city_code":"0901","name":"\u4e09\u8fde","short_name":"\u4e09\u8fde","merger_name":"\u65b0\u7586,\u5854\u57ce,\u6c99\u6e7e,\u4e00\u56db\u56db\u56e2,\u4e09\u8fde","pinyin":"SanLian","lng":"85.716250","lat":"44.439230"},{"id":719189,"parent_id":719184,"level":4,"area_code":"654223512504","zip_code":"832199","city_code":"0901","name":"\u56db\u8fde","short_name":"\u56db\u8fde","merger_name":"\u65b0\u7586,\u5854\u57ce,\u6c99\u6e7e,\u4e00\u56db\u56db\u56e2,\u56db\u8fde","pinyin":"SiLian","lng":"85.739620","lat":"44.453710"},{"id":719190,"parent_id":719184,"level":4,"area_code":"654223512505","zip_code":"832199","city_code":"0901","name":"\u4e94\u8fde","short_name":"\u4e94\u8fde","merger_name":"\u65b0\u7586,\u5854\u57ce,\u6c99\u6e7e,\u4e00\u56db\u56db\u56e2,\u4e94\u8fde","pinyin":"WuLian","lng":"85.781770","lat":"44.465170"},{"id":719191,"parent_id":719184,"level":4,"area_code":"654223512506","zip_code":"834700","city_code":"0901","name":"\u516d\u8fde","short_name":"\u516d\u8fde","merger_name":"\u65b0\u7586,\u5854\u57ce,\u6c99\u6e7e,\u4e00\u56db\u56db\u56e2,\u516d\u8fde","pinyin":"LiuLian","lng":"85.755450","lat":"44.488660"},{"id":719192,"parent_id":719184,"level":4,"area_code":"654223512507","zip_code":"832199","city_code":"0901","name":"\u4e03\u8fde","short_name":"\u4e03\u8fde","merger_name":"\u65b0\u7586,\u5854\u57ce,\u6c99\u6e7e,\u4e00\u56db\u56db\u56e2,\u4e03\u8fde","pinyin":"QiLian","lng":"85.612340","lat":"44.576590"},{"id":719193,"parent_id":719184,"level":4,"area_code":"654223512508","zip_code":"832103","city_code":"0901","name":"\u516b\u8fde","short_name":"\u516b\u8fde","merger_name":"\u65b0\u7586,\u5854\u57ce,\u6c99\u6e7e,\u4e00\u56db\u56db\u56e2,\u516b\u8fde","pinyin":"BaLian","lng":"85.643790","lat":"44.490540"},{"id":719194,"parent_id":719184,"level":4,"area_code":"654223512509","zip_code":"832199","city_code":"0901","name":"\u4e5d\u8fde","short_name":"\u4e5d\u8fde","merger_name":"\u65b0\u7586,\u5854\u57ce,\u6c99\u6e7e,\u4e00\u56db\u56db\u56e2,\u4e5d\u8fde","pinyin":"JiuLian","lng":"85.649900","lat":"44.546140"},{"id":719195,"parent_id":719184,"level":4,"area_code":"654223512510","zip_code":"832199","city_code":"0901","name":"\u5341\u8fde","short_name":"\u5341\u8fde","merger_name":"\u65b0\u7586,\u5854\u57ce,\u6c99\u6e7e,\u4e00\u56db\u56db\u56e2,\u5341\u8fde","pinyin":"ShiLian","lng":"85.644780","lat":"44.575400"},{"id":719196,"parent_id":719184,"level":4,"area_code":"654223512511","zip_code":"832199","city_code":"0901","name":"\u5341\u4e00\u8fde","short_name":"\u5341\u4e00\u8fde","merger_name":"\u65b0\u7586,\u5854\u57ce,\u6c99\u6e7e,\u4e00\u56db\u56db\u56e2,\u5341\u4e00\u8fde","pinyin":"ShiYiLian","lng":"85.646870","lat":"44.601180"},{"id":719197,"parent_id":719184,"level":4,"area_code":"654223512512","zip_code":"832199","city_code":"0901","name":"\u5341\u4e8c\u8fde","short_name":"\u5341\u4e8c\u8fde","merger_name":"\u65b0\u7586,\u5854\u57ce,\u6c99\u6e7e,\u4e00\u56db\u56db\u56e2,\u5341\u4e8c\u8fde","pinyin":"ShiErLian","lng":"85.477000","lat":"44.873900"},{"id":719198,"parent_id":719184,"level":4,"area_code":"654223512513","zip_code":"832109","city_code":"0901","name":"\u5341\u4e09\u8fde","short_name":"\u5341\u4e09\u8fde","merger_name":"\u65b0\u7586,\u5854\u57ce,\u6c99\u6e7e,\u4e00\u56db\u56db\u56e2,\u5341\u4e09\u8fde","pinyin":"ShiSanLian","lng":"85.611320","lat":"44.554810"},{"id":719199,"parent_id":719184,"level":4,"area_code":"654223512514","zip_code":"832199","city_code":"0901","name":"\u5341\u56db\u8fde","short_name":"\u5341\u56db\u8fde","merger_name":"\u65b0\u7586,\u5854\u57ce,\u6c99\u6e7e,\u4e00\u56db\u56db\u56e2,\u5341\u56db\u8fde","pinyin":"ShiSiLian","lng":"85.609330","lat":"44.519340"},{"id":719200,"parent_id":719184,"level":4,"area_code":"654223512515","zip_code":"832199","city_code":"0901","name":"\u5341\u4e94\u8fde","short_name":"\u5341\u4e94\u8fde","merger_name":"\u65b0\u7586,\u5854\u57ce,\u6c99\u6e7e,\u4e00\u56db\u56db\u56e2,\u5341\u4e94\u8fde","pinyin":"ShiWuLian","lng":"85.670740","lat":"44.464410"},{"id":719201,"parent_id":719184,"level":4,"area_code":"654223512516","zip_code":"832199","city_code":"0901","name":"\u4e8c\u7816\u5382\u751f\u6d3b\u533a","short_name":"\u4e8c\u7816\u5382","merger_name":"\u65b0\u7586,\u5854\u57ce,\u6c99\u6e7e,\u4e00\u56db\u56db\u56e2,\u4e8c\u7816\u5382","pinyin":"ErZhuanChang","lng":"85.679450","lat":"44.481770"},{"id":719202,"parent_id":717803,"level":2,"area_code":"654224000000","zip_code":"834700","city_code":"0901","name":"\u6258\u91cc\u53bf","short_name":"\u6258\u91cc","merger_name":"\u65b0\u7586,\u5854\u57ce,\u6258\u91cc","pinyin":"TuoLi","lng":"83.606951","lat":"45.947638"},{"id":719203,"parent_id":719202,"level":3,"area_code":"654224100000","zip_code":"834599","city_code":"0901","name":"\u6258\u91cc\u9547","short_name":"\u6258\u91cc","merger_name":"\u65b0\u7586,\u5854\u57ce,\u6258\u91cc,\u6258\u91cc","pinyin":"TuoLi","lng":"83.599940","lat":"45.956520"},{"id":719204,"parent_id":719203,"level":4,"area_code":"654224100001","zip_code":"834599","city_code":"0901","name":"\u955c\u6cc9\u5c45\u59d4\u4f1a","short_name":"\u955c\u6cc9","merger_name":"\u65b0\u7586,\u5854\u57ce,\u6258\u91cc,\u6258\u91cc,\u955c\u6cc9","pinyin":"JingQuan","lng":"83.606990","lat":"45.930350"},{"id":719205,"parent_id":719203,"level":4,"area_code":"654224100002","zip_code":"834501","city_code":"0901","name":"\u62dc\u683c\u6258\u522b\u5c45\u59d4\u4f1a","short_name":"\u62dc\u683c\u6258\u522b","merger_name":"\u65b0\u7586,\u5854\u57ce,\u6258\u91cc,\u6258\u91cc,\u62dc\u683c\u6258\u522b","pinyin":"BaiGeTuoBie","lng":"83.660180","lat":"45.994640"},{"id":719206,"parent_id":719203,"level":4,"area_code":"654224100003","zip_code":"834599","city_code":"0901","name":"\u5580\u62c9\u76d6\u5df4\u65af\u9676\u5c45\u59d4\u4f1a","short_name":"\u5580\u62c9\u76d6\u5df4\u65af\u9676","merger_name":"\u65b0\u7586,\u5854\u57ce,\u6258\u91cc,\u6258\u91cc,\u5580\u62c9\u76d6\u5df4\u65af\u9676","pinyin":"KaLaGaiBaSiTao","lng":"83.598190","lat":"45.932190"},{"id":719207,"parent_id":719203,"level":4,"area_code":"654224100004","zip_code":"834599","city_code":"0901","name":"\u94c1\u65af\u5df4\u6c57\u5c45\u59d4\u4f1a","short_name":"\u94c1\u65af\u5df4\u6c57","merger_name":"\u65b0\u7586,\u5854\u57ce,\u6258\u91cc,\u6258\u91cc,\u94c1\u65af\u5df4\u6c57","pinyin":"TieSiBaHan","lng":"83.597540","lat":"45.938920"},{"id":719208,"parent_id":719203,"level":4,"area_code":"654224100005","zip_code":"834599","city_code":"0901","name":"\u6587\u5316\u8857\u793e\u533a\u5c45\u59d4\u4f1a","short_name":"\u6587\u5316\u8857","merger_name":"\u65b0\u7586,\u5854\u57ce,\u6258\u91cc,\u6258\u91cc,\u6587\u5316\u8857","pinyin":"WenHuaJie","lng":"83.610170","lat":"45.940540"},{"id":719209,"parent_id":719203,"level":4,"area_code":"654224100006","zip_code":"834599","city_code":"0901","name":"\u590d\u5174\u8def\u793e\u533a\u5c45\u59d4\u4f1a","short_name":"\u590d\u5174\u8def","merger_name":"\u65b0\u7586,\u5854\u57ce,\u6258\u91cc,\u6258\u91cc,\u590d\u5174\u8def","pinyin":"FuXingLu","lng":"83.610170","lat":"45.940540"},{"id":719210,"parent_id":719203,"level":4,"area_code":"654224100200","zip_code":"834599","city_code":"0901","name":"\u57ce\u90ca\u6751\u59d4\u4f1a","short_name":"\u57ce\u90ca","merger_name":"\u65b0\u7586,\u5854\u57ce,\u6258\u91cc,\u6258\u91cc,\u57ce\u90ca","pinyin":"ChengJiao","lng":"83.615540","lat":"45.949630"},{"id":719211,"parent_id":719203,"level":4,"area_code":"654224100201","zip_code":"834599","city_code":"0901","name":"\u94c1\u65af\u5df4\u6c57\u6751\u59d4\u4f1a","short_name":"\u94c1\u65af\u5df4\u6c57","merger_name":"\u65b0\u7586,\u5854\u57ce,\u6258\u91cc,\u6258\u91cc,\u94c1\u65af\u5df4\u6c57","pinyin":"TieSiBaHan","lng":"83.615540","lat":"45.949630"},{"id":719212,"parent_id":719202,"level":3,"area_code":"654224101000","zip_code":"834615","city_code":"0901","name":"\u94c1\u5382\u6c9f\u9547","short_name":"\u94c1\u5382","merger_name":"\u65b0\u7586,\u5854\u57ce,\u6258\u91cc,\u94c1\u5382","pinyin":"TieChang","lng":"84.431450","lat":"46.166050"},{"id":719213,"parent_id":719212,"level":4,"area_code":"654224101001","zip_code":"834615","city_code":"0901","name":"\u540c\u5fc3\u5c45\u59d4\u4f1a","short_name":"\u540c\u5fc3","merger_name":"\u65b0\u7586,\u5854\u57ce,\u6258\u91cc,\u94c1\u5382,\u540c\u5fc3","pinyin":"TongXin","lng":"84.432090","lat":"46.165280"},{"id":719214,"parent_id":719212,"level":4,"area_code":"654224101002","zip_code":"834615","city_code":"0901","name":"\u5229\u6c11\u5c45\u59d4\u4f1a","short_name":"\u5229\u6c11","merger_name":"\u65b0\u7586,\u5854\u57ce,\u6258\u91cc,\u94c1\u5382,\u5229\u6c11","pinyin":"LiMin","lng":"84.429010","lat":"46.168330"},{"id":719215,"parent_id":719212,"level":4,"area_code":"654224101003","zip_code":"834615","city_code":"0901","name":"\u51c6\u5676\u5c14\u793e\u533a","short_name":"\u51c6\u5676\u5c14","merger_name":"\u65b0\u7586,\u5854\u57ce,\u6258\u91cc,\u94c1\u5382,\u51c6\u5676\u5c14","pinyin":"ZhunGaEr","lng":"83.619400","lat":"46.523820"},{"id":719216,"parent_id":719212,"level":4,"area_code":"654224101200","zip_code":"834615","city_code":"0901","name":"\u5357\u6e7e\u6751\u59d4\u4f1a","short_name":"\u5357\u6e7e","merger_name":"\u65b0\u7586,\u5854\u57ce,\u6258\u91cc,\u94c1\u5382,\u5357\u6e7e","pinyin":"NanWan","lng":"84.442910","lat":"46.167380"},{"id":719217,"parent_id":719212,"level":4,"area_code":"654224101201","zip_code":"834615","city_code":"0901","name":"\u963f\u52d2\u5e15\u8428\u52d2\u5e72\u6751\u59d4\u4f1a","short_name":"\u963f\u52d2\u5e15\u8428\u52d2\u5e72","merger_name":"\u65b0\u7586,\u5854\u57ce,\u6258\u91cc,\u94c1\u5382,\u963f\u52d2\u5e15\u8428\u52d2\u5e72","pinyin":"ALeiPaSaLeiGan","lng":"83.123543","lat":"46.996399"},{"id":719218,"parent_id":719212,"level":4,"area_code":"654224101203","zip_code":"834615","city_code":"0901","name":"\u54c8\u56fe\u6751\u59d4\u4f1a","short_name":"\u54c8\u56fe","merger_name":"\u65b0\u7586,\u5854\u57ce,\u6258\u91cc,\u94c1\u5382,\u54c8\u56fe","pinyin":"HaTu","lng":"84.502840","lat":"46.150000"},{"id":719219,"parent_id":719202,"level":3,"area_code":"654224102000","zip_code":"834506","city_code":"0901","name":"\u5e99\u5c14\u6c9f\u9547","short_name":"\u5e99\u5c14","merger_name":"\u65b0\u7586,\u5854\u57ce,\u6258\u91cc,\u5e99\u5c14","pinyin":"MiaoEr","lng":"83.868480","lat":"45.517220"},{"id":719220,"parent_id":719219,"level":4,"area_code":"654224102001","zip_code":"834506","city_code":"0901","name":"\u56e2\u7ed3\u793e\u533a\u5c45\u59d4\u4f1a","short_name":"\u56e2\u7ed3","merger_name":"\u65b0\u7586,\u5854\u57ce,\u6258\u91cc,\u5e99\u5c14,\u56e2\u7ed3","pinyin":"TuanJie","lng":"83.868390","lat":"45.517330"},{"id":719221,"parent_id":719219,"level":4,"area_code":"654224102200","zip_code":"834506","city_code":"0901","name":"\u767b\u683c\u514b\u6751\u59d4\u4f1a","short_name":"\u767b\u683c\u514b","merger_name":"\u65b0\u7586,\u5854\u57ce,\u6258\u91cc,\u5e99\u5c14,\u767b\u683c\u514b","pinyin":"DengGeKe","lng":"83.615540","lat":"45.949630"},{"id":719222,"parent_id":719219,"level":4,"area_code":"654224102201","zip_code":"834506","city_code":"0901","name":"\u8428\u5c14\u5580\u6728\u65af\u6751\u59d4\u4f1a","short_name":"\u8428\u5c14\u5580\u6728\u65af","merger_name":"\u65b0\u7586,\u5854\u57ce,\u6258\u91cc,\u5e99\u5c14,\u8428\u5c14\u5580\u6728\u65af","pinyin":"SaErKaMuSi","lng":"83.607310","lat":"46.509618"},{"id":719223,"parent_id":719219,"level":4,"area_code":"654224102202","zip_code":"834506","city_code":"0901","name":"\u963f\u514b\u5f00\u4e43\u70ed\u6751\u59d4\u4f1a","short_name":"\u963f\u514b\u5f00\u4e43\u70ed","merger_name":"\u65b0\u7586,\u5854\u57ce,\u6258\u91cc,\u5e99\u5c14,\u963f\u514b\u5f00\u4e43\u70ed","pinyin":"AKeKaiNaiRe","lng":"83.955380","lat":"45.284720"},{"id":719224,"parent_id":719219,"level":4,"area_code":"654224102203","zip_code":"834506","city_code":"0901","name":"\u8428\u5c14\u52a0\u514b\u6751\u59d4\u4f1a","short_name":"\u8428\u5c14\u52a0\u514b","merger_name":"\u65b0\u7586,\u5854\u57ce,\u6258\u91cc,\u5e99\u5c14,\u8428\u5c14\u52a0\u514b","pinyin":"SaErJiaKe","lng":"84.017210","lat":"45.433290"},{"id":719225,"parent_id":719219,"level":4,"area_code":"654224102204","zip_code":"834506","city_code":"0901","name":"\u6070\u52d2\u5c15\u4f9d\u6751","short_name":"\u6070\u52d2\u5c15\u4f9d\u6751","merger_name":"\u65b0\u7586,\u5854\u57ce,\u6258\u91cc,\u5e99\u5c14,\u6070\u52d2\u5c15\u4f9d\u6751","pinyin":"QiaLeiGaYiCun","lng":"83.874730","lat":"45.515490"},{"id":719226,"parent_id":719202,"level":3,"area_code":"654224200000","zip_code":"834501","city_code":"0901","name":"\u591a\u62c9\u7279\u4e61","short_name":"\u591a\u62c9\u7279","merger_name":"\u65b0\u7586,\u5854\u57ce,\u6258\u91cc,\u591a\u62c9\u7279","pinyin":"DuoLaTe","lng":"83.616900","lat":"46.108030"},{"id":719227,"parent_id":719226,"level":4,"area_code":"654224200200","zip_code":"834501","city_code":"0901","name":"\u591a\u62c9\u7279\u6751\u59d4\u4f1a","short_name":"\u591a\u62c9\u7279","merger_name":"\u65b0\u7586,\u5854\u57ce,\u6258\u91cc,\u591a\u62c9\u7279,\u591a\u62c9\u7279","pinyin":"DuoLaTe","lng":"83.659980","lat":"46.012480"},{"id":719228,"parent_id":719226,"level":4,"area_code":"654224200201","zip_code":"834501","city_code":"0901","name":"\u62dc\u4ead\u5947\u6751\u59d4\u4f1a","short_name":"\u62dc\u4ead\u5947","merger_name":"\u65b0\u7586,\u5854\u57ce,\u6258\u91cc,\u591a\u62c9\u7279,\u62dc\u4ead\u5947","pinyin":"BaiTingQi","lng":"83.607310","lat":"46.509618"},{"id":719229,"parent_id":719226,"level":4,"area_code":"654224200202","zip_code":"834501","city_code":"0901","name":"\u5c45\u9a6c\u62dc\u6751\u59d4\u4f1a","short_name":"\u5c45\u9a6c\u62dc","merger_name":"\u65b0\u7586,\u5854\u57ce,\u6258\u91cc,\u591a\u62c9\u7279,\u5c45\u9a6c\u62dc","pinyin":"JuMaBai","lng":"83.782920","lat":"46.048370"},{"id":719230,"parent_id":719226,"level":4,"area_code":"654224200203","zip_code":"834501","city_code":"0901","name":"\u62dc\u683c\u6258\u522b\u6751\u59d4\u4f1a","short_name":"\u62dc\u683c\u6258\u522b","merger_name":"\u65b0\u7586,\u5854\u57ce,\u6258\u91cc,\u591a\u62c9\u7279,\u62dc\u683c\u6258\u522b","pinyin":"BaiGeTuoBie","lng":"83.660180","lat":"45.994640"},{"id":719231,"parent_id":719226,"level":4,"area_code":"654224200204","zip_code":"834501","city_code":"0901","name":"\u963f\u52d2\u739b\u52d2\u6751\u59d4\u4f1a","short_name":"\u963f\u52d2\u739b\u52d2","merger_name":"\u65b0\u7586,\u5854\u57ce,\u6258\u91cc,\u591a\u62c9\u7279,\u963f\u52d2\u739b\u52d2","pinyin":"ALeiMaLei","lng":"84.182400","lat":"44.466280"},{"id":719232,"parent_id":719226,"level":4,"area_code":"654224200205","zip_code":"834501","city_code":"0901","name":"\u8428\u4f9d\u5df4\u514b\u6751\u59d4\u4f1a","short_name":"\u8428\u4f9d\u5df4\u514b","merger_name":"\u65b0\u7586,\u5854\u57ce,\u6258\u91cc,\u591a\u62c9\u7279,\u8428\u4f9d\u5df4\u514b","pinyin":"SaYiBaKe","lng":"85.354220","lat":"44.360450"},{"id":719233,"parent_id":719226,"level":4,"area_code":"654224200206","zip_code":"834501","city_code":"0901","name":"\u4e4e\u5409\u5c14\u53f0\u6751\u59d4\u4f1a","short_name":"\u4e4e\u5409\u5c14\u53f0","merger_name":"\u65b0\u7586,\u5854\u57ce,\u6258\u91cc,\u591a\u62c9\u7279,\u4e4e\u5409\u5c14\u53f0","pinyin":"HuJiErTai","lng":"83.618820","lat":"46.095410"},{"id":719234,"parent_id":719226,"level":4,"area_code":"654224200207","zip_code":"834501","city_code":"0901","name":"\u52a0\u6717\u963f\u4ec0\u6751\u59d4\u4f1a","short_name":"\u52a0\u6717\u963f\u4ec0","merger_name":"\u65b0\u7586,\u5854\u57ce,\u6258\u91cc,\u591a\u62c9\u7279,\u52a0\u6717\u963f\u4ec0","pinyin":"JiaLangAShen","lng":"83.805670","lat":"45.696160"},{"id":719235,"parent_id":719226,"level":4,"area_code":"654224200208","zip_code":"834501","city_code":"0901","name":"\u52a0\u739b\u7279\u6751\u59d4\u4f1a","short_name":"\u52a0\u739b\u7279","merger_name":"\u65b0\u7586,\u5854\u57ce,\u6258\u91cc,\u591a\u62c9\u7279,\u52a0\u739b\u7279","pinyin":"JiaMaTe","lng":"83.520300","lat":"45.756430"},{"id":719236,"parent_id":719226,"level":4,"area_code":"654224200209","zip_code":"834501","city_code":"0901","name":"\u5854\u514b\u52d2\u6839\u6751\u59d4\u4f1a","short_name":"\u5854\u514b\u52d2\u6839","merger_name":"\u65b0\u7586,\u5854\u57ce,\u6258\u91cc,\u591a\u62c9\u7279,\u5854\u514b\u52d2\u6839","pinyin":"TaKeLeGen","lng":"83.441110","lat":"45.375480"},{"id":719237,"parent_id":719226,"level":4,"area_code":"654224200210","zip_code":"834501","city_code":"0901","name":"\u963f\u514b\u8d5b\u6751\u59d4\u4f1a","short_name":"\u963f\u514b\u8d5b","merger_name":"\u65b0\u7586,\u5854\u57ce,\u6258\u91cc,\u591a\u62c9\u7279,\u963f\u514b\u8d5b","pinyin":"AKeSai","lng":"83.528610","lat":"46.032000"},{"id":719238,"parent_id":719226,"level":4,"area_code":"654224200211","zip_code":"834501","city_code":"0901","name":"\u5409\u4e5f\u514b\u6751\u59d4\u4f1a","short_name":"\u5409\u4e5f\u514b","merger_name":"\u65b0\u7586,\u5854\u57ce,\u6258\u91cc,\u591a\u62c9\u7279,\u5409\u4e5f\u514b","pinyin":"JiYeKe","lng":"83.553100","lat":"46.297270"},{"id":719239,"parent_id":719226,"level":4,"area_code":"654224200212","zip_code":"834503","city_code":"0901","name":"\u52a0\u5c14\u5df4\u65af\u6751\u59d4\u4f1a","short_name":"\u52a0\u5c14\u5df4\u65af","merger_name":"\u65b0\u7586,\u5854\u57ce,\u6258\u91cc,\u591a\u62c9\u7279,\u52a0\u5c14\u5df4\u65af","pinyin":"JiaErBaSi","lng":"83.667570","lat":"46.109990"},{"id":719240,"parent_id":719226,"level":4,"area_code":"654224200213","zip_code":"834501","city_code":"0901","name":"\u5580\u62c9\u82cf\u6751\u59d4\u4f1a","short_name":"\u5580\u62c9\u82cf","merger_name":"\u65b0\u7586,\u5854\u57ce,\u6258\u91cc,\u591a\u62c9\u7279,\u5580\u62c9\u82cf","pinyin":"KaLaSu","lng":"82.871130","lat":"46.456410"},{"id":719241,"parent_id":719226,"level":4,"area_code":"654224200214","zip_code":"834501","city_code":"0901","name":"\u51ac\u53e4\u5217\u514b\u6751\u59d4\u4f1a","short_name":"\u51ac\u53e4\u5217\u514b","merger_name":"\u65b0\u7586,\u5854\u57ce,\u6258\u91cc,\u591a\u62c9\u7279,\u51ac\u53e4\u5217\u514b","pinyin":"DongGuLieKe","lng":"83.586160","lat":"46.334130"},{"id":719242,"parent_id":719202,"level":3,"area_code":"654224201000","zip_code":"834502","city_code":"0901","name":"\u4e4c\u96ea\u7279\u4e61","short_name":"\u4e4c\u96ea\u7279","merger_name":"\u65b0\u7586,\u5854\u57ce,\u6258\u91cc,\u4e4c\u96ea\u7279","pinyin":"WuXueTe","lng":"83.927800","lat":"46.105410"},{"id":719243,"parent_id":719242,"level":4,"area_code":"654224201200","zip_code":"834502","city_code":"0901","name":"\u514b\u5b5c\u52d2\u514b\u4e9a\u6751\u59d4\u4f1a","short_name":"\u514b\u5b5c\u52d2\u514b\u4e9a","merger_name":"\u65b0\u7586,\u5854\u57ce,\u6258\u91cc,\u4e4c\u96ea\u7279,\u514b\u5b5c\u52d2\u514b\u4e9a","pinyin":"KeZiLeiKeYa","lng":"83.986890","lat":"46.088110"},{"id":719244,"parent_id":719242,"level":4,"area_code":"654224201201","zip_code":"834502","city_code":"0901","name":"\u83ab\u5fb7\u7eb3\u5df4\u6751\u59d4\u4f1a","short_name":"\u83ab\u5fb7\u7eb3\u5df4","merger_name":"\u65b0\u7586,\u5854\u57ce,\u6258\u91cc,\u4e4c\u96ea\u7279,\u83ab\u5fb7\u7eb3\u5df4","pinyin":"MoDeNaBa","lng":"85.354220","lat":"44.360450"},{"id":719245,"parent_id":719242,"level":4,"area_code":"654224201202","zip_code":"834502","city_code":"0901","name":"\u5e03\u5c14\u514b\u5854\u52d2\u6751\u59d4\u4f1a","short_name":"\u5e03\u5c14\u514b\u5854\u52d2","merger_name":"\u65b0\u7586,\u5854\u57ce,\u6258\u91cc,\u4e4c\u96ea\u7279,\u5e03\u5c14\u514b\u5854\u52d2","pinyin":"BuErKeTaLei","lng":"83.946530","lat":"46.096420"},{"id":719246,"parent_id":719242,"level":4,"area_code":"654224201203","zip_code":"834502","city_code":"0901","name":"\u5e93\u6728\u6258\u522b\u6751\u59d4\u4f1a","short_name":"\u5e93\u6728\u6258\u522b","merger_name":"\u65b0\u7586,\u5854\u57ce,\u6258\u91cc,\u4e4c\u96ea\u7279,\u5e93\u6728\u6258\u522b","pinyin":"KuMuTuoBie","lng":"82.889000","lat":"46.392220"},{"id":719247,"parent_id":719242,"level":4,"area_code":"654224201204","zip_code":"834502","city_code":"0901","name":"\u4e95\u4ec0\u514b\u82cf\u6751\u59d4\u4f1a","short_name":"\u4e95\u4ec0\u514b\u82cf","merger_name":"\u65b0\u7586,\u5854\u57ce,\u6258\u91cc,\u4e4c\u96ea\u7279,\u4e95\u4ec0\u514b\u82cf","pinyin":"JingShenKeSu","lng":"83.615540","lat":"45.949630"},{"id":719248,"parent_id":719242,"level":4,"area_code":"654224201205","zip_code":"834502","city_code":"0901","name":"\u54c8\u8d5e\u5e93\u6728\u6751\u59d4\u4f1a","short_name":"\u54c8\u8d5e\u5e93\u6728","merger_name":"\u65b0\u7586,\u5854\u57ce,\u6258\u91cc,\u4e4c\u96ea\u7279,\u54c8\u8d5e\u5e93\u6728","pinyin":"HaZanKuMu","lng":"83.946530","lat":"46.096420"},{"id":719249,"parent_id":719242,"level":4,"area_code":"654224201206","zip_code":"834502","city_code":"0901","name":"\u54c8\u62c9\u82cf\u6751\u59d4\u4f1a","short_name":"\u54c8\u62c9\u82cf","merger_name":"\u65b0\u7586,\u5854\u57ce,\u6258\u91cc,\u4e4c\u96ea\u7279,\u54c8\u62c9\u82cf","pinyin":"HaLaSu","lng":"83.502600","lat":"46.553300"},{"id":719250,"parent_id":719242,"level":4,"area_code":"654224201207","zip_code":"834502","city_code":"0901","name":"\u65e6\u6728\u6751\u59d4\u4f1a","short_name":"\u65e6\u6728","merger_name":"\u65b0\u7586,\u5854\u57ce,\u6258\u91cc,\u4e4c\u96ea\u7279,\u65e6\u6728","pinyin":"DanMu","lng":"85.196940","lat":"46.179200"},{"id":719251,"parent_id":719242,"level":4,"area_code":"654224201208","zip_code":"834502","city_code":"0901","name":"\u8428\u5c14\u5854\u52d2\u6751\u59d4\u4f1a","short_name":"\u8428\u5c14\u5854\u52d2","merger_name":"\u65b0\u7586,\u5854\u57ce,\u6258\u91cc,\u4e4c\u96ea\u7279,\u8428\u5c14\u5854\u52d2","pinyin":"SaErTaLei","lng":"85.174721","lat":"46.182357"},{"id":719252,"parent_id":719242,"level":4,"area_code":"654224201209","zip_code":"834502","city_code":"0901","name":"\u5410\u5b5c\u6258\u6d6a\u683c\u6751\u59d4\u4f1a","short_name":"\u5410\u5b5c\u6258\u6d6a\u683c","merger_name":"\u65b0\u7586,\u5854\u57ce,\u6258\u91cc,\u4e4c\u96ea\u7279,\u5410\u5b5c\u6258\u6d6a\u683c","pinyin":"TuZiTuoLangGe","lng":"83.948800","lat":"46.096290"},{"id":719253,"parent_id":719242,"level":4,"area_code":"654224201210","zip_code":"834502","city_code":"0901","name":"\u739b\u4f9d\u54c8\u5df4\u514b\u6751\u59d4\u4f1a","short_name":"\u739b\u4f9d\u54c8\u5df4\u514b","merger_name":"\u65b0\u7586,\u5854\u57ce,\u6258\u91cc,\u4e4c\u96ea\u7279,\u739b\u4f9d\u54c8\u5df4\u514b","pinyin":"MaYiHaBaKe","lng":"83.912350","lat":"46.085320"},{"id":719254,"parent_id":719242,"level":4,"area_code":"654224201211","zip_code":"834502","city_code":"0901","name":"\u4e95\u4ec0\u514b\u82cf\u4e2d\u6751\u59d4\u4f1a","short_name":"\u4e95\u4ec0\u514b\u82cf\u4e2d","merger_name":"\u65b0\u7586,\u5854\u57ce,\u6258\u91cc,\u4e4c\u96ea\u7279,\u4e95\u4ec0\u514b\u82cf\u4e2d","pinyin":"JingShenKeSuZhong","lng":"83.997950","lat":"46.110870"},{"id":719255,"parent_id":719242,"level":4,"area_code":"654224201213","zip_code":"834502","city_code":"0901","name":"\u8fbe\u5c14\u5e03\u7279\u6751\u59d4\u4f1a","short_name":"\u8fbe\u5c14\u5e03\u7279","merger_name":"\u65b0\u7586,\u5854\u57ce,\u6258\u91cc,\u4e4c\u96ea\u7279,\u8fbe\u5c14\u5e03\u7279","pinyin":"DaErBuTe","lng":"84.182400","lat":"44.466280"},{"id":719256,"parent_id":719202,"level":3,"area_code":"654224202000","zip_code":"834700","city_code":"0901","name":"\u5e93\u666e\u4e61","short_name":"\u5e93\u666e","merger_name":"\u65b0\u7586,\u5854\u57ce,\u6258\u91cc,\u5e93\u666e","pinyin":"KuPu","lng":"83.317230","lat":"45.827770"},{"id":719257,"parent_id":719256,"level":4,"area_code":"654224202200","zip_code":"834502","city_code":"0901","name":"\u5e93\u666e\u6751\u59d4\u4f1a","short_name":"\u5e93\u666e","merger_name":"\u65b0\u7586,\u5854\u57ce,\u6258\u91cc,\u5e93\u666e,\u5e93\u666e","pinyin":"KuPu","lng":"83.317230","lat":"45.827770"},{"id":719258,"parent_id":719256,"level":4,"area_code":"654224202201","zip_code":"834505","city_code":"0901","name":"\u6770\u7279\u7a9d\u5df4\u6751\u59d4\u4f1a","short_name":"\u6770\u7279\u7a9d\u5df4","merger_name":"\u65b0\u7586,\u5854\u57ce,\u6258\u91cc,\u5e93\u666e,\u6770\u7279\u7a9d\u5df4","pinyin":"JieTeWoBa","lng":"83.311180","lat":"45.826070"},{"id":719259,"parent_id":719256,"level":4,"area_code":"654224202202","zip_code":"834501","city_code":"0901","name":"\u52a0\u6728\u5e03\u52d2\u6751\u59d4\u4f1a","short_name":"\u52a0\u6728\u5e03\u52d2","merger_name":"\u65b0\u7586,\u5854\u57ce,\u6258\u91cc,\u5e93\u666e,\u52a0\u6728\u5e03\u52d2","pinyin":"JiaMuBuLei","lng":"83.361590","lat":"45.850550"},{"id":719260,"parent_id":719256,"level":4,"area_code":"654224202203","zip_code":"834599","city_code":"0901","name":"\u5580\u62c9\u6258\u522b\u6751\u59d4\u4f1a","short_name":"\u5580\u62c9\u6258\u522b","merger_name":"\u65b0\u7586,\u5854\u57ce,\u6258\u91cc,\u5e93\u666e,\u5580\u62c9\u6258\u522b","pinyin":"KaLaTuoBie","lng":"83.414350","lat":"46.013060"},{"id":719261,"parent_id":719256,"level":4,"area_code":"654224202204","zip_code":"834502","city_code":"0901","name":"\u514b\u5b5c\u52d2\u52a0\u5c14\u6751\u59d4\u4f1a","short_name":"\u514b\u5b5c\u52d2\u52a0\u5c14","merger_name":"\u65b0\u7586,\u5854\u57ce,\u6258\u91cc,\u5e93\u666e,\u514b\u5b5c\u52d2\u52a0\u5c14","pinyin":"KeZiLeiJiaEr","lng":"83.318092","lat":"45.826927"},{"id":719262,"parent_id":719256,"level":4,"area_code":"654224202205","zip_code":"834700","city_code":"0901","name":"\u6717\u53e4\u7279\u52d2\u6751\u59d4\u4f1a","short_name":"\u6717\u53e4\u7279\u52d2","merger_name":"\u65b0\u7586,\u5854\u57ce,\u6258\u91cc,\u5e93\u666e,\u6717\u53e4\u7279\u52d2","pinyin":"LangGuTeLe","lng":"83.342480","lat":"45.877180"},{"id":719263,"parent_id":719256,"level":4,"area_code":"654224202207","zip_code":"834505","city_code":"0901","name":"\u547c\u5580\u62c9\u76d6\u6751\u59d4\u4f1a","short_name":"\u547c\u5580\u62c9\u76d6","merger_name":"\u65b0\u7586,\u5854\u57ce,\u6258\u91cc,\u5e93\u666e,\u547c\u5580\u62c9\u76d6","pinyin":"HuKaLaGai","lng":"83.287980","lat":"45.936580"},{"id":719264,"parent_id":719256,"level":4,"area_code":"654224202208","zip_code":"834700","city_code":"0901","name":"\u65b0\u6751\u59d4\u4f1a","short_name":"\u65b0","merger_name":"\u65b0\u7586,\u5854\u57ce,\u6258\u91cc,\u5e93\u666e,\u65b0","pinyin":"Xin","lng":"83.317230","lat":"45.827770"},{"id":719265,"parent_id":719256,"level":4,"area_code":"654224202209","zip_code":"834505","city_code":"0901","name":"\u5e03\u5c14\u5408\u65af\u53f0\u6751\u59d4\u4f1a","short_name":"\u5e03\u5c14\u5408\u65af\u53f0","merger_name":"\u65b0\u7586,\u5854\u57ce,\u6258\u91cc,\u5e93\u666e,\u5e03\u5c14\u5408\u65af\u53f0","pinyin":"BuErHeSiTai","lng":"83.615540","lat":"45.949630"},{"id":719266,"parent_id":719256,"level":4,"area_code":"654224202210","zip_code":"834502","city_code":"0901","name":"\u82cf\u543e\u5c14\u6751\u59d4\u4f1a","short_name":"\u82cf\u543e\u5c14","merger_name":"\u65b0\u7586,\u5854\u57ce,\u6258\u91cc,\u5e93\u666e,\u82cf\u543e\u5c14","pinyin":"SuWuEr","lng":"83.317230","lat":"45.827770"},{"id":719267,"parent_id":719256,"level":4,"area_code":"654224202211","zip_code":"834505","city_code":"0901","name":"\u8428\u5c14\u5df4\u65af\u9676\u6751\u59d4\u4f1a","short_name":"\u8428\u5c14\u5df4\u65af\u9676","merger_name":"\u65b0\u7586,\u5854\u57ce,\u6258\u91cc,\u5e93\u666e,\u8428\u5c14\u5df4\u65af\u9676","pinyin":"SaErBaSiTao","lng":"83.598140","lat":"45.930580"},{"id":719268,"parent_id":719256,"level":4,"area_code":"654224202212","zip_code":"834505","city_code":"0901","name":"\u9614\u514b\u54c8\u8fbe\u6751\u59d4\u4f1a","short_name":"\u9614\u514b\u54c8\u8fbe","merger_name":"\u65b0\u7586,\u5854\u57ce,\u6258\u91cc,\u5e93\u666e,\u9614\u514b\u54c8\u8fbe","pinyin":"KuoKeHaDa","lng":"83.806270","lat":"45.398210"},{"id":719269,"parent_id":719256,"level":4,"area_code":"654224202213","zip_code":"834504","city_code":"0901","name":"\u963f\u514b\u5854\u56e0\u6070\u6751\u59d4\u4f1a","short_name":"\u963f\u514b\u5854\u56e0\u6070","merger_name":"\u65b0\u7586,\u5854\u57ce,\u6258\u91cc,\u5e93\u666e,\u963f\u514b\u5854\u56e0\u6070","pinyin":"AKeTaYinQia","lng":"83.437780","lat":"46.036750"},{"id":719270,"parent_id":719256,"level":4,"area_code":"654224202214","zip_code":"834599","city_code":"0901","name":"\u5580\u62c9\u4e54\u514b\u6751\u59d4\u4f1a","short_name":"\u5580\u62c9\u4e54\u514b","merger_name":"\u65b0\u7586,\u5854\u57ce,\u6258\u91cc,\u5e93\u666e,\u5580\u62c9\u4e54\u514b","pinyin":"KaLaQiaoKe","lng":"82.985760","lat":"46.163480"},{"id":719271,"parent_id":719256,"level":4,"area_code":"654224202215","zip_code":"834700","city_code":"0901","name":"\u4e5f\u65af\u9053\u543e\u5217\u63d0\u6751\u59d4\u4f1a","short_name":"\u4e5f\u65af\u9053\u543e\u5217\u63d0","merger_name":"\u65b0\u7586,\u5854\u57ce,\u6258\u91cc,\u5e93\u666e,\u4e5f\u65af\u9053\u543e\u5217\u63d0","pinyin":"YeSiDaoWuLieTi","lng":"83.515150","lat":"45.468646"},{"id":719272,"parent_id":719256,"level":4,"area_code":"654224202216","zip_code":"834502","city_code":"0901","name":"\u4e5f\u6728\u5176\u6751\u59d4\u4f1a","short_name":"\u4e5f\u6728\u5176","merger_name":"\u65b0\u7586,\u5854\u57ce,\u6258\u91cc,\u5e93\u666e,\u4e5f\u6728\u5176","pinyin":"YeMuQi","lng":"83.596460","lat":"45.508480"},{"id":719273,"parent_id":719256,"level":4,"area_code":"654224202217","zip_code":"834501","city_code":"0901","name":"\u591a\u62c9\u7279\u6751\u59d4\u4f1a","short_name":"\u591a\u62c9\u7279","merger_name":"\u65b0\u7586,\u5854\u57ce,\u6258\u91cc,\u5e93\u666e,\u591a\u62c9\u7279","pinyin":"DuoLaTe","lng":"83.659980","lat":"46.012480"},{"id":719274,"parent_id":719256,"level":4,"area_code":"654224202218","zip_code":"834505","city_code":"0901","name":"\u522b\u62c9\u4ec0\u6751\u59d4\u4f1a","short_name":"\u522b\u62c9\u4ec0","merger_name":"\u65b0\u7586,\u5854\u57ce,\u6258\u91cc,\u5e93\u666e,\u522b\u62c9\u4ec0","pinyin":"BieLaShen","lng":"84.182400","lat":"44.466280"},{"id":719275,"parent_id":719256,"level":4,"area_code":"654224202219","zip_code":"834505","city_code":"0901","name":"\u8428\u5c14\u7a9d\u5b5c\u514b\u6751\u59d4\u4f1a","short_name":"\u8428\u5c14\u7a9d\u5b5c\u514b","merger_name":"\u65b0\u7586,\u5854\u57ce,\u6258\u91cc,\u5e93\u666e,\u8428\u5c14\u7a9d\u5b5c\u514b","pinyin":"SaErWoZiKe","lng":"83.361590","lat":"45.850550"},{"id":719276,"parent_id":719202,"level":3,"area_code":"654224203000","zip_code":"834504","city_code":"0901","name":"\u963f\u514b\u522b\u91cc\u6597\u4e61","short_name":"\u963f\u514b\u522b\u91cc\u6597","merger_name":"\u65b0\u7586,\u5854\u57ce,\u6258\u91cc,\u963f\u514b\u522b\u91cc\u6597","pinyin":"AKeBieLiDou","lng":"83.371070","lat":"46.228840"},{"id":719277,"parent_id":719276,"level":4,"area_code":"654224203200","zip_code":"834504","city_code":"0901","name":"\u739b\u4f9d\u62c9\u6839\u6751\u59d4\u4f1a","short_name":"\u739b\u4f9d\u62c9\u6839","merger_name":"\u65b0\u7586,\u5854\u57ce,\u6258\u91cc,\u963f\u514b\u522b\u91cc\u6597,\u739b\u4f9d\u62c9\u6839","pinyin":"MaYiLaGen","lng":"83.439120","lat":"46.215970"},{"id":719278,"parent_id":719276,"level":4,"area_code":"654224203201","zip_code":"834504","city_code":"0901","name":"\u963f\u514b\u522b\u91cc\u6597\u6751\u59d4\u4f1a","short_name":"\u963f\u514b\u522b\u91cc\u6597","merger_name":"\u65b0\u7586,\u5854\u57ce,\u6258\u91cc,\u963f\u514b\u522b\u91cc\u6597,\u963f\u514b\u522b\u91cc\u6597","pinyin":"AKeBieLiDou","lng":"83.445040","lat":"46.215590"},{"id":719279,"parent_id":719276,"level":4,"area_code":"654224203202","zip_code":"834504","city_code":"0901","name":"\u65b0\u6797\u6751\u59d4\u4f1a","short_name":"\u65b0\u6797","merger_name":"\u65b0\u7586,\u5854\u57ce,\u6258\u91cc,\u963f\u514b\u522b\u91cc\u6597,\u65b0\u6797","pinyin":"XinLin","lng":"83.360140","lat":"46.235820"},{"id":719280,"parent_id":719276,"level":4,"area_code":"654224203203","zip_code":"834504","city_code":"0901","name":"\u5580\u62c9\u5e93\u6728\u6751\u59d4\u4f1a","short_name":"\u5580\u62c9\u5e93\u6728","merger_name":"\u65b0\u7586,\u5854\u57ce,\u6258\u91cc,\u963f\u514b\u522b\u91cc\u6597,\u5580\u62c9\u5e93\u6728","pinyin":"KaLaKuMu","lng":"83.360140","lat":"46.235820"},{"id":719281,"parent_id":719276,"level":4,"area_code":"654224203204","zip_code":"834504","city_code":"0901","name":"\u6c5f\u5e03\u52d2\u9614\u62c9\u6751\u59d4\u4f1a","short_name":"\u6c5f\u5e03\u52d2\u9614\u62c9","merger_name":"\u65b0\u7586,\u5854\u57ce,\u6258\u91cc,\u963f\u514b\u522b\u91cc\u6597,\u6c5f\u5e03\u52d2\u9614\u62c9","pinyin":"JiangBuLeiKuoLa","lng":"83.607310","lat":"46.509618"},{"id":719282,"parent_id":719276,"level":4,"area_code":"654224203205","zip_code":"834504","city_code":"0901","name":"\u822a\u52d2\u6751\u59d4\u4f1a","short_name":"\u822a\u52d2","merger_name":"\u65b0\u7586,\u5854\u57ce,\u6258\u91cc,\u963f\u514b\u522b\u91cc\u6597,\u822a\u52d2","pinyin":"HangLei","lng":"83.292160","lat":"46.151830"},{"id":719283,"parent_id":719276,"level":4,"area_code":"654224203209","zip_code":"834504","city_code":"0901","name":"\u739b\u4f9d\u52d2\u6751\u59d4\u4f1a","short_name":"\u739b\u4f9d\u52d2","merger_name":"\u65b0\u7586,\u5854\u57ce,\u6258\u91cc,\u963f\u514b\u522b\u91cc\u6597,\u739b\u4f9d\u52d2","pinyin":"MaYiLei","lng":"83.360140","lat":"46.235820"},{"id":719284,"parent_id":719276,"level":4,"area_code":"654224203210","zip_code":"834504","city_code":"0901","name":"\u4e5f\u683c\u5b5c\u5e93\u52d2\u6751\u59d4\u4f1a","short_name":"\u4e5f\u683c\u5b5c\u5e93\u52d2","merger_name":"\u65b0\u7586,\u5854\u57ce,\u6258\u91cc,\u963f\u514b\u522b\u91cc\u6597,\u4e5f\u683c\u5b5c\u5e93\u52d2","pinyin":"YeGeZiKuLei","lng":"83.472180","lat":"46.271710"},{"id":719285,"parent_id":719276,"level":4,"area_code":"654224203212","zip_code":"834504","city_code":"0901","name":"\u62c9\u5df4\u6751\u59d4\u4f1a","short_name":"\u62c9\u5df4","merger_name":"\u65b0\u7586,\u5854\u57ce,\u6258\u91cc,\u963f\u514b\u522b\u91cc\u6597,\u62c9\u5df4","pinyin":"LaBa","lng":"83.445040","lat":"46.215590"},{"id":719286,"parent_id":719202,"level":3,"area_code":"654224401000","zip_code":"834700","city_code":"0901","name":"\u767d\u6768\u6cb3\u6797\u573a","short_name":"\u767d\u6768\u6cb3\u6797\u573a","merger_name":"\u65b0\u7586,\u5854\u57ce,\u6258\u91cc,\u767d\u6768\u6cb3\u6797\u573a","pinyin":"BaiYangHeLinChang","lng":"85.199753","lat":"46.180218"},{"id":719287,"parent_id":719286,"level":4,"area_code":"654224401598","zip_code":"834700","city_code":"0901","name":"\u767d\u6768\u6cb3\u6797\u573a\u865a\u62df\u751f\u6d3b\u533a","short_name":"\u767d\u6768\u6cb3\u6797\u573a\u865a\u62df","merger_name":"\u65b0\u7586,\u5854\u57ce,\u6258\u91cc,\u767d\u6768\u6cb3\u6797\u573a,\u767d\u6768\u6cb3\u6797\u573a\u865a\u62df","pinyin":"BaiYangHeLinChangXuNi","lng":"85.180573","lat":"46.133778"},{"id":719288,"parent_id":719202,"level":3,"area_code":"654224402000","zip_code":"834700","city_code":"0901","name":"\u8001\u98ce\u53e3\u6797\u573a","short_name":"\u8001\u98ce\u53e3\u6797\u573a","merger_name":"\u65b0\u7586,\u5854\u57ce,\u6258\u91cc,\u8001\u98ce\u53e3\u6797\u573a","pinyin":"LaoFengKouLinChang","lng":"83.612000","lat":"46.180690"},{"id":719289,"parent_id":719288,"level":4,"area_code":"654224402598","zip_code":"834503","city_code":"0901","name":"\u8001\u98ce\u53e3\u6797\u573a\u865a\u62df\u751f\u6d3b\u533a","short_name":"\u8001\u98ce\u53e3\u6797\u573a\u865a\u62df","merger_name":"\u65b0\u7586,\u5854\u57ce,\u6258\u91cc,\u8001\u98ce\u53e3\u6797\u573a,\u8001\u98ce\u53e3\u6797\u573a\u865a\u62df","pinyin":"LaoFengKouLinChangXuNi","lng":"83.612000","lat":"46.180690"},{"id":719290,"parent_id":719202,"level":3,"area_code":"654224403000","zip_code":"834700","city_code":"0901","name":"\u5df4\u5c14\u9c81\u514b\u5c71\u5854\u65af\u7279\u6797\u573a","short_name":"\u5df4\u5c14\u9c81\u514b\u5c71\u5854\u65af\u7279\u6797\u573a","merger_name":"\u65b0\u7586,\u5854\u57ce,\u6258\u91cc,\u5df4\u5c14\u9c81\u514b\u5c71\u5854\u65af\u7279\u6797\u573a","pinyin":"BaErLuKeShanTaSiTeLinChang","lng":"83.046290","lat":"45.742010"},{"id":719291,"parent_id":719290,"level":4,"area_code":"654224403598","zip_code":"834700","city_code":"0901","name":"\u5df4\u5c14\u9c81\u514b\u5c71\u5854\u65af\u7279\u6797\u573a\u865a\u62df\u751f\u6d3b\u533a","short_name":"\u5df4\u5c14\u9c81\u514b\u5c71\u5854\u65af\u7279\u6797\u573a\u865a\u62df","merger_name":"\u65b0\u7586,\u5854\u57ce,\u6258\u91cc,\u5df4\u5c14\u9c81\u514b\u5c71\u5854\u65af\u7279\u6797\u573a,\u5df4\u5c14\u9c81\u514b\u5c71\u5854\u65af\u7279\u6797\u573a\u865a\u62df","pinyin":"BaErLuKeShanTaSiTeLinChangXuNi","lng":"83.612050","lat":"45.937940"},{"id":719292,"parent_id":719202,"level":3,"area_code":"654224510000","zip_code":"834700","city_code":"0901","name":"\u5175\u56e2\u519c\u4e5d\u5e08\u4e00\u4e03\u96f6\u56e2","short_name":"\u519c\u4e5d\u5e08\u4e00\u4e03\u96f6\u56e2","merger_name":"\u65b0\u7586,\u5854\u57ce,\u6258\u91cc,\u519c\u4e5d\u5e08\u4e00\u4e03\u96f6\u56e2","pinyin":"NongJiuShiYiQiLingTuan","lng":"83.867584","lat":"45.516491"},{"id":719293,"parent_id":719292,"level":4,"area_code":"654224510400","zip_code":"834700","city_code":"0901","name":"\u56e2\u90e8","short_name":"\u56e2\u90e8","merger_name":"\u65b0\u7586,\u5854\u57ce,\u6258\u91cc,\u519c\u4e5d\u5e08\u4e00\u4e03\u96f6\u56e2,\u56e2\u90e8","pinyin":"TuanBu","lng":"83.867584","lat":"45.516491"},{"id":719294,"parent_id":719292,"level":4,"area_code":"654224510501","zip_code":"834700","city_code":"0901","name":"\u4e00\u8fde","short_name":"\u4e00\u8fde","merger_name":"\u65b0\u7586,\u5854\u57ce,\u6258\u91cc,\u519c\u4e5d\u5e08\u4e00\u4e03\u96f6\u56e2,\u4e00\u8fde","pinyin":"YiLian","lng":"83.867584","lat":"45.516491"},