[{"id":78001,"parent_id":77996,"level":4,"area_code":"140431204205","zip_code":"46599","city_code":"0355","name":"\u5b9a\u6e56\u6751\u59d4\u4f1a","short_name":"\u5b9a\u6e56","merger_name":"\u5c71\u897f,\u957f\u6cbb,\u6c81\u6e90,\u97e9\u6d2a,\u5b9a\u6e56","pinyin":"DingHu","lng":"112.241510","lat":"36.662610"},{"id":78002,"parent_id":77996,"level":4,"area_code":"140431204206","zip_code":"46599","city_code":"0355","name":"\u4e0a\u52a1\u5934\u6751\u59d4\u4f1a","short_name":"\u4e0a\u52a1\u5934","merger_name":"\u5c71\u897f,\u957f\u6cbb,\u6c81\u6e90,\u97e9\u6d2a,\u4e0a\u52a1\u5934","pinyin":"ShangWuTou","lng":"112.936826","lat":"36.365453"},{"id":78003,"parent_id":77996,"level":4,"area_code":"140431204207","zip_code":"46599","city_code":"0355","name":"\u4e0b\u52a1\u5934\u6751\u59d4\u4f1a","short_name":"\u4e0b\u52a1\u5934","merger_name":"\u5c71\u897f,\u957f\u6cbb,\u6c81\u6e90,\u97e9\u6d2a,\u4e0b\u52a1\u5934","pinyin":"XiaWuTou","lng":"112.210040","lat":"36.638660"},{"id":78004,"parent_id":77996,"level":4,"area_code":"140431204208","zip_code":"46599","city_code":"0355","name":"\u676d\u6751\u6751\u59d4\u4f1a","short_name":"\u676d\u6751","merger_name":"\u5c71\u897f,\u957f\u6cbb,\u6c81\u6e90,\u97e9\u6d2a,\u676d\u6751","pinyin":"HangCun","lng":"112.210040","lat":"36.638660"},{"id":78005,"parent_id":77996,"level":4,"area_code":"140431204209","zip_code":"46599","city_code":"0355","name":"\u4e0b\u7a91\u6751\u59d4\u4f1a","short_name":"\u4e0b\u7a91","merger_name":"\u5c71\u897f,\u957f\u6cbb,\u6c81\u6e90,\u97e9\u6d2a,\u4e0b\u7a91","pinyin":"XiaYao","lng":"112.198110","lat":"36.673970"},{"id":78006,"parent_id":77996,"level":4,"area_code":"140431204210","zip_code":"46599","city_code":"0355","name":"\u5bcc\u6751\u6751\u59d4\u4f1a","short_name":"\u5bcc\u6751","merger_name":"\u5c71\u897f,\u957f\u6cbb,\u6c81\u6e90,\u97e9\u6d2a,\u5bcc\u6751","pinyin":"FuCun","lng":"112.210040","lat":"36.638660"},{"id":78007,"parent_id":77996,"level":4,"area_code":"140431204211","zip_code":"46599","city_code":"0355","name":"\u77f3\u53f0\u6751\u59d4\u4f1a","short_name":"\u77f3\u53f0","merger_name":"\u5c71\u897f,\u957f\u6cbb,\u6c81\u6e90,\u97e9\u6d2a,\u77f3\u53f0","pinyin":"ShiTai","lng":"112.210080","lat":"36.638820"},{"id":78008,"parent_id":77996,"level":4,"area_code":"140431204212","zip_code":"46599","city_code":"0355","name":"\u5be8\u4e0a\u6751\u59d4\u4f1a","short_name":"\u5be8\u4e0a","merger_name":"\u5c71\u897f,\u957f\u6cbb,\u6c81\u6e90,\u97e9\u6d2a,\u5be8\u4e0a","pinyin":"ZhaiShang","lng":"112.210040","lat":"36.638660"},{"id":78009,"parent_id":77996,"level":4,"area_code":"140431204213","zip_code":"46599","city_code":"0355","name":"\u5b66\u6cb3\u6751\u59d4\u4f1a","short_name":"\u5b66\u6cb3","merger_name":"\u5c71\u897f,\u957f\u6cbb,\u6c81\u6e90,\u97e9\u6d2a,\u5b66\u6cb3","pinyin":"XueHe","lng":"112.936826","lat":"36.365453"},{"id":78010,"parent_id":77996,"level":4,"area_code":"140431204214","zip_code":"46599","city_code":"0355","name":"\u738b\u5bb6\u6e7e\u6751\u59d4\u4f1a","short_name":"\u738b\u5bb6\u6e7e","merger_name":"\u5c71\u897f,\u957f\u6cbb,\u6c81\u6e90,\u97e9\u6d2a,\u738b\u5bb6\u6e7e","pinyin":"WangJiaWan","lng":"112.210080","lat":"36.638820"},{"id":78011,"parent_id":77996,"level":4,"area_code":"140431204215","zip_code":"46599","city_code":"0355","name":"\u5960\u57fa\u6751\u59d4\u4f1a","short_name":"\u5960\u57fa","merger_name":"\u5c71\u897f,\u957f\u6cbb,\u6c81\u6e90,\u97e9\u6d2a,\u5960\u57fa","pinyin":"DianJi","lng":"113.263070","lat":"36.021400"},{"id":78012,"parent_id":77996,"level":4,"area_code":"140431204216","zip_code":"46599","city_code":"0355","name":"\u4e0a\u820d\u6751\u59d4\u4f1a","short_name":"\u4e0a\u820d","merger_name":"\u5c71\u897f,\u957f\u6cbb,\u6c81\u6e90,\u97e9\u6d2a,\u4e0a\u820d","pinyin":"ShangShe","lng":"112.185580","lat":"36.638300"},{"id":78013,"parent_id":77996,"level":4,"area_code":"140431204217","zip_code":"46599","city_code":"0355","name":"\u6cfd\u5c71\u6751\u59d4\u4f1a","short_name":"\u6cfd\u5c71","merger_name":"\u5c71\u897f,\u957f\u6cbb,\u6c81\u6e90,\u97e9\u6d2a,\u6cfd\u5c71","pinyin":"ZeShan","lng":"112.936826","lat":"36.365453"},{"id":78014,"parent_id":77996,"level":4,"area_code":"140431204218","zip_code":"46599","city_code":"0355","name":"\u4ec1\u9053\u6751\u59d4\u4f1a","short_name":"\u4ec1\u9053","merger_name":"\u5c71\u897f,\u957f\u6cbb,\u6c81\u6e90,\u97e9\u6d2a,\u4ec1\u9053","pinyin":"RenDao","lng":"112.936826","lat":"36.365453"},{"id":78015,"parent_id":77996,"level":4,"area_code":"140431204219","zip_code":"46599","city_code":"0355","name":"\u9c7c\u513f\u6cc9\u6751\u59d4\u4f1a","short_name":"\u9c7c\u513f\u6cc9","merger_name":"\u5c71\u897f,\u957f\u6cbb,\u6c81\u6e90,\u97e9\u6d2a,\u9c7c\u513f\u6cc9","pinyin":"YuErQuan","lng":"112.936826","lat":"36.365453"},{"id":78016,"parent_id":77996,"level":4,"area_code":"140431204220","zip_code":"46599","city_code":"0355","name":"\u7ea2\u7a91\u4e0a\u6751\u59d4\u4f1a","short_name":"\u7ea2\u7a91\u4e0a","merger_name":"\u5c71\u897f,\u957f\u6cbb,\u6c81\u6e90,\u97e9\u6d2a,\u7ea2\u7a91\u4e0a","pinyin":"HongYaoShang","lng":"112.210080","lat":"36.638820"},{"id":78017,"parent_id":77996,"level":4,"area_code":"140431204221","zip_code":"46599","city_code":"0355","name":"\u5201\u738b\u576a\u6751\u59d4\u4f1a","short_name":"\u5201\u738b\u576a","merger_name":"\u5c71\u897f,\u957f\u6cbb,\u6c81\u6e90,\u97e9\u6d2a,\u5201\u738b\u576a","pinyin":"DiaoWangPing","lng":"112.101540","lat":"36.679690"},{"id":78018,"parent_id":77812,"level":3,"area_code":"140431205000","zip_code":"46599","city_code":"0355","name":"\u5b98\u6ee9\u4e61","short_name":"\u5b98\u6ee9","merger_name":"\u5c71\u897f,\u957f\u6cbb,\u6c81\u6e90,\u5b98\u6ee9","pinyin":"GuanTan","lng":"112.388400","lat":"36.800880"},{"id":78019,"parent_id":78018,"level":4,"area_code":"140431205201","zip_code":"46599","city_code":"0355","name":"\u7ea2\u6e90\u6751\u59d4\u4f1a","short_name":"\u7ea2\u6e90","merger_name":"\u5c71\u897f,\u957f\u6cbb,\u6c81\u6e90,\u5b98\u6ee9,\u7ea2\u6e90","pinyin":"HongYuan","lng":"112.377250","lat":"36.744140"},{"id":78020,"parent_id":78018,"level":4,"area_code":"140431205202","zip_code":"46599","city_code":"0355","name":"\u7434\u5cea\u6751\u59d4\u4f1a","short_name":"\u7434\u5cea","merger_name":"\u5c71\u897f,\u957f\u6cbb,\u6c81\u6e90,\u5b98\u6ee9,\u7434\u5cea","pinyin":"QinYu","lng":"112.387910","lat":"36.757080"},{"id":78021,"parent_id":78018,"level":4,"area_code":"140431205203","zip_code":"46599","city_code":"0355","name":"\u6c38\u76db\u6751\u59d4\u4f1a","short_name":"\u6c38\u76db","merger_name":"\u5c71\u897f,\u957f\u6cbb,\u6c81\u6e90,\u5b98\u6ee9,\u6c38\u76db","pinyin":"YongSheng","lng":"112.388440","lat":"36.800810"},{"id":78022,"parent_id":78018,"level":4,"area_code":"140431205204","zip_code":"46599","city_code":"0355","name":"\u7d2b\u7ea2\u6751\u59d4\u4f1a","short_name":"\u7d2b\u7ea2","merger_name":"\u5c71\u897f,\u957f\u6cbb,\u6c81\u6e90,\u5b98\u6ee9,\u7d2b\u7ea2","pinyin":"ZiHong","lng":"113.050790","lat":"36.063100"},{"id":78023,"parent_id":78018,"level":4,"area_code":"140431205205","zip_code":"46599","city_code":"0355","name":"\u5b98\u6ee9\u6751\u59d4\u4f1a","short_name":"\u5b98\u6ee9","merger_name":"\u5c71\u897f,\u957f\u6cbb,\u6c81\u6e90,\u5b98\u6ee9,\u5b98\u6ee9","pinyin":"GuanTan","lng":"112.388440","lat":"36.800810"},{"id":78024,"parent_id":78018,"level":4,"area_code":"140431205206","zip_code":"46599","city_code":"0355","name":"\u7435\u7436\u56ed\u6751\u59d4\u4f1a","short_name":"\u7435\u7436\u56ed","merger_name":"\u5c71\u897f,\u957f\u6cbb,\u6c81\u6e90,\u5b98\u6ee9,\u7435\u7436\u56ed","pinyin":"PiPaYuan","lng":"112.936826","lat":"36.365453"},{"id":78025,"parent_id":78018,"level":4,"area_code":"140431205207","zip_code":"46599","city_code":"0355","name":"\u8d3e\u5e84\u6751\u59d4\u4f1a","short_name":"\u8d3e\u5e84","merger_name":"\u5c71\u897f,\u957f\u6cbb,\u6c81\u6e90,\u5b98\u6ee9,\u8d3e\u5e84","pinyin":"JiaZhuang","lng":"112.388440","lat":"36.800810"},{"id":78026,"parent_id":78018,"level":4,"area_code":"140431205208","zip_code":"46599","city_code":"0355","name":"\u4e89\u80dc\u6751\u59d4\u4f1a","short_name":"\u4e89\u80dc","merger_name":"\u5c71\u897f,\u957f\u6cbb,\u6c81\u6e90,\u5b98\u6ee9,\u4e89\u80dc","pinyin":"ZhengSheng","lng":"113.263070","lat":"36.021400"},{"id":78027,"parent_id":78018,"level":4,"area_code":"140431205209","zip_code":"46599","city_code":"0355","name":"\u5d16\u5934\u6751\u59d4\u4f1a","short_name":"\u5d16\u5934","merger_name":"\u5c71\u897f,\u957f\u6cbb,\u6c81\u6e90,\u5b98\u6ee9,\u5d16\u5934","pinyin":"YaTou","lng":"112.347990","lat":"36.841730"},{"id":78028,"parent_id":78018,"level":4,"area_code":"140431205210","zip_code":"46599","city_code":"0355","name":"\u6d3b\u51e4\u6751\u59d4\u4f1a","short_name":"\u6d3b\u51e4","merger_name":"\u5c71\u897f,\u957f\u6cbb,\u6c81\u6e90,\u5b98\u6ee9,\u6d3b\u51e4","pinyin":"HuoFeng","lng":"112.482260","lat":"36.803730"},{"id":78029,"parent_id":78018,"level":4,"area_code":"140431205211","zip_code":"46599","city_code":"0355","name":"\u9648\u5bb6\u5cea\u6751\u59d4\u4f1a","short_name":"\u9648\u5bb6\u5cea","merger_name":"\u5c71\u897f,\u957f\u6cbb,\u6c81\u6e90,\u5b98\u6ee9,\u9648\u5bb6\u5cea","pinyin":"ChenJiaYu","lng":"112.337700","lat":"36.500090"},{"id":78030,"parent_id":78018,"level":4,"area_code":"140431205212","zip_code":"46599","city_code":"0355","name":"\u5409\u5e86\u6751\u59d4\u4f1a","short_name":"\u5409\u5e86","merger_name":"\u5c71\u897f,\u957f\u6cbb,\u6c81\u6e90,\u5b98\u6ee9,\u5409\u5e86","pinyin":"JiQing","lng":"113.263070","lat":"36.021400"},{"id":78031,"parent_id":77812,"level":3,"area_code":"140431206000","zip_code":"46599","city_code":"0355","name":"\u666f\u51e4\u4e61","short_name":"\u666f\u51e4","merger_name":"\u5c71\u897f,\u957f\u6cbb,\u6c81\u6e90,\u666f\u51e4","pinyin":"JingFeng","lng":"112.435770","lat":"36.874050"},{"id":78032,"parent_id":78031,"level":4,"area_code":"140431206201","zip_code":"46599","city_code":"0355","name":"\u6c5d\u5bb6\u5e84\u6751\u59d4\u4f1a","short_name":"\u6c5d\u5bb6\u5e84","merger_name":"\u5c71\u897f,\u957f\u6cbb,\u6c81\u6e90,\u666f\u51e4,\u6c5d\u5bb6\u5e84","pinyin":"RuJiaZhuang","lng":"112.412890","lat":"36.858800"},{"id":78033,"parent_id":78031,"level":4,"area_code":"140431206202","zip_code":"46599","city_code":"0355","name":"\u9ece\u548c\u6751\u59d4\u4f1a","short_name":"\u9ece\u548c","merger_name":"\u5c71\u897f,\u957f\u6cbb,\u6c81\u6e90,\u666f\u51e4,\u9ece\u548c","pinyin":"LiHe","lng":"112.438010","lat":"36.874020"},{"id":78034,"parent_id":78031,"level":4,"area_code":"140431206203","zip_code":"46599","city_code":"0355","name":"\u666f\u51e4\u6751\u59d4\u4f1a","short_name":"\u666f\u51e4","merger_name":"\u5c71\u897f,\u957f\u6cbb,\u6c81\u6e90,\u666f\u51e4,\u666f\u51e4","pinyin":"JingFeng","lng":"112.438010","lat":"36.874020"},{"id":78035,"parent_id":78031,"level":4,"area_code":"140431206204","zip_code":"46599","city_code":"0355","name":"\u9a6c\u5bb6\u5cea\u6751\u59d4\u4f1a","short_name":"\u9a6c\u5bb6\u5cea","merger_name":"\u5c71\u897f,\u957f\u6cbb,\u6c81\u6e90,\u666f\u51e4,\u9a6c\u5bb6\u5cea","pinyin":"MaJiaYu","lng":"112.438010","lat":"36.874020"},{"id":78036,"parent_id":78031,"level":4,"area_code":"140431206207","zip_code":"46599","city_code":"0355","name":"\u5317\u65b0\u5e84\u6751\u59d4\u4f1a","short_name":"\u5317\u65b0\u5e84","merger_name":"\u5c71\u897f,\u957f\u6cbb,\u6c81\u6e90,\u666f\u51e4,\u5317\u65b0\u5e84","pinyin":"BeiXinZhuang","lng":"112.438010","lat":"36.874020"},{"id":78037,"parent_id":78031,"level":4,"area_code":"140431206208","zip_code":"46599","city_code":"0355","name":"\u5357\u6e7e\u6751\u59d4\u4f1a","short_name":"\u5357\u6e7e","merger_name":"\u5c71\u897f,\u957f\u6cbb,\u6c81\u6e90,\u666f\u51e4,\u5357\u6e7e","pinyin":"NanWan","lng":"112.534430","lat":"36.069610"},{"id":78038,"parent_id":77812,"level":3,"area_code":"140431207000","zip_code":"46599","city_code":"0355","name":"\u8d64\u77f3\u6865\u4e61","short_name":"\u8d64\u77f3\u6865","merger_name":"\u5c71\u897f,\u957f\u6cbb,\u6c81\u6e90,\u8d64\u77f3\u6865","pinyin":"ChiShiQiao","lng":"112.322530","lat":"36.809450"},{"id":78039,"parent_id":78038,"level":4,"area_code":"140431207201","zip_code":"46599","city_code":"0355","name":"\u6843\u5761\u5e95\u6751\u59d4\u4f1a","short_name":"\u6843\u5761\u5e95","merger_name":"\u5c71\u897f,\u957f\u6cbb,\u6c81\u6e90,\u8d64\u77f3\u6865,\u6843\u5761\u5e95","pinyin":"TaoPoDi","lng":"112.293920","lat":"36.747190"},{"id":78040,"parent_id":78038,"level":4,"area_code":"140431207202","zip_code":"46599","city_code":"0355","name":"\u59da\u58c1\u6751\u59d4\u4f1a","short_name":"\u59da\u58c1","merger_name":"\u5c71\u897f,\u957f\u6cbb,\u6c81\u6e90,\u8d64\u77f3\u6865,\u59da\u58c1","pinyin":"YaoBi","lng":"112.936826","lat":"36.365453"},{"id":78041,"parent_id":78038,"level":4,"area_code":"140431207203","zip_code":"46599","city_code":"0355","name":"\u5218\u5bb6\u6c9f\u6751\u59d4\u4f1a","short_name":"\u5218\u5bb6\u6c9f","merger_name":"\u5c71\u897f,\u957f\u6cbb,\u6c81\u6e90,\u8d64\u77f3\u6865,\u5218\u5bb6\u6c9f","pinyin":"LiuJiaGou","lng":"112.423940","lat":"36.398700"},{"id":78042,"parent_id":78038,"level":4,"area_code":"140431207204","zip_code":"46599","city_code":"0355","name":"\u9752\u6768\u6e7e\u6751\u59d4\u4f1a","short_name":"\u9752\u6768\u6e7e","merger_name":"\u5c71\u897f,\u957f\u6cbb,\u6c81\u6e90,\u8d64\u77f3\u6865,\u9752\u6768\u6e7e","pinyin":"QingYangWan","lng":"112.321690","lat":"36.810020"},{"id":78043,"parent_id":78038,"level":4,"area_code":"140431207205","zip_code":"46599","city_code":"0355","name":"\u8d64\u77f3\u6865\u6751\u59d4\u4f1a","short_name":"\u8d64\u77f3\u6865","merger_name":"\u5c71\u897f,\u957f\u6cbb,\u6c81\u6e90,\u8d64\u77f3\u6865,\u8d64\u77f3\u6865","pinyin":"ChiShiQiao","lng":"112.359030","lat":"36.894940"},{"id":78044,"parent_id":78038,"level":4,"area_code":"140431207206","zip_code":"46599","city_code":"0355","name":"\u5e08\u5e84\u6751\u59d4\u4f1a","short_name":"\u5e08\u5e84","merger_name":"\u5c71\u897f,\u957f\u6cbb,\u6c81\u6e90,\u8d64\u77f3\u6865,\u5e08\u5e84","pinyin":"ShiZhuang","lng":"112.321690","lat":"36.810020"},{"id":78045,"parent_id":78038,"level":4,"area_code":"140431207207","zip_code":"46599","city_code":"0355","name":"\u5b9e\u4f1a\u6e7e\u6751\u59d4\u4f1a","short_name":"\u5b9e\u4f1a\u6e7e","merger_name":"\u5c71\u897f,\u957f\u6cbb,\u6c81\u6e90,\u8d64\u77f3\u6865,\u5b9e\u4f1a\u6e7e","pinyin":"ShiHuiWan","lng":"112.347990","lat":"36.841730"},{"id":78046,"parent_id":78038,"level":4,"area_code":"140431207208","zip_code":"46599","city_code":"0355","name":"\u502a\u5e84\u6751\u59d4\u4f1a","short_name":"\u502a\u5e84","merger_name":"\u5c71\u897f,\u957f\u6cbb,\u6c81\u6e90,\u8d64\u77f3\u6865,\u502a\u5e84","pinyin":"NiZhuang","lng":"112.353850","lat":"36.854650"},{"id":78047,"parent_id":78038,"level":4,"area_code":"140431207209","zip_code":"46599","city_code":"0355","name":"\u6b66\u5bb6\u6c9f\u6751\u59d4\u4f1a","short_name":"\u6b66\u5bb6\u6c9f","merger_name":"\u5c71\u897f,\u957f\u6cbb,\u6c81\u6e90,\u8d64\u77f3\u6865,\u6b66\u5bb6\u6c9f","pinyin":"WuJiaGou","lng":"112.481650","lat":"36.655560"},{"id":78048,"parent_id":78038,"level":4,"area_code":"140431207211","zip_code":"46599","city_code":"0355","name":"\u6bb5\u5bb6\u5761\u5e95\u6751\u59d4\u4f1a","short_name":"\u6bb5\u5bb6\u5761\u5e95","merger_name":"\u5c71\u897f,\u957f\u6cbb,\u6c81\u6e90,\u8d64\u77f3\u6865,\u6bb5\u5bb6\u5761\u5e95","pinyin":"DuanJiaPoDi","lng":"112.321690","lat":"36.810020"},{"id":78049,"parent_id":78038,"level":4,"area_code":"140431207213","zip_code":"46599","city_code":"0355","name":"\u80e1\u5bb6\u5e84\u6751\u59d4\u4f1a","short_name":"\u80e1\u5bb6\u5e84","merger_name":"\u5c71\u897f,\u957f\u6cbb,\u6c81\u6e90,\u8d64\u77f3\u6865,\u80e1\u5bb6\u5e84","pinyin":"HuJiaZhuang","lng":"112.321690","lat":"36.810020"},{"id":78050,"parent_id":78038,"level":4,"area_code":"140431207215","zip_code":"46599","city_code":"0355","name":"\u5584\u6734\u6751\u59d4\u4f1a","short_name":"\u5584\u6734","merger_name":"\u5c71\u897f,\u957f\u6cbb,\u6c81\u6e90,\u8d64\u77f3\u6865,\u5584\u6734","pinyin":"ShanPu","lng":"112.936826","lat":"36.365453"},{"id":78051,"parent_id":78038,"level":4,"area_code":"140431207216","zip_code":"46500","city_code":"0355","name":"\u6986\u576a\u6751\u59d4\u4f1a","short_name":"\u6986\u576a","merger_name":"\u5c71\u897f,\u957f\u6cbb,\u6c81\u6e90,\u8d64\u77f3\u6865,\u6986\u576a","pinyin":"YuPing","lng":"112.359030","lat":"36.894940"},{"id":78052,"parent_id":78038,"level":4,"area_code":"140431207217","zip_code":"46599","city_code":"0355","name":"\u5e84\u513f\u4e0a\u6751\u59d4\u4f1a","short_name":"\u5e84\u513f\u4e0a","merger_name":"\u5c71\u897f,\u957f\u6cbb,\u6c81\u6e90,\u8d64\u77f3\u6865,\u5e84\u513f\u4e0a","pinyin":"ZhuangErShang","lng":"112.359030","lat":"36.894940"},{"id":78053,"parent_id":78038,"level":4,"area_code":"140431207218","zip_code":"46599","city_code":"0355","name":"\u6da7\u5d16\u5e95\u6751\u59d4\u4f1a","short_name":"\u6da7\u5d16\u5e95","merger_name":"\u5c71\u897f,\u957f\u6cbb,\u6c81\u6e90,\u8d64\u77f3\u6865,\u6da7\u5d16\u5e95","pinyin":"JianYaDi","lng":"112.359030","lat":"36.894940"},{"id":78054,"parent_id":78038,"level":4,"area_code":"140431207219","zip_code":"46599","city_code":"0355","name":"\u7b97\u76d8\u6c9f\u6751\u59d4\u4f1a","short_name":"\u7b97\u76d8\u6c9f","merger_name":"\u5c71\u897f,\u957f\u6cbb,\u6c81\u6e90,\u8d64\u77f3\u6865,\u7b97\u76d8\u6c9f","pinyin":"SuanPanGou","lng":"112.359030","lat":"36.894940"},{"id":78055,"parent_id":78038,"level":4,"area_code":"140431207220","zip_code":"46599","city_code":"0355","name":"\u6843\u56ed\u6751\u59d4\u4f1a","short_name":"\u6843\u56ed","merger_name":"\u5c71\u897f,\u957f\u6cbb,\u6c81\u6e90,\u8d64\u77f3\u6865,\u6843\u56ed","pinyin":"TaoYuan","lng":"113.139430","lat":"36.188650"},{"id":78056,"parent_id":78038,"level":4,"area_code":"140431207221","zip_code":"46599","city_code":"0355","name":"\u7bad\u6746\u6751\u59d4\u4f1a","short_name":"\u7bad\u6746","merger_name":"\u5c71\u897f,\u957f\u6cbb,\u6c81\u6e90,\u8d64\u77f3\u6865,\u7bad\u6746","pinyin":"JianGan","lng":"113.263070","lat":"36.021400"},{"id":78057,"parent_id":78038,"level":4,"area_code":"140431207222","zip_code":"46599","city_code":"0355","name":"\u7ea2\u6c99\u5d16\u6751\u59d4\u4f1a","short_name":"\u7ea2\u6c99\u5d16","merger_name":"\u5c71\u897f,\u957f\u6cbb,\u6c81\u6e90,\u8d64\u77f3\u6865,\u7ea2\u6c99\u5d16","pinyin":"HongShaYa","lng":"112.359030","lat":"36.894940"},{"id":78058,"parent_id":77812,"level":3,"area_code":"140431208000","zip_code":"46599","city_code":"0355","name":"\u738b\u9676\u4e61","short_name":"\u738b\u9676","merger_name":"\u5c71\u897f,\u957f\u6cbb,\u6c81\u6e90,\u738b\u9676","pinyin":"WangTao","lng":"112.195120","lat":"36.879230"},{"id":78059,"parent_id":78058,"level":4,"area_code":"140431208201","zip_code":"46599","city_code":"0355","name":"\u738b\u9676\u6751\u59d4\u4f1a","short_name":"\u738b\u9676","merger_name":"\u5c71\u897f,\u957f\u6cbb,\u6c81\u6e90,\u738b\u9676,\u738b\u9676","pinyin":"WangTao","lng":"112.195290","lat":"36.877680"},{"id":78060,"parent_id":78058,"level":4,"area_code":"140431208202","zip_code":"46599","city_code":"0355","name":"\u4e0b\u58c1\u6751\u59d4\u4f1a","short_name":"\u4e0b\u58c1","merger_name":"\u5c71\u897f,\u957f\u6cbb,\u6c81\u6e90,\u738b\u9676,\u4e0b\u58c1","pinyin":"XiaBi","lng":"112.198120","lat":"36.893260"},{"id":78061,"parent_id":78058,"level":4,"area_code":"140431208203","zip_code":"46599","city_code":"0355","name":"\u4efb\u5bb6\u5e84\u6751\u59d4\u4f1a","short_name":"\u4efb\u5bb6\u5e84","merger_name":"\u5c71\u897f,\u957f\u6cbb,\u6c81\u6e90,\u738b\u9676,\u4efb\u5bb6\u5e84","pinyin":"RenJiaZhuang","lng":"112.195290","lat":"36.877680"},{"id":78062,"parent_id":78058,"level":4,"area_code":"140431208204","zip_code":"46599","city_code":"0355","name":"\u6c99\u576a\u6751\u59d4\u4f1a","short_name":"\u6c99\u576a","merger_name":"\u5c71\u897f,\u957f\u6cbb,\u6c81\u6e90,\u738b\u9676,\u6c99\u576a","pinyin":"ShaPing","lng":"112.195120","lat":"36.879230"},{"id":78063,"parent_id":78058,"level":4,"area_code":"140431208205","zip_code":"46599","city_code":"0355","name":"\u767e\u8349\u6751\u59d4\u4f1a","short_name":"\u767e\u8349","merger_name":"\u5c71\u897f,\u957f\u6cbb,\u6c81\u6e90,\u738b\u9676,\u767e\u8349","pinyin":"BaiCao","lng":"112.193760","lat":"36.838630"},{"id":78064,"parent_id":78058,"level":4,"area_code":"140431208206","zip_code":"46599","city_code":"0355","name":"\u677e\u7f57\u6751\u59d4\u4f1a","short_name":"\u677e\u7f57","merger_name":"\u5c71\u897f,\u957f\u6cbb,\u6c81\u6e90,\u738b\u9676,\u677e\u7f57","pinyin":"SongLuo","lng":"112.936826","lat":"36.365453"},{"id":78065,"parent_id":78058,"level":4,"area_code":"140431208207","zip_code":"46599","city_code":"0355","name":"\u846b\u82a6\u6c9f\u6751\u59d4\u4f1a","short_name":"\u846b\u82a6\u6c9f","merger_name":"\u5c71\u897f,\u957f\u6cbb,\u6c81\u6e90,\u738b\u9676,\u846b\u82a6\u6c9f","pinyin":"HuLuGou","lng":"112.195290","lat":"36.877680"},{"id":78066,"parent_id":78058,"level":4,"area_code":"140431208208","zip_code":"46599","city_code":"0355","name":"\u8c46\u58c1\u6751\u59d4\u4f1a","short_name":"\u8c46\u58c1","merger_name":"\u5c71\u897f,\u957f\u6cbb,\u6c81\u6e90,\u738b\u9676,\u8c46\u58c1","pinyin":"DouBi","lng":"112.936826","lat":"36.365453"},{"id":78067,"parent_id":78058,"level":4,"area_code":"140431208209","zip_code":"46599","city_code":"0355","name":"\u725b\u90ce\u6c9f\u6751\u59d4\u4f1a","short_name":"\u725b\u90ce\u6c9f","merger_name":"\u5c71\u897f,\u957f\u6cbb,\u6c81\u6e90,\u738b\u9676,\u725b\u90ce\u6c9f","pinyin":"NiuLangGou","lng":"112.936826","lat":"36.365453"},{"id":78068,"parent_id":78058,"level":4,"area_code":"140431208210","zip_code":"46599","city_code":"0355","name":"\u9a6c\u51e4\u6c9f\u6751\u59d4\u4f1a","short_name":"\u9a6c\u51e4\u6c9f","merger_name":"\u5c71\u897f,\u957f\u6cbb,\u6c81\u6e90,\u738b\u9676,\u9a6c\u51e4\u6c9f","pinyin":"MaFengGou","lng":"112.936826","lat":"36.365453"},{"id":78069,"parent_id":78058,"level":4,"area_code":"140431208211","zip_code":"46599","city_code":"0355","name":"\u57ce\u827e\u5e84\u6751\u59d4\u4f1a","short_name":"\u57ce\u827e\u5e84","merger_name":"\u5c71\u897f,\u957f\u6cbb,\u6c81\u6e90,\u738b\u9676,\u57ce\u827e\u5e84","pinyin":"ChengAiZhuang","lng":"112.195290","lat":"36.877680"},{"id":78070,"parent_id":78058,"level":4,"area_code":"140431208212","zip_code":"46599","city_code":"0355","name":"\u4e0a\u57ce\u827e\u6751\u59d4\u4f1a","short_name":"\u4e0a\u57ce\u827e","merger_name":"\u5c71\u897f,\u957f\u6cbb,\u6c81\u6e90,\u738b\u9676,\u4e0a\u57ce\u827e","pinyin":"ShangChengAi","lng":"112.219280","lat":"36.908950"},{"id":78071,"parent_id":78058,"level":4,"area_code":"140431208213","zip_code":"46599","city_code":"0355","name":"\u4e0b\u57ce\u827e\u6751\u59d4\u4f1a","short_name":"\u4e0b\u57ce\u827e","merger_name":"\u5c71\u897f,\u957f\u6cbb,\u6c81\u6e90,\u738b\u9676,\u4e0b\u57ce\u827e","pinyin":"XiaChengAi","lng":"112.936826","lat":"36.365453"},{"id":78072,"parent_id":78058,"level":4,"area_code":"140431208214","zip_code":"46599","city_code":"0355","name":"\u76ca\u6cfd\u6c9f\u6751\u59d4\u4f1a","short_name":"\u76ca\u6cfd\u6c9f","merger_name":"\u5c71\u897f,\u957f\u6cbb,\u6c81\u6e90,\u738b\u9676,\u76ca\u6cfd\u6c9f","pinyin":"YiZeGou","lng":"112.195290","lat":"36.877680"},{"id":78073,"parent_id":78058,"level":4,"area_code":"140431208215","zip_code":"46599","city_code":"0355","name":"\u4e49\u548c\u6751\u59d4\u4f1a","short_name":"\u4e49\u548c","merger_name":"\u5c71\u897f,\u957f\u6cbb,\u6c81\u6e90,\u738b\u9676,\u4e49\u548c","pinyin":"YiHe","lng":"112.195290","lat":"36.877680"},{"id":78074,"parent_id":78058,"level":4,"area_code":"140431208216","zip_code":"46599","city_code":"0355","name":"\u9633\u513f\u51e4\u6751\u59d4\u4f1a","short_name":"\u9633\u513f\u51e4","merger_name":"\u5c71\u897f,\u957f\u6cbb,\u6c81\u6e90,\u738b\u9676,\u9633\u513f\u51e4","pinyin":"YangErFeng","lng":"112.195290","lat":"36.877680"},{"id":78075,"parent_id":78058,"level":4,"area_code":"140431208217","zip_code":"46599","city_code":"0355","name":"\u738b\u5934\u6751\u59d4\u4f1a","short_name":"\u738b\u5934","merger_name":"\u5c71\u897f,\u957f\u6cbb,\u6c81\u6e90,\u738b\u9676,\u738b\u5934","pinyin":"WangTou","lng":"112.936826","lat":"36.365453"},{"id":78076,"parent_id":78058,"level":4,"area_code":"140431208218","zip_code":"46599","city_code":"0355","name":"\u9ec4\u6bb5\u6751\u59d4\u4f1a","short_name":"\u9ec4\u6bb5","merger_name":"\u5c71\u897f,\u957f\u6cbb,\u6c81\u6e90,\u738b\u9676,\u9ec4\u6bb5","pinyin":"HuangDuan","lng":"112.154390","lat":"36.886020"},{"id":78077,"parent_id":78058,"level":4,"area_code":"140431208219","zip_code":"46599","city_code":"0355","name":"\u5317\u9053\u5e84\u6751\u59d4\u4f1a","short_name":"\u5317\u9053\u5e84","merger_name":"\u5c71\u897f,\u957f\u6cbb,\u6c81\u6e90,\u738b\u9676,\u5317\u9053\u5e84","pinyin":"BeiDaoZhuang","lng":"112.195290","lat":"36.877680"},{"id":78078,"parent_id":78058,"level":4,"area_code":"140431208220","zip_code":"46599","city_code":"0355","name":"\u5927\u5cea\u6751\u59d4\u4f1a","short_name":"\u5927\u5cea","merger_name":"\u5c71\u897f,\u957f\u6cbb,\u6c81\u6e90,\u738b\u9676,\u5927\u5cea","pinyin":"DaYu","lng":"112.195120","lat":"36.879230"},{"id":78079,"parent_id":78058,"level":4,"area_code":"140431208221","zip_code":"46599","city_code":"0355","name":"\u82b1\u5761\u6751\u59d4\u4f1a","short_name":"\u82b1\u5761","merger_name":"\u5c71\u897f,\u957f\u6cbb,\u6c81\u6e90,\u738b\u9676,\u82b1\u5761","pinyin":"HuaPo","lng":"112.087470","lat":"36.822690"},{"id":78080,"parent_id":78058,"level":4,"area_code":"140431208222","zip_code":"46599","city_code":"0355","name":"\u9e64\u6eaa\u6cc9\u6751\u59d4\u4f1a","short_name":"\u9e64\u6eaa\u6cc9","merger_name":"\u5c71\u897f,\u957f\u6cbb,\u6c81\u6e90,\u738b\u9676,\u9e64\u6eaa\u6cc9","pinyin":"HeXiQuan","lng":"112.936826","lat":"36.365453"},{"id":78081,"parent_id":78058,"level":4,"area_code":"140431208223","zip_code":"46599","city_code":"0355","name":"\u6c60\u53e3\u6751\u59d4\u4f1a","short_name":"\u6c60\u53e3","merger_name":"\u5c71\u897f,\u957f\u6cbb,\u6c81\u6e90,\u738b\u9676,\u6c60\u53e3","pinyin":"ChiKou","lng":"112.936826","lat":"36.365453"},{"id":78082,"parent_id":78058,"level":4,"area_code":"140431208224","zip_code":"46599","city_code":"0355","name":"\u516b\u773c\u6cc9\u6751\u59d4\u4f1a","short_name":"\u516b\u773c\u6cc9","merger_name":"\u5c71\u897f,\u957f\u6cbb,\u6c81\u6e90,\u738b\u9676,\u516b\u773c\u6cc9","pinyin":"BaYanQuan","lng":"112.936826","lat":"36.365453"},{"id":78083,"parent_id":78058,"level":4,"area_code":"140431208225","zip_code":"46599","city_code":"0355","name":"\u738b\u5821\u5e84\u6751\u59d4\u4f1a","short_name":"\u738b\u5821\u5e84","merger_name":"\u5c71\u897f,\u957f\u6cbb,\u6c81\u6e90,\u738b\u9676,\u738b\u5821\u5e84","pinyin":"WangBaoZhuang","lng":"112.936826","lat":"36.365453"},{"id":78084,"parent_id":78058,"level":4,"area_code":"140431208226","zip_code":"46599","city_code":"0355","name":"\u91d1\u6cc9\u5e84\u6751\u59d4\u4f1a","short_name":"\u91d1\u6cc9\u5e84","merger_name":"\u5c71\u897f,\u957f\u6cbb,\u6c81\u6e90,\u738b\u9676,\u91d1\u6cc9\u5e84","pinyin":"JinQuanZhuang","lng":"112.143530","lat":"36.829870"},{"id":78085,"parent_id":78058,"level":4,"area_code":"140431208227","zip_code":"46599","city_code":"0355","name":"\u5cad\u4e0a\u6751\u59d4\u4f1a","short_name":"\u5cad\u4e0a","merger_name":"\u5c71\u897f,\u957f\u6cbb,\u6c81\u6e90,\u738b\u9676,\u5cad\u4e0a","pinyin":"LingShang","lng":"113.054710","lat":"36.133890"},{"id":78086,"parent_id":78058,"level":4,"area_code":"140431208228","zip_code":"46599","city_code":"0355","name":"\u571f\u5cad\u4e0a\u6751\u59d4\u4f1a","short_name":"\u571f\u5cad\u4e0a","merger_name":"\u5c71\u897f,\u957f\u6cbb,\u6c81\u6e90,\u738b\u9676,\u571f\u5cad\u4e0a","pinyin":"TuLingShang","lng":"112.936826","lat":"36.365453"},{"id":78087,"parent_id":77812,"level":3,"area_code":"140431400000","zip_code":"46500","city_code":"0355","name":"\u6c81\u6e90\u7ecf\u6d4e\u6280\u672f\u5f00\u53d1\u533a","short_name":"\u6c81\u6e90\u7ecf\u5f00\u533a","merger_name":"\u5c71\u897f,\u957f\u6cbb,\u6c81\u6e90,\u6c81\u6e90\u7ecf\u5f00\u533a","pinyin":"QinYuanJingKaiQu","lng":"112.348810","lat":"36.523130"},{"id":78088,"parent_id":78087,"level":4,"area_code":"140431400498","zip_code":"46500","city_code":"0355","name":"\u6c81\u6e90\u7ecf\u6d4e\u6280\u672f\u5f00\u53d1\u533a\u865a\u62df\u5c45\u59d4\u4f1a","short_name":"\u6c81\u6e90\u7ecf\u5f00\u533a\u865a\u62df\u5c45\u59d4\u4f1a","merger_name":"\u5c71\u897f,\u957f\u6cbb,\u6c81\u6e90,\u6c81\u6e90\u7ecf\u5f00\u533a,\u6c81\u6e90\u7ecf\u5f00\u533a\u865a\u62df\u5c45\u59d4\u4f1a","pinyin":"QinYuanJingKaiQuXuNiJuWeiHui","lng":"113.112110","lat":"36.170150"},{"id":78089,"parent_id":74528,"level":2,"area_code":"140471000000","zip_code":"46011","city_code":"0355","name":"\u5c71\u897f\u957f\u6cbb\u9ad8\u65b0\u6280\u672f\u4ea7\u4e1a\u56ed\u533a","short_name":"\u5c71\u897f\u957f\u6cbb\u9ad8\u65b0\u6280\u672f\u4ea7\u4e1a\u56ed","merger_name":"\u5c71\u897f,\u957f\u6cbb,\u5c71\u897f\u957f\u6cbb\u9ad8\u65b0\u6280\u672f\u4ea7\u4e1a\u56ed","pinyin":"ShanXiChangZhiGaoXinJiShuChanY","lng":"113.116255","lat":"36.195386"},{"id":78090,"parent_id":78089,"level":3,"area_code":"140471400000","zip_code":"46011","city_code":"0355","name":"\u957f\u6cbb\u9ad8\u65b0\u6280\u672f\u5f00\u53d1\u533a\u57ce\u5317\u8857\u529e\u4e8b\u5904","short_name":"\u957f\u6cbb\u9ad8\u65b0\u533a\u57ce\u5317\u8857\u529e\u4e8b\u5904","merger_name":"\u5c71\u897f,\u957f\u6cbb,\u5c71\u897f\u957f\u6cbb\u9ad8\u65b0\u6280\u672f\u4ea7\u4e1a\u56ed,\u957f\u6cbb\u9ad8\u65b0\u533a\u57ce\u5317\u8857\u529e\u4e8b\u5904","pinyin":"ChangZhiGaoXinQuChengBeiJieBan","lng":"113.130652","lat":"36.210404"},{"id":78091,"parent_id":78090,"level":4,"area_code":"140471400001","zip_code":"46011","city_code":"0355","name":"\u5317\u8def\u793e\u533a\u5c45\u59d4\u4f1a","short_name":"\u5317\u8def","merger_name":"\u5c71\u897f,\u957f\u6cbb,\u5c71\u897f\u957f\u6cbb\u9ad8\u65b0\u6280\u672f\u4ea7\u4e1a\u56ed,\u957f\u6cbb\u9ad8\u65b0\u533a\u57ce\u5317\u8857\u529e\u4e8b\u5904,\u5317\u8def","pinyin":"BeiLu","lng":"113.102586","lat":"36.210549"},{"id":78092,"parent_id":78090,"level":4,"area_code":"140471400003","zip_code":"46011","city_code":"0355","name":"\u590d\u5174\u793e\u533a\u5c45\u59d4\u4f1a","short_name":"\u590d\u5174","merger_name":"\u5c71\u897f,\u957f\u6cbb,\u5c71\u897f\u957f\u6cbb\u9ad8\u65b0\u6280\u672f\u4ea7\u4e1a\u56ed,\u957f\u6cbb\u9ad8\u65b0\u533a\u57ce\u5317\u8857\u529e\u4e8b\u5904,\u590d\u5174","pinyin":"FuXing","lng":"113.122720","lat":"36.198090"},{"id":78093,"parent_id":78090,"level":4,"area_code":"140471400004","zip_code":"46011","city_code":"0355","name":"\u4f73\u7f8e\u7eff\u5dde\u793e\u533a\u5c45\u59d4\u4f1a","short_name":"\u4f73\u7f8e\u7eff\u5dde","merger_name":"\u5c71\u897f,\u957f\u6cbb,\u5c71\u897f\u957f\u6cbb\u9ad8\u65b0\u6280\u672f\u4ea7\u4e1a\u56ed,\u957f\u6cbb\u9ad8\u65b0\u533a\u57ce\u5317\u8857\u529e\u4e8b\u5904,\u4f73\u7f8e\u7eff\u5dde","pinyin":"JiaMeiLvZhou","lng":"113.130652","lat":"36.210404"},{"id":78094,"parent_id":78090,"level":4,"area_code":"140471400005","zip_code":"46011","city_code":"0355","name":"\u91d1\u8272\u5bb6\u56ed\u793e\u533a\u5c45\u59d4\u4f1a","short_name":"\u91d1\u8272\u5bb6\u56ed","merger_name":"\u5c71\u897f,\u957f\u6cbb,\u5c71\u897f\u957f\u6cbb\u9ad8\u65b0\u6280\u672f\u4ea7\u4e1a\u56ed,\u957f\u6cbb\u9ad8\u65b0\u533a\u57ce\u5317\u8857\u529e\u4e8b\u5904,\u91d1\u8272\u5bb6\u56ed","pinyin":"JinSeJiaYuan","lng":"113.123293","lat":"36.186575"},{"id":78095,"parent_id":78090,"level":4,"area_code":"140471400200","zip_code":"46011","city_code":"0355","name":"\u6349\u9a6c\u6751\u59d4\u4f1a","short_name":"\u6349\u9a6c","merger_name":"\u5c71\u897f,\u957f\u6cbb,\u5c71\u897f\u957f\u6cbb\u9ad8\u65b0\u6280\u672f\u4ea7\u4e1a\u56ed,\u957f\u6cbb\u9ad8\u65b0\u533a\u57ce\u5317\u8857\u529e\u4e8b\u5904,\u6349\u9a6c","pinyin":"ZhuoMa","lng":"113.122720","lat":"36.198090"},{"id":78096,"parent_id":78090,"level":4,"area_code":"140471400201","zip_code":"46011","city_code":"0355","name":"\u53f2\u5bb6\u5e84\u6751\u59d4\u4f1a","short_name":"\u53f2\u5bb6\u5e84","merger_name":"\u5c71\u897f,\u957f\u6cbb,\u5c71\u897f\u957f\u6cbb\u9ad8\u65b0\u6280\u672f\u4ea7\u4e1a\u56ed,\u957f\u6cbb\u9ad8\u65b0\u533a\u57ce\u5317\u8857\u529e\u4e8b\u5904,\u53f2\u5bb6\u5e84","pinyin":"ShiJiaZhuang","lng":"113.081540","lat":"36.212620"},{"id":78097,"parent_id":78090,"level":4,"area_code":"140471400202","zip_code":"46011","city_code":"0355","name":"\u5316\u5bb6\u5e84\u6751\u59d4\u4f1a","short_name":"\u5316\u5bb6\u5e84","merger_name":"\u5c71\u897f,\u957f\u6cbb,\u5c71\u897f\u957f\u6cbb\u9ad8\u65b0\u6280\u672f\u4ea7\u4e1a\u56ed,\u957f\u6cbb\u9ad8\u65b0\u533a\u57ce\u5317\u8857\u529e\u4e8b\u5904,\u5316\u5bb6\u5e84","pinyin":"HuaJiaZhuang","lng":"113.122720","lat":"36.198090"},{"id":78098,"parent_id":78090,"level":4,"area_code":"140471400203","zip_code":"46011","city_code":"0355","name":"\u5c0f\u5316\u5bb6\u5e84\u6751\u59d4\u4f1a","short_name":"\u5c0f\u5316\u5bb6\u5e84","merger_name":"\u5c71\u897f,\u957f\u6cbb,\u5c71\u897f\u957f\u6cbb\u9ad8\u65b0\u6280\u672f\u4ea7\u4e1a\u56ed,\u957f\u6cbb\u9ad8\u65b0\u533a\u57ce\u5317\u8857\u529e\u4e8b\u5904,\u5c0f\u5316\u5bb6\u5e84","pinyin":"XiaoHuaJiaZhuang","lng":"113.122720","lat":"36.198090"},{"id":78099,"parent_id":78090,"level":4,"area_code":"140471400401","zip_code":"46011","city_code":"0355","name":"\u957f\u6cbb\u9ad8\u65b0\u6280\u672f\u4ea7\u4e1a\u5f00\u53d1\u533a\u5de5\u4e1a\u56ed\u533a","short_name":"\u957f\u6cbb\u9ad8\u65b0\u533a\u5de5\u4e1a\u56ed\u533a","merger_name":"\u5c71\u897f,\u957f\u6cbb,\u5c71\u897f\u957f\u6cbb\u9ad8\u65b0\u6280\u672f\u4ea7\u4e1a\u56ed,\u957f\u6cbb\u9ad8\u65b0\u533a\u57ce\u5317\u8857\u529e\u4e8b\u5904,\u957f\u6cbb\u9ad8\u65b0\u533a\u5de5\u4e1a\u56ed\u533a","pinyin":"ChangZhiGaoXinQuGongYeYuanQu","lng":"113.130652","lat":"36.210404"},{"id":78100,"parent_id":74528,"level":2,"area_code":"140481000000","zip_code":"47500","city_code":"0355","name":"\u6f5e\u57ce\u5e02","short_name":"\u6f5e\u57ce","merger_name":"\u5c71\u897f,\u957f\u6cbb,\u6f5e\u57ce","pinyin":"LuCheng","lng":"113.228852","lat":"36.334104"},{"id":78101,"parent_id":78100,"level":3,"area_code":"140481001000","zip_code":"47599","city_code":"0355","name":"\u6f5e\u534e\u8857\u9053\u529e\u4e8b\u5904","short_name":"\u6f5e\u534e","merger_name":"\u5c71\u897f,\u957f\u6cbb,\u6f5e\u57ce,\u6f5e\u534e","pinyin":"LuHua","lng":"113.232070","lat":"36.328840"},{"id":78102,"parent_id":78101,"level":4,"area_code":"140481001001","zip_code":"47599","city_code":"0355","name":"\u4e1c\u8857\u793e\u533a\u5c45\u59d4\u4f1a","short_name":"\u4e1c\u8857","merger_name":"\u5c71\u897f,\u957f\u6cbb,\u6f5e\u57ce,\u6f5e\u534e,\u4e1c\u8857","pinyin":"DongJie","lng":"113.219780","lat":"36.323770"},{"id":78103,"parent_id":78101,"level":4,"area_code":"140481001002","zip_code":"47599","city_code":"0355","name":"\u4e09\u5b98\u9601\u793e\u533a\u5c45\u59d4\u4f1a","short_name":"\u4e09\u5b98\u9601","merger_name":"\u5c71\u897f,\u957f\u6cbb,\u6f5e\u57ce,\u6f5e\u534e,\u4e09\u5b98\u9601","pinyin":"SanGuanGe","lng":"113.239283","lat":"36.329146"},{"id":78104,"parent_id":78101,"level":4,"area_code":"140481001003","zip_code":"47599","city_code":"0355","name":"\u897f\u8857\u793e\u533a\u5c45\u59d4\u4f1a","short_name":"\u897f\u8857","merger_name":"\u5c71\u897f,\u957f\u6cbb,\u6f5e\u57ce,\u6f5e\u534e,\u897f\u8857","pinyin":"XiJie","lng":"113.224970","lat":"36.334100"},{"id":78105,"parent_id":78101,"level":4,"area_code":"140481001004","zip_code":"47599","city_code":"0355","name":"\u74e6\u7a91\u5934\u793e\u533a\u5c45\u59d4\u4f1a","short_name":"\u74e6\u7a91\u5934","merger_name":"\u5c71\u897f,\u957f\u6cbb,\u6f5e\u57ce,\u6f5e\u534e,\u74e6\u7a91\u5934","pinyin":"WaYaoTou","lng":"113.247770","lat":"36.325580"},{"id":78106,"parent_id":78101,"level":4,"area_code":"140481001005","zip_code":"47599","city_code":"0355","name":"\u5357\u8857\u793e\u533a\u5c45\u59d4\u4f1a","short_name":"\u5357\u8857","merger_name":"\u5c71\u897f,\u957f\u6cbb,\u6f5e\u57ce,\u6f5e\u534e,\u5357\u8857","pinyin":"NanJie","lng":"113.224970","lat":"36.334100"},{"id":78107,"parent_id":78101,"level":4,"area_code":"140481001006","zip_code":"47599","city_code":"0355","name":"\u5317\u8857\u793e\u533a\u5c45\u59d4\u4f1a","short_name":"\u5317\u8857","merger_name":"\u5c71\u897f,\u957f\u6cbb,\u6f5e\u57ce,\u6f5e\u534e,\u5317\u8857","pinyin":"BeiJie","lng":"113.223950","lat":"36.329978"},{"id":78108,"parent_id":78101,"level":4,"area_code":"140481001007","zip_code":"47599","city_code":"0355","name":"\u5357\u5173\u793e\u533a\u5c45\u59d4\u4f1a","short_name":"\u5357\u5173","merger_name":"\u5c71\u897f,\u957f\u6cbb,\u6f5e\u57ce,\u6f5e\u534e,\u5357\u5173","pinyin":"NanGuan","lng":"113.233800","lat":"36.330860"},{"id":78109,"parent_id":78101,"level":4,"area_code":"140481001008","zip_code":"47599","city_code":"0355","name":"\u4e1c\u5357\u5c71\u793e\u533a\u5c45\u59d4\u4f1a","short_name":"\u4e1c\u5357\u5c71","merger_name":"\u5c71\u897f,\u957f\u6cbb,\u6f5e\u57ce,\u6f5e\u534e,\u4e1c\u5357\u5c71","pinyin":"DongNanShan","lng":"113.229906","lat":"36.331571"},{"id":78110,"parent_id":78101,"level":4,"area_code":"140481001009","zip_code":"47599","city_code":"0355","name":"\u53e4\u5357\u5173\u793e\u533a\u5c45\u59d4\u4f1a","short_name":"\u53e4\u5357\u5173","merger_name":"\u5c71\u897f,\u957f\u6cbb,\u6f5e\u57ce,\u6f5e\u534e,\u53e4\u5357\u5173","pinyin":"GuNanGuan","lng":"113.233800","lat":"36.330860"},{"id":78111,"parent_id":78101,"level":4,"area_code":"140481001010","zip_code":"47599","city_code":"0355","name":"\u897f\u5357\u5c71\u793e\u533a\u5c45\u59d4\u4f1a","short_name":"\u897f\u5357\u5c71","merger_name":"\u5c71\u897f,\u957f\u6cbb,\u6f5e\u57ce,\u6f5e\u534e,\u897f\u5357\u5c71","pinyin":"XiNanShan","lng":"113.231200","lat":"36.335390"},{"id":78112,"parent_id":78101,"level":4,"area_code":"140481001011","zip_code":"47599","city_code":"0355","name":"\u767d\u9e64\u89c2\u793e\u533a\u5c45\u59d4\u4f1a","short_name":"\u767d\u9e64\u89c2","merger_name":"\u5c71\u897f,\u957f\u6cbb,\u6f5e\u57ce,\u6f5e\u534e,\u767d\u9e64\u89c2","pinyin":"BaiHeGuan","lng":"113.231522","lat":"36.329117"},{"id":78113,"parent_id":78101,"level":4,"area_code":"140481001012","zip_code":"47599","city_code":"0355","name":"\u664b\u6c34\u96c6\u56e2\u793e\u533a\u5c45\u59d4\u4f1a","short_name":"\u664b\u6c34\u96c6\u56e2","merger_name":"\u5c71\u897f,\u957f\u6cbb,\u6f5e\u57ce,\u6f5e\u534e,\u664b\u6c34\u96c6\u56e2","pinyin":"JinShuiJiTuan","lng":"112.704990","lat":"36.755750"},{"id":78114,"parent_id":78101,"level":4,"area_code":"140481001200","zip_code":"47599","city_code":"0355","name":"\u5cad\u540e\u6751\u59d4\u4f1a","short_name":"\u5cad\u540e","merger_name":"\u5c71\u897f,\u957f\u6cbb,\u6f5e\u57ce,\u6f5e\u534e,\u5cad\u540e","pinyin":"LingHou","lng":"113.202170","lat":"36.358640"},{"id":78115,"parent_id":78101,"level":4,"area_code":"140481001201","zip_code":"47599","city_code":"0355","name":"\u4e1c\u8d3e\u6751\u59d4\u4f1a","short_name":"\u4e1c\u8d3e","merger_name":"\u5c71\u897f,\u957f\u6cbb,\u6f5e\u57ce,\u6f5e\u534e,\u4e1c\u8d3e","pinyin":"DongJia","lng":"113.243380","lat":"36.346680"},{"id":78116,"parent_id":78101,"level":4,"area_code":"140481001202","zip_code":"47599","city_code":"0355","name":"\u4faf\u5bb6\u5e84\u6751\u59d4\u4f1a","short_name":"\u4faf\u5bb6\u5e84","merger_name":"\u5c71\u897f,\u957f\u6cbb,\u6f5e\u57ce,\u6f5e\u534e,\u4faf\u5bb6\u5e84","pinyin":"HouJiaZhuang","lng":"113.198400","lat":"36.323260"},{"id":78117,"parent_id":78101,"level":4,"area_code":"140481001203","zip_code":"47599","city_code":"0355","name":"\u5c71\u5e95\u6751\u59d4\u4f1a","short_name":"\u5c71\u5e95","merger_name":"\u5c71\u897f,\u957f\u6cbb,\u6f5e\u57ce,\u6f5e\u534e,\u5c71\u5e95","pinyin":"ShanDi","lng":"113.249087","lat":"36.339270"},{"id":78118,"parent_id":78101,"level":4,"area_code":"140481001204","zip_code":"47599","city_code":"0355","name":"\u4e94\u91cc\u540e\u6751\u59d4\u4f1a","short_name":"\u4e94\u91cc\u540e","merger_name":"\u5c71\u897f,\u957f\u6cbb,\u6f5e\u57ce,\u6f5e\u534e,\u4e94\u91cc\u540e","pinyin":"WuLiHou","lng":"113.229906","lat":"36.331571"},{"id":78119,"parent_id":78101,"level":4,"area_code":"140481001205","zip_code":"47599","city_code":"0355","name":"\u5357\u5e84\u6751\u59d4\u4f1a","short_name":"\u5357\u5e84","merger_name":"\u5c71\u897f,\u957f\u6cbb,\u6f5e\u57ce,\u6f5e\u534e,\u5357\u5e84","pinyin":"NanZhuang","lng":"113.202380","lat":"36.309030"},{"id":78120,"parent_id":78101,"level":4,"area_code":"140481001206","zip_code":"47599","city_code":"0355","name":"\u8f9b\u5e84\u6751\u59d4\u4f1a","short_name":"\u8f9b\u5e84","merger_name":"\u5c71\u897f,\u957f\u6cbb,\u6f5e\u57ce,\u6f5e\u534e,\u8f9b\u5e84","pinyin":"XinZhuang","lng":"113.285870","lat":"36.329580"},{"id":78121,"parent_id":78101,"level":4,"area_code":"140481001207","zip_code":"47599","city_code":"0355","name":"\u738b\u5c71\u576a\u6751\u59d4\u4f1a","short_name":"\u738b\u5c71\u576a","merger_name":"\u5c71\u897f,\u957f\u6cbb,\u6f5e\u57ce,\u6f5e\u534e,\u738b\u5c71\u576a","pinyin":"WangShanPing","lng":"113.198400","lat":"36.323260"},{"id":78122,"parent_id":78101,"level":4,"area_code":"140481001208","zip_code":"47599","city_code":"0355","name":"\u897f\u6751\u6751\u59d4\u4f1a","short_name":"\u897f\u6751","merger_name":"\u5c71\u897f,\u957f\u6cbb,\u6f5e\u57ce,\u6f5e\u534e,\u897f\u6751","pinyin":"XiCun","lng":"112.905910","lat":"36.207880"},{"id":78123,"parent_id":78101,"level":4,"area_code":"140481001209","zip_code":"47599","city_code":"0355","name":"\u5317\u5e84\u6751\u59d4\u4f1a","short_name":"\u5317\u5e84","merger_name":"\u5c71\u897f,\u957f\u6cbb,\u6f5e\u57ce,\u6f5e\u534e,\u5317\u5e84","pinyin":"BeiZhuang","lng":"113.205900","lat":"36.313950"},{"id":78124,"parent_id":78101,"level":4,"area_code":"140481001210","zip_code":"47599","city_code":"0355","name":"\u53f2\u574a\u6751\u59d4\u4f1a","short_name":"\u53f2\u574a","merger_name":"\u5c71\u897f,\u957f\u6cbb,\u6f5e\u57ce,\u6f5e\u534e,\u53f2\u574a","pinyin":"ShiFang","lng":"113.184048","lat":"36.345760"},{"id":78125,"parent_id":78101,"level":4,"area_code":"140481001211","zip_code":"47599","city_code":"0355","name":"\u897f\u8d3e\u6751\u59d4\u4f1a","short_name":"\u897f\u8d3e","merger_name":"\u5c71\u897f,\u957f\u6cbb,\u6f5e\u57ce,\u6f5e\u534e,\u897f\u8d3e","pinyin":"XiJia","lng":"112.838140","lat":"36.093950"},{"id":78126,"parent_id":78100,"level":3,"area_code":"140481002000","zip_code":"47599","city_code":"0355","name":"\u6210\u5bb6\u5ddd\u8857\u9053\u529e\u4e8b\u5904","short_name":"\u6210\u5bb6\u5ddd","merger_name":"\u5c71\u897f,\u957f\u6cbb,\u6f5e\u57ce,\u6210\u5bb6\u5ddd","pinyin":"ChengJiaChuan","lng":"113.272090","lat":"36.313540"},{"id":78127,"parent_id":78126,"level":4,"area_code":"140481002001","zip_code":"47599","city_code":"0355","name":"\u5929\u810a\u96c6\u56e2\u793e\u533a\u5c45\u59d4\u4f1a","short_name":"\u5929\u810a\u96c6\u56e2","merger_name":"\u5c71\u897f,\u957f\u6cbb,\u6f5e\u57ce,\u6210\u5bb6\u5ddd,\u5929\u810a\u96c6\u56e2","pinyin":"TianJiJiTuan","lng":"113.254930","lat":"36.325990"},{"id":78128,"parent_id":78126,"level":4,"area_code":"140481002200","zip_code":"47599","city_code":"0355","name":"\u4e1c\u9091\u6751\u59d4\u4f1a","short_name":"\u4e1c\u9091","merger_name":"\u5c71\u897f,\u957f\u6cbb,\u6f5e\u57ce,\u6210\u5bb6\u5ddd,\u4e1c\u9091","pinyin":"DongYi","lng":"113.271580","lat":"36.313000"},{"id":78129,"parent_id":78126,"level":4,"area_code":"140481002202","zip_code":"47599","city_code":"0355","name":"\u6210\u5bb6\u6751\u59d4\u4f1a","short_name":"\u6210\u5bb6","merger_name":"\u5c71\u897f,\u957f\u6cbb,\u6f5e\u57ce,\u6210\u5bb6\u5ddd,\u6210\u5bb6","pinyin":"ChengJia","lng":"113.271580","lat":"36.313000"},{"id":78130,"parent_id":78126,"level":4,"area_code":"140481002203","zip_code":"47599","city_code":"0355","name":"\u6210\u5bb6\u5ddd\u6751\u59d4\u4f1a","short_name":"\u6210\u5bb6\u5ddd","merger_name":"\u5c71\u897f,\u957f\u6cbb,\u6f5e\u57ce,\u6210\u5bb6\u5ddd,\u6210\u5bb6\u5ddd","pinyin":"ChengJiaChuan","lng":"113.271580","lat":"36.313000"},{"id":78131,"parent_id":78126,"level":4,"area_code":"140481002204","zip_code":"47599","city_code":"0355","name":"\u795e\u6cc9\u6751\u59d4\u4f1a","short_name":"\u795e\u6cc9","merger_name":"\u5c71\u897f,\u957f\u6cbb,\u6f5e\u57ce,\u6210\u5bb6\u5ddd,\u795e\u6cc9","pinyin":"ShenQuan","lng":"113.227480","lat":"36.263150"},{"id":78132,"parent_id":78126,"level":4,"area_code":"140481002205","zip_code":"47599","city_code":"0355","name":"\u9a6e\u5761\u6751\u59d4\u4f1a","short_name":"\u9a6e\u5761","merger_name":"\u5c71\u897f,\u957f\u6cbb,\u6f5e\u57ce,\u6210\u5bb6\u5ddd,\u9a6e\u5761","pinyin":"TuoPo","lng":"113.271580","lat":"36.313000"},{"id":78133,"parent_id":78126,"level":4,"area_code":"140481002206","zip_code":"47599","city_code":"0355","name":"\u7c73\u5bb6\u6751\u59d4\u4f1a","short_name":"\u7c73\u5bb6","merger_name":"\u5c71\u897f,\u957f\u6cbb,\u6f5e\u57ce,\u6210\u5bb6\u5ddd,\u7c73\u5bb6","pinyin":"MiJia","lng":"113.239610","lat":"36.303690"},{"id":78134,"parent_id":78126,"level":4,"area_code":"140481002207","zip_code":"47599","city_code":"0355","name":"\u738b\u5bb6\u6751\u59d4\u4f1a","short_name":"\u738b\u5bb6","merger_name":"\u5c71\u897f,\u957f\u6cbb,\u6f5e\u57ce,\u6210\u5bb6\u5ddd,\u738b\u5bb6","pinyin":"WangJia","lng":"113.249087","lat":"36.339270"},{"id":78135,"parent_id":78126,"level":4,"area_code":"140481002208","zip_code":"47599","city_code":"0355","name":"\u7a91\u4e0a\u6751\u59d4\u4f1a","short_name":"\u7a91\u4e0a","merger_name":"\u5c71\u897f,\u957f\u6cbb,\u6f5e\u57ce,\u6210\u5bb6\u5ddd,\u7a91\u4e0a","pinyin":"YaoShang","lng":"113.272090","lat":"36.313540"},{"id":78136,"parent_id":78126,"level":4,"area_code":"140481002209","zip_code":"47599","city_code":"0355","name":"\u4e09\u4e95\u6751\u59d4\u4f1a","short_name":"\u4e09\u4e95","merger_name":"\u5c71\u897f,\u957f\u6cbb,\u6f5e\u57ce,\u6210\u5bb6\u5ddd,\u4e09\u4e95","pinyin":"SanJing","lng":"113.302020","lat":"36.295330"},{"id":78137,"parent_id":78126,"level":4,"area_code":"140481002210","zip_code":"47599","city_code":"0355","name":"\u897f\u5c71\u6751\u59d4\u4f1a","short_name":"\u897f\u5c71","merger_name":"\u5c71\u897f,\u957f\u6cbb,\u6f5e\u57ce,\u6210\u5bb6\u5ddd,\u897f\u5c71","pinyin":"XiShan","lng":"113.272090","lat":"36.313540"},{"id":78138,"parent_id":78126,"level":4,"area_code":"140481002211","zip_code":"47599","city_code":"0355","name":"\u5927\u6865\u6751\u59d4\u4f1a","short_name":"\u5927\u6865","merger_name":"\u5c71\u897f,\u957f\u6cbb,\u6f5e\u57ce,\u6210\u5bb6\u5ddd,\u5927\u6865","pinyin":"DaQiao","lng":"113.272090","lat":"36.313540"},{"id":78139,"parent_id":78126,"level":4,"area_code":"140481002212","zip_code":"47599","city_code":"0355","name":"\u53f0\u4e1c\u6751\u59d4\u4f1a","short_name":"\u53f0\u4e1c","merger_name":"\u5c71\u897f,\u957f\u6cbb,\u6f5e\u57ce,\u6210\u5bb6\u5ddd,\u53f0\u4e1c","pinyin":"TaiDong","lng":"113.283740","lat":"36.292420"},{"id":78140,"parent_id":78126,"level":4,"area_code":"140481002213","zip_code":"47599","city_code":"0355","name":"\u6c9f\u4e1c\u6751\u59d4\u4f1a","short_name":"\u6c9f\u4e1c","merger_name":"\u5c71\u897f,\u957f\u6cbb,\u6f5e\u57ce,\u6210\u5bb6\u5ddd,\u6c9f\u4e1c","pinyin":"GouDong","lng":"113.302020","lat":"36.295330"},{"id":78141,"parent_id":78126,"level":4,"area_code":"140481002214","zip_code":"47599","city_code":"0355","name":"\u674e\u5bb6\u6751\u59d4\u4f1a","short_name":"\u674e\u5bb6","merger_name":"\u5c71\u897f,\u957f\u6cbb,\u6f5e\u57ce,\u6210\u5bb6\u5ddd,\u674e\u5bb6","pinyin":"LiJia","lng":"113.249087","lat":"36.339270"},{"id":78142,"parent_id":78126,"level":4,"area_code":"140481002215","zip_code":"47599","city_code":"0355","name":"\u9ec4\u6c60\u6751\u59d4\u4f1a","short_name":"\u9ec4\u6c60","merger_name":"\u5c71\u897f,\u957f\u6cbb,\u6f5e\u57ce,\u6210\u5bb6\u5ddd,\u9ec4\u6c60","pinyin":"HuangChi","lng":"113.313540","lat":"36.275810"},{"id":78143,"parent_id":78126,"level":4,"area_code":"140481002216","zip_code":"47599","city_code":"0355","name":"\u4f1a\u5c71\u5e95\u6751\u59d4\u4f1a","short_name":"\u4f1a\u5c71\u5e95","merger_name":"\u5c71\u897f,\u957f\u6cbb,\u6f5e\u57ce,\u6210\u5bb6\u5ddd,\u4f1a\u5c71\u5e95","pinyin":"HuiShanDi","lng":"113.249087","lat":"36.339270"},{"id":78144,"parent_id":78126,"level":4,"area_code":"140481002217","zip_code":"47599","city_code":"0355","name":"\u5c71\u540e\u6751\u59d4\u4f1a","short_name":"\u5c71\u540e","merger_name":"\u5c71\u897f,\u957f\u6cbb,\u6f5e\u57ce,\u6210\u5bb6\u5ddd,\u5c71\u540e","pinyin":"ShanHou","lng":"113.342645","lat":"36.225999"},{"id":78145,"parent_id":78126,"level":4,"area_code":"140481002218","zip_code":"47599","city_code":"0355","name":"\u5357\u6751\u6751\u59d4\u4f1a","short_name":"\u5357\u6751","merger_name":"\u5c71\u897f,\u957f\u6cbb,\u6f5e\u57ce,\u6210\u5bb6\u5ddd,\u5357\u6751","pinyin":"NanCun","lng":"113.249087","lat":"36.339270"},{"id":78146,"parent_id":78126,"level":4,"area_code":"140481002219","zip_code":"47599","city_code":"0355","name":"\u4e0b\u793e\u6751\u59d4\u4f1a","short_name":"\u4e0b\u793e","merger_name":"\u5c71\u897f,\u957f\u6cbb,\u6f5e\u57ce,\u6210\u5bb6\u5ddd,\u4e0b\u793e","pinyin":"XiaShe","lng":"113.249087","lat":"36.339270"},{"id":78147,"parent_id":78126,"level":4,"area_code":"140481002220","zip_code":"47599","city_code":"0355","name":"\u6cb3\u897f\u6751\u59d4\u4f1a","short_name":"\u6cb3\u897f","merger_name":"\u5c71\u897f,\u957f\u6cbb,\u6f5e\u57ce,\u6210\u5bb6\u5ddd,\u6cb3\u897f","pinyin":"HeXi","lng":"113.272090","lat":"36.313540"},{"id":78148,"parent_id":78126,"level":4,"area_code":"140481002221","zip_code":"47599","city_code":"0355","name":"\u5cea\u5317\u6751\u59d4\u4f1a","short_name":"\u5cea\u5317","merger_name":"\u5c71\u897f,\u957f\u6cbb,\u6f5e\u57ce,\u6210\u5bb6\u5ddd,\u5cea\u5317","pinyin":"YuBei","lng":"113.249087","lat":"36.339270"},{"id":78149,"parent_id":78126,"level":4,"area_code":"140481002222","zip_code":"47599","city_code":"0355","name":"\u7965\u4e95\u6751\u59d4\u4f1a","short_name":"\u7965\u4e95","merger_name":"\u5c71\u897f,\u957f\u6cbb,\u6f5e\u57ce,\u6210\u5bb6\u5ddd,\u7965\u4e95","pinyin":"XiangJing","lng":"113.351890","lat":"36.272130"},{"id":78150,"parent_id":78126,"level":4,"area_code":"140481002223","zip_code":"47599","city_code":"0355","name":"\u9f0e\u7559\u6751\u59d4\u4f1a","short_name":"\u9f0e\u7559","merger_name":"\u5c71\u897f,\u957f\u6cbb,\u6f5e\u57ce,\u6210\u5bb6\u5ddd,\u9f0e\u7559","pinyin":"DingLiu","lng":"113.271580","lat":"36.313000"},{"id":78151,"parent_id":78126,"level":4,"area_code":"140481002224","zip_code":"47599","city_code":"0355","name":"\u6c9f\u5317\u6751\u59d4\u4f1a","short_name":"\u6c9f\u5317","merger_name":"\u5c71\u897f,\u957f\u6cbb,\u6f5e\u57ce,\u6210\u5bb6\u5ddd,\u6c9f\u5317","pinyin":"GouBei","lng":"113.338020","lat":"36.291030"},{"id":78152,"parent_id":78126,"level":4,"area_code":"140481002225","zip_code":"47599","city_code":"0355","name":"\u540e\u4ea4\u6751\u59d4\u4f1a","short_name":"\u540e\u4ea4","merger_name":"\u5c71\u897f,\u957f\u6cbb,\u6f5e\u57ce,\u6210\u5bb6\u5ddd,\u540e\u4ea4","pinyin":"HouJiao","lng":"113.070547","lat":"35.999288"},{"id":78153,"parent_id":78126,"level":4,"area_code":"140481002226","zip_code":"47599","city_code":"0355","name":"\u90ed\u5bb6\u5e84\u6751\u59d4\u4f1a","short_name":"\u90ed\u5bb6\u5e84","merger_name":"\u5c71\u897f,\u957f\u6cbb,\u6f5e\u57ce,\u6210\u5bb6\u5ddd,\u90ed\u5bb6\u5e84","pinyin":"GuoJiaZhuang","lng":"113.271580","lat":"36.313000"},{"id":78154,"parent_id":78126,"level":4,"area_code":"140481002227","zip_code":"47599","city_code":"0355","name":"\u7533\u5bb6\u6751\u59d4\u4f1a","short_name":"\u7533\u5bb6","merger_name":"\u5c71\u897f,\u957f\u6cbb,\u6f5e\u57ce,\u6210\u5bb6\u5ddd,\u7533\u5bb6","pinyin":"ShenJia","lng":"112.936826","lat":"36.365453"},{"id":78155,"parent_id":78126,"level":4,"area_code":"140481002228","zip_code":"47599","city_code":"0355","name":"\u82d7\u5bb6\u6751\u59d4\u4f1a","short_name":"\u82d7\u5bb6","merger_name":"\u5c71\u897f,\u957f\u6cbb,\u6f5e\u57ce,\u6210\u5bb6\u5ddd,\u82d7\u5bb6","pinyin":"MiaoJia","lng":"113.272090","lat":"36.313540"},{"id":78156,"parent_id":78126,"level":4,"area_code":"140481002229","zip_code":"47599","city_code":"0355","name":"\u6728\u74dc\u6751\u59d4\u4f1a","short_name":"\u6728\u74dc","merger_name":"\u5c71\u897f,\u957f\u6cbb,\u6f5e\u57ce,\u6210\u5bb6\u5ddd,\u6728\u74dc","pinyin":"MuGua","lng":"113.339270","lat":"36.282830"},{"id":78157,"parent_id":78100,"level":3,"area_code":"140481100000","zip_code":"47599","city_code":"0355","name":"\u5e97\u4e0a\u9547","short_name":"\u5e97\u4e0a","merger_name":"\u5c71\u897f,\u957f\u6cbb,\u6f5e\u57ce,\u5e97\u4e0a","pinyin":"DianShang","lng":"113.102770","lat":"36.432390"},{"id":78158,"parent_id":78157,"level":4,"area_code":"140481100200","zip_code":"47599","city_code":"0355","name":"\u5e97\u4e0a\u6751\u59d4\u4f1a","short_name":"\u5e97\u4e0a","merger_name":"\u5c71\u897f,\u957f\u6cbb,\u6f5e\u57ce,\u5e97\u4e0a,\u5e97\u4e0a","pinyin":"DianShang","lng":"113.106586","lat":"36.451414"},{"id":78159,"parent_id":78157,"level":4,"area_code":"140481100201","zip_code":"47599","city_code":"0355","name":"\u6cb3\u6e43\u6751\u59d4\u4f1a","short_name":"\u6cb3\u6e43","merger_name":"\u5c71\u897f,\u957f\u6cbb,\u6f5e\u57ce,\u5e97\u4e0a,\u6cb3\u6e43","pinyin":"HePai","lng":"113.104490","lat":"36.438080"},{"id":78160,"parent_id":78157,"level":4,"area_code":"140481100202","zip_code":"47599","city_code":"0355","name":"\u67a3\u81fb\u6751\u59d4\u4f1a","short_name":"\u67a3\u81fb","merger_name":"\u5c71\u897f,\u957f\u6cbb,\u6f5e\u57ce,\u5e97\u4e0a,\u67a3\u81fb","pinyin":"ZaoZhen","lng":"113.125670","lat":"36.446220"},{"id":78161,"parent_id":78157,"level":4,"area_code":"140481100203","zip_code":"47599","city_code":"0355","name":"\u6e29\u6751\u6751\u59d4\u4f1a","short_name":"\u6e29\u6751","merger_name":"\u5c71\u897f,\u957f\u6cbb,\u6f5e\u57ce,\u5e97\u4e0a,\u6e29\u6751","pinyin":"WenCun","lng":"113.106586","lat":"36.451414"},{"id":78162,"parent_id":78157,"level":4,"area_code":"140481100204","zip_code":"47599","city_code":"0355","name":"\u5e38\u5e84\u6751\u59d4\u4f1a","short_name":"\u5e38\u5e84","merger_name":"\u5c71\u897f,\u957f\u6cbb,\u6f5e\u57ce,\u5e97\u4e0a,\u5e38\u5e84","pinyin":"ChangZhuang","lng":"113.106586","lat":"36.451414"},{"id":78163,"parent_id":78157,"level":4,"area_code":"140481100205","zip_code":"47599","city_code":"0355","name":"\u5468\u6b66\u6751\u59d4\u4f1a","short_name":"\u5468\u6b66","merger_name":"\u5c71\u897f,\u957f\u6cbb,\u6f5e\u57ce,\u5e97\u4e0a,\u5468\u6b66","pinyin":"ZhouWu","lng":"113.145950","lat":"36.427210"},{"id":78164,"parent_id":78157,"level":4,"area_code":"140481100206","zip_code":"47599","city_code":"0355","name":"\u90b1\u58c1\u6751\u59d4\u4f1a","short_name":"\u90b1\u58c1","merger_name":"\u5c71\u897f,\u957f\u6cbb,\u6f5e\u57ce,\u5e97\u4e0a,\u90b1\u58c1","pinyin":"QiuBi","lng":"113.144840","lat":"36.437530"},{"id":78165,"parent_id":78157,"level":4,"area_code":"140481100207","zip_code":"47599","city_code":"0355","name":"\u67f3\u6c5f\u6c9f\u6751\u59d4\u4f1a","short_name":"\u67f3\u6c5f\u6c9f","merger_name":"\u5c71\u897f,\u957f\u6cbb,\u6f5e\u57ce,\u5e97\u4e0a,\u67f3\u6c5f\u6c9f","pinyin":"LiuJiangGou","lng":"113.124820","lat":"36.457220"},{"id":78166,"parent_id":78157,"level":4,"area_code":"140481100208","zip_code":"47599","city_code":"0355","name":"\u674e\u5bb6\u5e84\u6751\u59d4\u4f1a","short_name":"\u674e\u5bb6\u5e84","merger_name":"\u5c71\u897f,\u957f\u6cbb,\u6f5e\u57ce,\u5e97\u4e0a,\u674e\u5bb6\u5e84","pinyin":"LiJiaZhuang","lng":"113.113899","lat":"36.165678"},{"id":78167,"parent_id":78157,"level":4,"area_code":"140481100209","zip_code":"47599","city_code":"0355","name":"\u65b0\u5efa\u5e84\u6751\u59d4\u4f1a","short_name":"\u65b0\u5efa\u5e84","merger_name":"\u5c71\u897f,\u957f\u6cbb,\u6f5e\u57ce,\u5e97\u4e0a,\u65b0\u5efa\u5e84","pinyin":"XinJianZhuang","lng":"113.106586","lat":"36.451414"},{"id":78168,"parent_id":78157,"level":4,"area_code":"140481100210","zip_code":"47599","city_code":"0355","name":"\u4e0a\u6817\u6751\u59d4\u4f1a","short_name":"\u4e0a\u6817","merger_name":"\u5c71\u897f,\u957f\u6cbb,\u6f5e\u57ce,\u5e97\u4e0a,\u4e0a\u6817","pinyin":"ShangLi","lng":"113.205850","lat":"36.892800"},{"id":78169,"parent_id":78157,"level":4,"area_code":"140481100211","zip_code":"47599","city_code":"0355","name":"\u4e0b\u6817\u6751\u59d4\u4f1a","short_name":"\u4e0b\u6817","merger_name":"\u5c71\u897f,\u957f\u6cbb,\u6f5e\u57ce,\u5e97\u4e0a,\u4e0b\u6817","pinyin":"XiaLi","lng":"113.127610","lat":"36.399030"},{"id":78170,"parent_id":78157,"level":4,"area_code":"140481100212","zip_code":"47599","city_code":"0355","name":"\u725b\u6751\u6751\u59d4\u4f1a","short_name":"\u725b\u6751","merger_name":"\u5c71\u897f,\u957f\u6cbb,\u6f5e\u57ce,\u5e97\u4e0a,\u725b\u6751","pinyin":"NiuCun","lng":"113.221262","lat":"35.959815"},{"id":78171,"parent_id":78157,"level":4,"area_code":"140481100213","zip_code":"47599","city_code":"0355","name":"\u4e1c\u767d\u5154\u6751\u59d4\u4f1a","short_name":"\u4e1c\u767d\u5154","merger_name":"\u5c71\u897f,\u957f\u6cbb,\u6f5e\u57ce,\u5e97\u4e0a,\u4e1c\u767d\u5154","pinyin":"DongBaiTu","lng":"113.106586","lat":"36.451414"},{"id":78172,"parent_id":78157,"level":4,"area_code":"140481100214","zip_code":"47599","city_code":"0355","name":"\u8d64\u5934\u6751\u59d4\u4f1a","short_name":"\u8d64\u5934","merger_name":"\u5c71\u897f,\u957f\u6cbb,\u6f5e\u57ce,\u5e97\u4e0a,\u8d64\u5934","pinyin":"ChiTou","lng":"113.106586","lat":"36.451414"},{"id":78173,"parent_id":78157,"level":4,"area_code":"140481100215","zip_code":"47599","city_code":"0355","name":"\u9a6c\u6c5f\u6c9f\u6751\u59d4\u4f1a","short_name":"\u9a6c\u6c5f\u6c9f","merger_name":"\u5c71\u897f,\u957f\u6cbb,\u6f5e\u57ce,\u5e97\u4e0a,\u9a6c\u6c5f\u6c9f","pinyin":"MaJiangGou","lng":"113.106586","lat":"36.451414"},{"id":78174,"parent_id":78157,"level":4,"area_code":"140481100216","zip_code":"47599","city_code":"0355","name":"\u77f3\u7a9f\u6751\u59d4\u4f1a","short_name":"\u77f3\u7a9f","merger_name":"\u5c71\u897f,\u957f\u6cbb,\u6f5e\u57ce,\u5e97\u4e0a,\u77f3\u7a9f","pinyin":"ShiKu","lng":"113.066430","lat":"36.441060"},{"id":78175,"parent_id":78157,"level":4,"area_code":"140481100217","zip_code":"47599","city_code":"0355","name":"\u66f9\u5bb6\u6c9f\u6751\u59d4\u4f1a","short_name":"\u66f9\u5bb6\u6c9f","merger_name":"\u5c71\u897f,\u957f\u6cbb,\u6f5e\u57ce,\u5e97\u4e0a,\u66f9\u5bb6\u6c9f","pinyin":"CaoJiaGou","lng":"113.066430","lat":"36.441060"},{"id":78176,"parent_id":78157,"level":4,"area_code":"140481100218","zip_code":"47599","city_code":"0355","name":"\u5317\u6751\u6751\u59d4\u4f1a","short_name":"\u5317\u6751","merger_name":"\u5c71\u897f,\u957f\u6cbb,\u6f5e\u57ce,\u5e97\u4e0a,\u5317\u6751","pinyin":"BeiCun","lng":"113.396280","lat":"35.870020"},{"id":78177,"parent_id":78157,"level":4,"area_code":"140481100219","zip_code":"47599","city_code":"0355","name":"\u897f\u7533\u5e84\u6751\u59d4\u4f1a","short_name":"\u897f\u7533\u5e84","merger_name":"\u5c71\u897f,\u957f\u6cbb,\u6f5e\u57ce,\u5e97\u4e0a,\u897f\u7533\u5e84","pinyin":"XiShenZhuang","lng":"113.009410","lat":"36.433460"},{"id":78178,"parent_id":78157,"level":4,"area_code":"140481100220","zip_code":"47599","city_code":"0355","name":"\u5b8b\u6751\u6751\u59d4\u4f1a","short_name":"\u5b8b\u6751","merger_name":"\u5c71\u897f,\u957f\u6cbb,\u6f5e\u57ce,\u5e97\u4e0a,\u5b8b\u6751","pinyin":"SongCun","lng":"113.094670","lat":"36.393810"},{"id":78179,"parent_id":78157,"level":4,"area_code":"140481100221","zip_code":"47599","city_code":"0355","name":"\u97e9\u6751\u6751\u59d4\u4f1a","short_name":"\u97e9\u6751","merger_name":"\u5c71\u897f,\u957f\u6cbb,\u6f5e\u57ce,\u5e97\u4e0a,\u97e9\u6751","pinyin":"HanCun","lng":"113.069630","lat":"36.271820"},{"id":78180,"parent_id":78157,"level":4,"area_code":"140481100222","zip_code":"47599","city_code":"0355","name":"\u6d2a\u5cad\u6751\u59d4\u4f1a","short_name":"\u6d2a\u5cad","merger_name":"\u5c71\u897f,\u957f\u6cbb,\u6f5e\u57ce,\u5e97\u4e0a,\u6d2a\u5cad","pinyin":"HongLing","lng":"113.090150","lat":"36.425660"},{"id":78181,"parent_id":78157,"level":4,"area_code":"140481100223","zip_code":"47599","city_code":"0355","name":"\u9ec4\u6c99\u5cad\u6751\u59d4\u4f1a","short_name":"\u9ec4\u6c99\u5cad","merger_name":"\u5c71\u897f,\u957f\u6cbb,\u6f5e\u57ce,\u5e97\u4e0a,\u9ec4\u6c99\u5cad","pinyin":"HuangShaLing","lng":"113.127610","lat":"36.399030"},{"id":78182,"parent_id":78100,"level":3,"area_code":"140481101000","zip_code":"47599","city_code":"0355","name":"\u5fae\u5b50\u9547","short_name":"\u5fae\u5b50","merger_name":"\u5c71\u897f,\u957f\u6cbb,\u6f5e\u57ce,\u5fae\u5b50","pinyin":"WeiZi","lng":"113.306040","lat":"36.336940"},{"id":78183,"parent_id":78182,"level":4,"area_code":"140481101200","zip_code":"47599","city_code":"0355","name":"\u5317\u6751\u59d4\u4f1a","short_name":"\u5317","merger_name":"\u5c71\u897f,\u957f\u6cbb,\u6f5e\u57ce,\u5fae\u5b50,\u5317","pinyin":"Bei","lng":"113.307150","lat":"36.336440"},{"id":78184,"parent_id":78182,"level":4,"area_code":"140481101201","zip_code":"47599","city_code":"0355","name":"\u5357\u6751\u59d4\u4f1a","short_name":"\u5357","merger_name":"\u5c71\u897f,\u957f\u6cbb,\u6f5e\u57ce,\u5fae\u5b50,\u5357","pinyin":"Nan","lng":"113.305560","lat":"36.334000"},{"id":78185,"parent_id":78182,"level":4,"area_code":"140481101202","zip_code":"47599","city_code":"0355","name":"\u6bd4\u5e72\u5cad\u6751\u59d4\u4f1a","short_name":"\u6bd4\u5e72\u5cad","merger_name":"\u5c71\u897f,\u957f\u6cbb,\u6f5e\u57ce,\u5fae\u5b50,\u6bd4\u5e72\u5cad","pinyin":"BiGanLing","lng":"113.307150","lat":"36.336440"},{"id":78186,"parent_id":78182,"level":4,"area_code":"140481101203","zip_code":"47599","city_code":"0355","name":"\u79f0\u6c9f\u6e7e\u6751\u59d4\u4f1a","short_name":"\u79f0\u6c9f\u6e7e","merger_name":"\u5c71\u897f,\u957f\u6cbb,\u6f5e\u57ce,\u5fae\u5b50,\u79f0\u6c9f\u6e7e","pinyin":"ChengGouWan","lng":"113.283554","lat":"36.342859"},{"id":78187,"parent_id":78182,"level":4,"area_code":"140481101204","zip_code":"47599","city_code":"0355","name":"\u79e6\u5bb6\u5c71\u6751\u59d4\u4f1a","short_name":"\u79e6\u5bb6\u5c71","merger_name":"\u5c71\u897f,\u957f\u6cbb,\u6f5e\u57ce,\u5fae\u5b50,\u79e6\u5bb6\u5c71","pinyin":"QinJiaShan","lng":"113.299990","lat":"36.357500"},{"id":78188,"parent_id":78182,"level":4,"area_code":"140481101205","zip_code":"47599","city_code":"0355","name":"\u51af\u6751\u6751\u59d4\u4f1a","short_name":"\u51af\u6751","merger_name":"\u5c71\u897f,\u957f\u6cbb,\u6f5e\u57ce,\u5fae\u5b50,\u51af\u6751","pinyin":"FengCun","lng":"112.423940","lat":"36.398700"},{"id":78189,"parent_id":78182,"level":4,"area_code":"140481101206","zip_code":"47599","city_code":"0355","name":"\u8d3e\u8857\u6751\u59d4\u4f1a","short_name":"\u8d3e\u8857","merger_name":"\u5c71\u897f,\u957f\u6cbb,\u6f5e\u57ce,\u5fae\u5b50,\u8d3e\u8857","pinyin":"JiaJie","lng":"113.311170","lat":"36.349160"},{"id":78190,"parent_id":78182,"level":4,"area_code":"140481101207","zip_code":"47599","city_code":"0355","name":"\u6d2a\u638c\u6751\u59d4\u4f1a","short_name":"\u6d2a\u638c","merger_name":"\u5c71\u897f,\u957f\u6cbb,\u6f5e\u57ce,\u5fae\u5b50,\u6d2a\u638c","pinyin":"HongZhang","lng":"113.317310","lat":"36.324740"},{"id":78191,"parent_id":78182,"level":4,"area_code":"140481101208","zip_code":"47599","city_code":"0355","name":"\u90dd\u5bb6\u6c9f\u6751\u59d4\u4f1a","short_name":"\u90dd\u5bb6\u6c9f","merger_name":"\u5c71\u897f,\u957f\u6cbb,\u6f5e\u57ce,\u5fae\u5b50,\u90dd\u5bb6\u6c9f","pinyin":"HaoJiaGou","lng":"113.309830","lat":"36.318730"},{"id":78192,"parent_id":78182,"level":4,"area_code":"140481101209","zip_code":"47599","city_code":"0355","name":"\u738b\u90fd\u5e84\u6751\u59d4\u4f1a","short_name":"\u738b\u90fd\u5e84","merger_name":"\u5c71\u897f,\u957f\u6cbb,\u6f5e\u57ce,\u5fae\u5b50,\u738b\u90fd\u5e84","pinyin":"WangDouZhuang","lng":"113.307300","lat":"36.308130"},{"id":78193,"parent_id":78182,"level":4,"area_code":"140481101210","zip_code":"47599","city_code":"0355","name":"\u97e9\u5bb6\u56ed\u6751\u59d4\u4f1a","short_name":"\u97e9\u5bb6\u56ed","merger_name":"\u5c71\u897f,\u957f\u6cbb,\u6f5e\u57ce,\u5fae\u5b50,\u97e9\u5bb6\u56ed","pinyin":"HanJiaYuan","lng":"112.936826","lat":"36.365453"},{"id":78194,"parent_id":78182,"level":4,"area_code":"140481101211","zip_code":"47599","city_code":"0355","name":"\u540e\u6cb3\u6751\u59d4\u4f1a","short_name":"\u540e\u6cb3","merger_name":"\u5c71\u897f,\u957f\u6cbb,\u6f5e\u57ce,\u5fae\u5b50,\u540e\u6cb3","pinyin":"HouHe","lng":"113.307090","lat":"36.343670"},{"id":78195,"parent_id":78182,"level":4,"area_code":"140481101212","zip_code":"47599","city_code":"0355","name":"\u674e\u5bb6\u5e84\u6751\u59d4\u4f1a","short_name":"\u674e\u5bb6\u5e84","merger_name":"\u5c71\u897f,\u957f\u6cbb,\u6f5e\u57ce,\u5fae\u5b50,\u674e\u5bb6\u5e84","pinyin":"LiJiaZhuang","lng":"113.113899","lat":"36.165678"},{"id":78196,"parent_id":78182,"level":4,"area_code":"140481101213","zip_code":"47599","city_code":"0355","name":"\u548c\u5408\u6751\u59d4\u4f1a","short_name":"\u548c\u5408","merger_name":"\u5c71\u897f,\u957f\u6cbb,\u6f5e\u57ce,\u5fae\u5b50,\u548c\u5408","pinyin":"HeHe","lng":"113.317310","lat":"36.324740"},{"id":78197,"parent_id":78182,"level":4,"area_code":"140481101214","zip_code":"47599","city_code":"0355","name":"\u5c0f\u6f66\u6cb3\u6751\u59d4\u4f1a","short_name":"\u5c0f\u6f66\u6cb3","merger_name":"\u5c71\u897f,\u957f\u6cbb,\u6f5e\u57ce,\u5fae\u5b50,\u5c0f\u6f66\u6cb3","pinyin":"XiaoLaoHe","lng":"113.309830","lat":"36.318730"},{"id":78198,"parent_id":78182,"level":4,"area_code":"140481101215","zip_code":"47599","city_code":"0355","name":"\u4e1c\u9773\u6751\u59d4\u4f1a","short_name":"\u4e1c\u9773","merger_name":"\u5c71\u897f,\u957f\u6cbb,\u6f5e\u57ce,\u5fae\u5b50,\u4e1c\u9773","pinyin":"DongJin","lng":"113.309830","lat":"36.318730"},{"id":78199,"parent_id":78182,"level":4,"area_code":"140481101216","zip_code":"47599","city_code":"0355","name":"\u897f\u9773\u6751\u59d4\u4f1a","short_name":"\u897f\u9773","merger_name":"\u5c71\u897f,\u957f\u6cbb,\u6f5e\u57ce,\u5fae\u5b50,\u897f\u9773","pinyin":"XiJin","lng":"113.307210","lat":"36.317950"},{"id":78200,"parent_id":78182,"level":4,"area_code":"140481101217","zip_code":"47599","city_code":"0355","name":"\u9b4f\u5bb6\u5e84\u6751\u59d4\u4f1a","short_name":"\u9b4f\u5bb6\u5e84","merger_name":"\u5c71\u897f,\u957f\u6cbb,\u6f5e\u57ce,\u5fae\u5b50,\u9b4f\u5bb6\u5e84","pinyin":"WeiJiaZhuang","lng":"113.329210","lat":"36.396950"},{"id":78201,"parent_id":78182,"level":4,"area_code":"140481101218","zip_code":"47599","city_code":"0355","name":"\u6f2b\u6d41\u6cb3\u6751\u59d4\u4f1a","short_name":"\u6f2b\u6d41\u6cb3","merger_name":"\u5c71\u897f,\u957f\u6cbb,\u6f5e\u57ce,\u5fae\u5b50,\u6f2b\u6d41\u6cb3","pinyin":"ManLiuHe","lng":"113.333840","lat":"36.373330"},{"id":78202,"parent_id":78182,"level":4,"area_code":"140481101219","zip_code":"47599","city_code":"0355","name":"\u859b\u5bb6\u5e84\u6751\u59d4\u4f1a","short_name":"\u859b\u5bb6\u5e84","merger_name":"\u5c71\u897f,\u957f\u6cbb,\u6f5e\u57ce,\u5fae\u5b50,\u859b\u5bb6\u5e84","pinyin":"XueJiaZhuang","lng":"113.167310","lat":"36.369560"},{"id":78203,"parent_id":78182,"level":4,"area_code":"140481101220","zip_code":"47599","city_code":"0355","name":"\u738b\u5bb6\u5e84\u6751\u59d4\u4f1a","short_name":"\u738b\u5bb6\u5e84","merger_name":"\u5c71\u897f,\u957f\u6cbb,\u6f5e\u57ce,\u5fae\u5b50,\u738b\u5bb6\u5e84","pinyin":"WangJiaZhuang","lng":"113.335150","lat":"36.400350"},{"id":78204,"parent_id":78182,"level":4,"area_code":"140481101221","zip_code":"47599","city_code":"0355","name":"\u6c9f\u4e1c\u6751\u59d4\u4f1a","short_name":"\u6c9f\u4e1c","merger_name":"\u5c71\u897f,\u957f\u6cbb,\u6f5e\u57ce,\u5fae\u5b50,\u6c9f\u4e1c","pinyin":"GouDong","lng":"113.266400","lat":"36.290280"},{"id":78205,"parent_id":78182,"level":4,"area_code":"140481101222","zip_code":"47599","city_code":"0355","name":"\u8f9b\u5e84\u6751\u59d4\u4f1a","short_name":"\u8f9b\u5e84","merger_name":"\u5c71\u897f,\u957f\u6cbb,\u6f5e\u57ce,\u5fae\u5b50,\u8f9b\u5e84","pinyin":"XinZhuang","lng":"113.285870","lat":"36.329580"},{"id":78206,"parent_id":78182,"level":4,"area_code":"140481101223","zip_code":"47599","city_code":"0355","name":"\u82b1\u56ed\u6751\u59d4\u4f1a","short_name":"\u82b1\u56ed","merger_name":"\u5c71\u897f,\u957f\u6cbb,\u6f5e\u57ce,\u5fae\u5b50,\u82b1\u56ed","pinyin":"HuaYuan","lng":"113.307350","lat":"36.330060"},{"id":78207,"parent_id":78182,"level":4,"area_code":"140481101224","zip_code":"47599","city_code":"0355","name":"\u795e\u5934\u6751\u59d4\u4f1a","short_name":"\u795e\u5934","merger_name":"\u5c71\u897f,\u957f\u6cbb,\u6f5e\u57ce,\u5fae\u5b50,\u795e\u5934","pinyin":"ShenTou","lng":"113.333840","lat":"36.373330"},{"id":78208,"parent_id":78182,"level":4,"area_code":"140481101225","zip_code":"47599","city_code":"0355","name":"\u5f20\u5e84\u6751\u59d4\u4f1a","short_name":"\u5f20\u5e84","merger_name":"\u5c71\u897f,\u957f\u6cbb,\u6f5e\u57ce,\u5fae\u5b50,\u5f20\u5e84","pinyin":"ZhangZhuang","lng":"112.869710","lat":"36.224300"},{"id":78209,"parent_id":78182,"level":4,"area_code":"140481101226","zip_code":"47599","city_code":"0355","name":"\u77f3\u5323\u6751\u59d4\u4f1a","short_name":"\u77f3\u5323","merger_name":"\u5c71\u897f,\u957f\u6cbb,\u6f5e\u57ce,\u5fae\u5b50,\u77f3\u5323","pinyin":"ShiXia","lng":"113.306040","lat":"36.336940"},{"id":78210,"parent_id":78182,"level":4,"area_code":"140481101228","zip_code":"47599","city_code":"0355","name":"\u6f2b\u6d41\u5cad\u6751\u59d4\u4f1a","short_name":"\u6f2b\u6d41\u5cad","merger_name":"\u5c71\u897f,\u957f\u6cbb,\u6f5e\u57ce,\u5fae\u5b50,\u6f2b\u6d41\u5cad","pinyin":"ManLiuLing","lng":"113.312560","lat":"36.375860"},{"id":78211,"parent_id":78100,"level":3,"area_code":"140481102000","zip_code":"47599","city_code":"0355","name":"\u8f9b\u5b89\u6cc9\u9547","short_name":"\u8f9b\u5b89","merger_name":"\u5c71\u897f,\u957f\u6cbb,\u6f5e\u57ce,\u8f9b\u5b89","pinyin":"XinAn","lng":"113.317610","lat":"36.456330"},{"id":78212,"parent_id":78211,"level":4,"area_code":"140481102200","zip_code":"47599","city_code":"0355","name":"\u77f3\u6881\u6751\u59d4\u4f1a","short_name":"\u77f3\u6881","merger_name":"\u5c71\u897f,\u957f\u6cbb,\u6f5e\u57ce,\u8f9b\u5b89,\u77f3\u6881","pinyin":"ShiLiang","lng":"113.316940","lat":"36.455470"},{"id":78213,"parent_id":78211,"level":4,"area_code":"140481102201","zip_code":"47599","city_code":"0355","name":"\u7eed\u6751\u6751\u59d4\u4f1a","short_name":"\u7eed\u6751","merger_name":"\u5c71\u897f,\u957f\u6cbb,\u6f5e\u57ce,\u8f9b\u5b89,\u7eed\u6751","pinyin":"XuCun","lng":"113.338800","lat":"36.440460"},{"id":78214,"parent_id":78211,"level":4,"area_code":"140481102202","zip_code":"47599","city_code":"0355","name":"\u5357\u9a6c\u6751\u59d4\u4f1a","short_name":"\u5357\u9a6c","merger_name":"\u5c71\u897f,\u957f\u6cbb,\u6f5e\u57ce,\u8f9b\u5b89,\u5357\u9a6c","pinyin":"NanMa","lng":"113.305130","lat":"36.469540"},{"id":78215,"parent_id":78211,"level":4,"area_code":"140481102203","zip_code":"47599","city_code":"0355","name":"\u5b89\u4e50\u6751\u59d4\u4f1a","short_name":"\u5b89\u4e50","merger_name":"\u5c71\u897f,\u957f\u6cbb,\u6f5e\u57ce,\u8f9b\u5b89,\u5b89\u4e50","pinyin":"AnLe","lng":"113.429650","lat":"36.353180"},{"id":78216,"parent_id":78211,"level":4,"area_code":"140481102204","zip_code":"47599","city_code":"0355","name":"\u5e38\u6751\u6751\u59d4\u4f1a","short_name":"\u5e38\u6751","merger_name":"\u5c71\u897f,\u957f\u6cbb,\u6f5e\u57ce,\u8f9b\u5b89,\u5e38\u6751","pinyin":"ChangCun","lng":"113.167310","lat":"36.369560"},{"id":78217,"parent_id":78211,"level":4,"area_code":"140481102205","zip_code":"47599","city_code":"0355","name":"\u4e0a\u6751\u6751\u59d4\u4f1a","short_name":"\u4e0a\u6751","merger_name":"\u5c71\u897f,\u957f\u6cbb,\u6f5e\u57ce,\u8f9b\u5b89,\u4e0a\u6751","pinyin":"ShangCun","lng":"113.411602","lat":"36.308720"},{"id":78218,"parent_id":78211,"level":4,"area_code":"140481102206","zip_code":"47599","city_code":"0355","name":"\u7533\u5bb6\u5c71\u6751\u59d4\u4f1a","short_name":"\u7533\u5bb6\u5c71","merger_name":"\u5c71\u897f,\u957f\u6cbb,\u6f5e\u57ce,\u8f9b\u5b89,\u7533\u5bb6\u5c71","pinyin":"ShenJiaShan","lng":"113.308190","lat":"36.419500"},{"id":78219,"parent_id":78211,"level":4,"area_code":"140481102207","zip_code":"47599","city_code":"0355","name":"\u66f9\u5e84\u6751\u59d4\u4f1a","short_name":"\u66f9\u5e84","merger_name":"\u5c71\u897f,\u957f\u6cbb,\u6f5e\u57ce,\u8f9b\u5b89,\u66f9\u5e84","pinyin":"CaoZhuang","lng":"113.429650","lat":"36.353180"},{"id":78220,"parent_id":78211,"level":4,"area_code":"140481102208","zip_code":"47599","city_code":"0355","name":"\u7eed\u6751\u5cad\u6751\u59d4\u4f1a","short_name":"\u7eed\u6751\u5cad","merger_name":"\u5c71\u897f,\u957f\u6cbb,\u6f5e\u57ce,\u8f9b\u5b89,\u7eed\u6751\u5cad","pinyin":"XuCunLing","lng":"113.336500","lat":"36.430700"},{"id":78221,"parent_id":78211,"level":4,"area_code":"140481102209","zip_code":"47599","city_code":"0355","name":"\u4e95\u5cea\u6751\u59d4\u4f1a","short_name":"\u4e95\u5cea","merger_name":"\u5c71\u897f,\u957f\u6cbb,\u6f5e\u57ce,\u8f9b\u5b89,\u4e95\u5cea","pinyin":"JingYu","lng":"113.238010","lat":"36.445790"},{"id":78222,"parent_id":78211,"level":4,"area_code":"140481102210","zip_code":"47599","city_code":"0355","name":"\u5357\u9a6c\u5e84\u6751\u59d4\u4f1a","short_name":"\u5357\u9a6c\u5e84","merger_name":"\u5c71\u897f,\u957f\u6cbb,\u6f5e\u57ce,\u8f9b\u5b89,\u5357\u9a6c\u5e84","pinyin":"NanMaZhuang","lng":"113.274030","lat":"36.444490"},{"id":78223,"parent_id":78211,"level":4,"area_code":"140481102211","zip_code":"47599","city_code":"0355","name":"\u897f\u5761\u5e95\u6751\u59d4\u4f1a","short_name":"\u897f\u5761\u5e95","merger_name":"\u5c71\u897f,\u957f\u6cbb,\u6f5e\u57ce,\u8f9b\u5b89,\u897f\u5761\u5e95","pinyin":"XiPoDi","lng":"113.429650","lat":"36.353180"},{"id":78224,"parent_id":78211,"level":4,"area_code":"140481102212","zip_code":"47599","city_code":"0355","name":"\u4e94\u91cc\u5761\u6751\u59d4\u4f1a","short_name":"\u4e94\u91cc\u5761","merger_name":"\u5c71\u897f,\u957f\u6cbb,\u6f5e\u57ce,\u8f9b\u5b89,\u4e94\u91cc\u5761","pinyin":"WuLiPo","lng":"113.264820","lat":"36.428800"},{"id":78225,"parent_id":78211,"level":4,"area_code":"140481102213","zip_code":"47599","city_code":"0355","name":"\u897f\u6d41\u5317\u6751\u59d4\u4f1a","short_name":"\u897f\u6d41\u5317","merger_name":"\u5c71\u897f,\u957f\u6cbb,\u6f5e\u57ce,\u8f9b\u5b89,\u897f\u6d41\u5317","pinyin":"XiLiuBei","lng":"113.431640","lat":"36.352840"},{"id":78226,"parent_id":78211,"level":4,"area_code":"140481102214","zip_code":"47599","city_code":"0355","name":"\u897f\u6d41\u5357\u6751\u59d4\u4f1a","short_name":"\u897f\u6d41\u5357","merger_name":"\u5c71\u897f,\u957f\u6cbb,\u6f5e\u57ce,\u8f9b\u5b89,\u897f\u6d41\u5357","pinyin":"XiLiuNan","lng":"113.431640","lat":"36.352840"},{"id":78227,"parent_id":78211,"level":4,"area_code":"140481102215","zip_code":"47599","city_code":"0355","name":"\u5357\u6d41\u6751\u59d4\u4f1a","short_name":"\u5357\u6d41","merger_name":"\u5c71\u897f,\u957f\u6cbb,\u6f5e\u57ce,\u8f9b\u5b89,\u5357\u6d41","pinyin":"NanLiu","lng":"113.431640","lat":"36.352840"},{"id":78228,"parent_id":78211,"level":4,"area_code":"140481102216","zip_code":"47599","city_code":"0355","name":"\u6f5e\u6cb3\u6751\u59d4\u4f1a","short_name":"\u6f5e\u6cb3","merger_name":"\u5c71\u897f,\u957f\u6cbb,\u6f5e\u57ce,\u8f9b\u5b89,\u6f5e\u6cb3","pinyin":"LuHe","lng":"113.360160","lat":"36.432370"},{"id":78229,"parent_id":78211,"level":4,"area_code":"140481102217","zip_code":"47599","city_code":"0355","name":"\u6da7\u53e3\u6751\u59d4\u4f1a","short_name":"\u6da7\u53e3","merger_name":"\u5c71\u897f,\u957f\u6cbb,\u6f5e\u57ce,\u8f9b\u5b89,\u6da7\u53e3","pinyin":"JianKou","lng":"113.429650","lat":"36.353180"},{"id":78230,"parent_id":78211,"level":4,"area_code":"140481102218","zip_code":"47599","city_code":"0355","name":"\u659c\u5e95\u6751\u59d4\u4f1a","short_name":"\u659c\u5e95","merger_name":"\u5c71\u897f,\u957f\u6cbb,\u6f5e\u57ce,\u8f9b\u5b89,\u659c\u5e95","pinyin":"XieDi","lng":"113.429650","lat":"36.353180"},{"id":78231,"parent_id":78211,"level":4,"area_code":"140481102219","zip_code":"47599","city_code":"0355","name":"\u53e4\u57ce\u6751\u59d4\u4f1a","short_name":"\u53e4\u57ce","merger_name":"\u5c71\u897f,\u957f\u6cbb,\u6f5e\u57ce,\u8f9b\u5b89,\u53e4\u57ce","pinyin":"GuCheng","lng":"113.429650","lat":"36.353180"},{"id":78232,"parent_id":78211,"level":4,"area_code":"140481102220","zip_code":"47599","city_code":"0355","name":"\u8336\u68da\u6751\u59d4\u4f1a","short_name":"\u8336\u68da","merger_name":"\u5c71\u897f,\u957f\u6cbb,\u6f5e\u57ce,\u8f9b\u5b89,\u8336\u68da","pinyin":"ChaPeng","lng":"113.429650","lat":"36.353180"},{"id":78233,"parent_id":78100,"level":3,"area_code":"140481103000","zip_code":"47599","city_code":"0355","name":"\u7fdf\u5e97\u9547","short_name":"\u7fdf\u5e97","merger_name":"\u5c71\u897f,\u957f\u6cbb,\u6f5e\u57ce,\u7fdf\u5e97","pinyin":"DiDian","lng":"113.186150","lat":"36.285530"},{"id":78234,"parent_id":78233,"level":4,"area_code":"140481103200","zip_code":"47599","city_code":"0355","name":"\u5d07\u9053\u6751\u59d4\u4f1a","short_name":"\u5d07\u9053","merger_name":"\u5c71\u897f,\u957f\u6cbb,\u6f5e\u57ce,\u7fdf\u5e97,\u5d07\u9053","pinyin":"ChongDao","lng":"113.161620","lat":"36.299610"},{"id":78235,"parent_id":78233,"level":4,"area_code":"140481103201","zip_code":"47599","city_code":"0355","name":"\u8d3e\u6751\u6751\u59d4\u4f1a","short_name":"\u8d3e\u6751","merger_name":"\u5c71\u897f,\u957f\u6cbb,\u6f5e\u57ce,\u7fdf\u5e97,\u8d3e\u6751","pinyin":"JiaCun","lng":"113.170352","lat":"36.305093"},{"id":78236,"parent_id":78233,"level":4,"area_code":"140481103202","zip_code":"47599","city_code":"0355","name":"\u5357\u820d\u6751\u59d4\u4f1a","short_name":"\u5357\u820d","merger_name":"\u5c71\u897f,\u957f\u6cbb,\u6f5e\u57ce,\u7fdf\u5e97,\u5357\u820d","pinyin":"NanShe","lng":"113.150690","lat":"36.311700"},{"id":78237,"parent_id":78233,"level":4,"area_code":"140481103203","zip_code":"47599","city_code":"0355","name":"\u6cb3\u79fb\u6751\u59d4\u4f1a","short_name":"\u6cb3\u79fb","merger_name":"\u5c71\u897f,\u957f\u6cbb,\u6f5e\u57ce,\u7fdf\u5e97,\u6cb3\u79fb","pinyin":"HeYi","lng":"113.249087","lat":"36.339270"},{"id":78238,"parent_id":78233,"level":4,"area_code":"140481103204","zip_code":"47599","city_code":"0355","name":"\u90ed\u6751\u6751\u59d4\u4f1a","short_name":"\u90ed\u6751","merger_name":"\u5c71\u897f,\u957f\u6cbb,\u6f5e\u57ce,\u7fdf\u5e97,\u90ed\u6751","pinyin":"GuoCun","lng":"113.129620","lat":"36.263330"},{"id":78239,"parent_id":78233,"level":4,"area_code":"140481103205","zip_code":"47599","city_code":"0355","name":"\u5be8\u4e0a\u6751\u59d4\u4f1a","short_name":"\u5be8\u4e0a","merger_name":"\u5c71\u897f,\u957f\u6cbb,\u6f5e\u57ce,\u7fdf\u5e97,\u5be8\u4e0a","pinyin":"ZhaiShang","lng":"113.190960","lat":"36.288320"},{"id":78240,"parent_id":78233,"level":4,"area_code":"140481103206","zip_code":"47599","city_code":"0355","name":"\u7fdf\u5e97\u6751\u59d4\u4f1a","short_name":"\u7fdf\u5e97","merger_name":"\u5c71\u897f,\u957f\u6cbb,\u6f5e\u57ce,\u7fdf\u5e97,\u7fdf\u5e97","pinyin":"DiDian","lng":"113.190960","lat":"36.288320"},{"id":78241,"parent_id":78233,"level":4,"area_code":"140481103207","zip_code":"47599","city_code":"0355","name":"\u7f8c\u57ce\u6751\u59d4\u4f1a","short_name":"\u7f8c\u57ce","merger_name":"\u5c71\u897f,\u957f\u6cbb,\u6f5e\u57ce,\u7fdf\u5e97,\u7f8c\u57ce","pinyin":"QiangCheng","lng":"113.172650","lat":"36.275800"},{"id":78242,"parent_id":78233,"level":4,"area_code":"140481103208","zip_code":"47599","city_code":"0355","name":"\u897f\u5929\u8d21\u6751\u59d4\u4f1a","short_name":"\u897f\u5929\u8d21","merger_name":"\u5c71\u897f,\u957f\u6cbb,\u6f5e\u57ce,\u7fdf\u5e97,\u897f\u5929\u8d21","pinyin":"XiTianGong","lng":"113.147770","lat":"36.287590"},{"id":78243,"parent_id":78233,"level":4,"area_code":"140481103209","zip_code":"47599","city_code":"0355","name":"\u5357\u5929\u8d21\u6751\u59d4\u4f1a","short_name":"\u5357\u5929\u8d21","merger_name":"\u5c71\u897f,\u957f\u6cbb,\u6f5e\u57ce,\u7fdf\u5e97,\u5357\u5929\u8d21","pinyin":"NanTianGong","lng":"113.147743","lat":"36.263978"},{"id":78244,"parent_id":78233,"level":4,"area_code":"140481103210","zip_code":"47599","city_code":"0355","name":"\u5c0f\u5929\u8d21\u6751\u59d4\u4f1a","short_name":"\u5c0f\u5929\u8d21","merger_name":"\u5c71\u897f,\u957f\u6cbb,\u6f5e\u57ce,\u7fdf\u5e97,\u5c0f\u5929\u8d21","pinyin":"XiaoTianGong","lng":"113.161620","lat":"36.299610"},{"id":78245,"parent_id":78233,"level":4,"area_code":"140481103211","zip_code":"47599","city_code":"0355","name":"\u5317\u820d\u6751\u59d4\u4f1a","short_name":"\u5317\u820d","merger_name":"\u5c71\u897f,\u957f\u6cbb,\u6f5e\u57ce,\u7fdf\u5e97,\u5317\u820d","pinyin":"BeiShe","lng":"113.151890","lat":"36.316390"},{"id":78246,"parent_id":78233,"level":4,"area_code":"140481103212","zip_code":"47599","city_code":"0355","name":"\u4e1c\u5929\u8d21\u6751\u59d4\u4f1a","short_name":"\u4e1c\u5929\u8d21","merger_name":"\u5c71\u897f,\u957f\u6cbb,\u6f5e\u57ce,\u7fdf\u5e97,\u4e1c\u5929\u8d21","pinyin":"DongTianGong","lng":"113.158500","lat":"36.288280"},{"id":78247,"parent_id":78100,"level":3,"area_code":"140481200000","zip_code":"47599","city_code":"0355","name":"\u5408\u5ba4\u4e61","short_name":"\u5408\u5ba4","merger_name":"\u5c71\u897f,\u957f\u6cbb,\u6f5e\u57ce,\u5408\u5ba4","pinyin":"HeShi","lng":"113.254830","lat":"36.377460"},{"id":78248,"parent_id":78247,"level":4,"area_code":"140481200200","zip_code":"47599","city_code":"0355","name":"\u5408\u5ba4\u6751\u59d4\u4f1a","short_name":"\u5408\u5ba4","merger_name":"\u5c71\u897f,\u957f\u6cbb,\u6f5e\u57ce,\u5408\u5ba4,\u5408\u5ba4","pinyin":"HeShi","lng":"113.257400","lat":"36.382000"},{"id":78249,"parent_id":78247,"level":4,"area_code":"140481200201","zip_code":"47599","city_code":"0355","name":"\u9633\u5761\u6751\u59d4\u4f1a","short_name":"\u9633\u5761","merger_name":"\u5c71\u897f,\u957f\u6cbb,\u6f5e\u57ce,\u5408\u5ba4,\u9633\u5761","pinyin":"YangPo","lng":"113.257400","lat":"36.382000"},{"id":78250,"parent_id":78247,"level":4,"area_code":"140481200203","zip_code":"47599","city_code":"0355","name":"\u4e2d\u6751\u6751\u59d4\u4f1a","short_name":"\u4e2d\u6751","merger_name":"\u5c71\u897f,\u957f\u6cbb,\u6f5e\u57ce,\u5408\u5ba4,\u4e2d\u6751","pinyin":"ZhongCun","lng":"113.249087","lat":"36.339270"},{"id":78251,"parent_id":78247,"level":4,"area_code":"140481200204","zip_code":"47599","city_code":"0355","name":"\u5821\u5934\u6751\u59d4\u4f1a","short_name":"\u5821\u5934","merger_name":"\u5c71\u897f,\u957f\u6cbb,\u6f5e\u57ce,\u5408\u5ba4,\u5821\u5934","pinyin":"BaoTou","lng":"113.243380","lat":"36.346680"},{"id":78252,"parent_id":78247,"level":4,"area_code":"140481200205","zip_code":"47599","city_code":"0355","name":"\u5317\u5c71\u540e\u6751\u59d4\u4f1a","short_name":"\u5317\u5c71\u540e","merger_name":"\u5c71\u897f,\u957f\u6cbb,\u6f5e\u57ce,\u5408\u5ba4,\u5317\u5c71\u540e","pinyin":"BeiShanHou","lng":"112.936826","lat":"36.365453"},{"id":78253,"parent_id":78247,"level":4,"area_code":"140481200206","zip_code":"47599","city_code":"0355","name":"\u59dc\u5e84\u6751\u59d4\u4f1a","short_name":"\u59dc\u5e84","merger_name":"\u5c71\u897f,\u957f\u6cbb,\u6f5e\u57ce,\u5408\u5ba4,\u59dc\u5e84","pinyin":"JiangZhuang","lng":"113.255340","lat":"36.377430"},{"id":78254,"parent_id":78247,"level":4,"area_code":"140481200207","zip_code":"47599","city_code":"0355","name":"\u6cb3\u540e\u6751\u59d4\u4f1a","short_name":"\u6cb3\u540e","merger_name":"\u5c71\u897f,\u957f\u6cbb,\u6f5e\u57ce,\u5408\u5ba4,\u6cb3\u540e","pinyin":"HeHou","lng":"113.255490","lat":"36.367360"},{"id":78255,"parent_id":78247,"level":4,"area_code":"140481200208","zip_code":"47599","city_code":"0355","name":"\u6c9f\u6e83\u6751\u59d4\u4f1a","short_name":"\u6c9f\u6e83","merger_name":"\u5c71\u897f,\u957f\u6cbb,\u6f5e\u57ce,\u5408\u5ba4,\u6c9f\u6e83","pinyin":"GouKui","lng":"113.202170","lat":"36.358640"},{"id":78256,"parent_id":78247,"level":4,"area_code":"140481200209","zip_code":"47599","city_code":"0355","name":"\u4f59\u5e84\u6751\u59d4\u4f1a","short_name":"\u4f59\u5e84","merger_name":"\u5c71\u897f,\u957f\u6cbb,\u6f5e\u57ce,\u5408\u5ba4,\u4f59\u5e84","pinyin":"YuZhuang","lng":"113.249087","lat":"36.339270"},{"id":78257,"parent_id":78247,"level":4,"area_code":"140481200210","zip_code":"47599","city_code":"0355","name":"\u5317\u884c\u6751\u59d4\u4f1a","short_name":"\u5317\u884c","merger_name":"\u5c71\u897f,\u957f\u6cbb,\u6f5e\u57ce,\u5408\u5ba4,\u5317\u884c","pinyin":"BeiXing","lng":"113.230630","lat":"36.385810"},{"id":78258,"parent_id":78247,"level":4,"area_code":"140481200211","zip_code":"47599","city_code":"0355","name":"\u6865\u5317\u6751\u59d4\u4f1a","short_name":"\u6865\u5317","merger_name":"\u5c71\u897f,\u957f\u6cbb,\u6f5e\u57ce,\u5408\u5ba4,\u6865\u5317","pinyin":"QiaoBei","lng":"113.249087","lat":"36.339270"},{"id":78259,"parent_id":78247,"level":4,"area_code":"140481200212","zip_code":"47599","city_code":"0355","name":"\u4e1c\u5c71\u6751\u59d4\u4f1a","short_name":"\u4e1c\u5c71","merger_name":"\u5c71\u897f,\u957f\u6cbb,\u6f5e\u57ce,\u5408\u5ba4,\u4e1c\u5c71","pinyin":"DongShan","lng":"113.275460","lat":"36.409200"},{"id":78260,"parent_id":78247,"level":4,"area_code":"140481200213","zip_code":"47599","city_code":"0355","name":"\u71ac\u8111\u6751\u59d4\u4f1a","short_name":"\u71ac\u8111","merger_name":"\u5c71\u897f,\u957f\u6cbb,\u6f5e\u57ce,\u5408\u5ba4,\u71ac\u8111","pinyin":"AoNao","lng":"112.789340","lat":"36.248230"},{"id":78261,"parent_id":78247,"level":4,"area_code":"140481200214","zip_code":"47599","city_code":"0355","name":"\u897f\u5761\u6751\u59d4\u4f1a","short_name":"\u897f\u5761","merger_name":"\u5c71\u897f,\u957f\u6cbb,\u6f5e\u57ce,\u5408\u5ba4,\u897f\u5761","pinyin":"XiPo","lng":"113.183660","lat":"36.434130"},{"id":78262,"parent_id":78247,"level":4,"area_code":"140481200215","zip_code":"47599","city_code":"0355","name":"\u7533\u5e84\u6751\u59d4\u4f1a","short_name":"\u7533\u5e84","merger_name":"\u5c71\u897f,\u957f\u6cbb,\u6f5e\u57ce,\u5408\u5ba4,\u7533\u5e84","pinyin":"ShenZhuang","lng":"113.009680","lat":"36.432250"},{"id":78263,"parent_id":78247,"level":4,"area_code":"140481200216","zip_code":"47599","city_code":"0355","name":"\u8d64\u572a\u5012\u6751\u59d4\u4f1a","short_name":"\u8d64\u572a\u5012","merger_name":"\u5c71\u897f,\u957f\u6cbb,\u6f5e\u57ce,\u5408\u5ba4,\u8d64\u572a\u5012","pinyin":"ChiGeDao","lng":"113.215280","lat":"36.424660"},{"id":78264,"parent_id":78247,"level":4,"area_code":"140481200217","zip_code":"47599","city_code":"0355","name":"\u5112\u6559\u6751\u59d4\u4f1a","short_name":"\u5112\u6559","merger_name":"\u5c71\u897f,\u957f\u6cbb,\u6f5e\u57ce,\u5408\u5ba4,\u5112\u6559","pinyin":"RuJiao","lng":"113.263070","lat":"36.021400"},{"id":78265,"parent_id":78247,"level":4,"area_code":"140481200218","zip_code":"47599","city_code":"0355","name":"\u679c\u8857\u6751\u59d4\u4f1a","short_name":"\u679c\u8857","merger_name":"\u5c71\u897f,\u957f\u6cbb,\u6f5e\u57ce,\u5408\u5ba4,\u679c\u8857","pinyin":"GuoJie","lng":"113.216710","lat":"36.436460"},{"id":78266,"parent_id":78247,"level":4,"area_code":"140481200219","zip_code":"47599","city_code":"0355","name":"\u897f\u5cad\u6751\u59d4\u4f1a","short_name":"\u897f\u5cad","merger_name":"\u5c71\u897f,\u957f\u6cbb,\u6f5e\u57ce,\u5408\u5ba4,\u897f\u5cad","pinyin":"XiLing","lng":"113.255340","lat":"36.377430"},{"id":78267,"parent_id":78247,"level":4,"area_code":"140481200220","zip_code":"47599","city_code":"0355","name":"\u5f20\u5bb6\u6cb3\u6751\u59d4\u4f1a","short_name":"\u5f20\u5bb6\u6cb3","merger_name":"\u5c71\u897f,\u957f\u6cbb,\u6f5e\u57ce,\u5408\u5ba4,\u5f20\u5bb6\u6cb3","pinyin":"ZhangJiaHe","lng":"113.204200","lat":"36.395380"},{"id":78268,"parent_id":78247,"level":4,"area_code":"140481200221","zip_code":"47599","city_code":"0355","name":"\u738b\u90ed\u5e84\u6751\u59d4\u4f1a","short_name":"\u738b\u90ed\u5e84","merger_name":"\u5c71\u897f,\u957f\u6cbb,\u6f5e\u57ce,\u5408\u5ba4,\u738b\u90ed\u5e84","pinyin":"WangGuoZhuang","lng":"113.257400","lat":"36.382000"},{"id":78269,"parent_id":78100,"level":3,"area_code":"140481201000","zip_code":"47599","city_code":"0355","name":"\u9ec4\u725b\u8e44\u4e61","short_name":"\u9ec4\u725b\u8e44","merger_name":"\u5c71\u897f,\u957f\u6cbb,\u6f5e\u57ce,\u9ec4\u725b\u8e44","pinyin":"HuangNiuTi","lng":"113.369240","lat":"36.314090"},{"id":78270,"parent_id":78269,"level":4,"area_code":"140481201200","zip_code":"47599","city_code":"0355","name":"\u9ec4\u725b\u8e44\u6751\u59d4\u4f1a","short_name":"\u9ec4\u725b\u8e44","merger_name":"\u5c71\u897f,\u957f\u6cbb,\u6f5e\u57ce,\u9ec4\u725b\u8e44,\u9ec4\u725b\u8e44","pinyin":"HuangNiuTi","lng":"113.390590","lat":"36.316780"},{"id":78271,"parent_id":78269,"level":4,"area_code":"140481201201","zip_code":"47599","city_code":"0355","name":"\u738b\u5bb6\u5e84\u6751\u59d4\u4f1a","short_name":"\u738b\u5bb6\u5e84","merger_name":"\u5c71\u897f,\u957f\u6cbb,\u6f5e\u57ce,\u9ec4\u725b\u8e44,\u738b\u5bb6\u5e84","pinyin":"WangJiaZhuang","lng":"113.021160","lat":"36.514750"},{"id":78272,"parent_id":78269,"level":4,"area_code":"140481201202","zip_code":"47599","city_code":"0355","name":"\u5cad\u540e\u6751\u59d4\u4f1a","short_name":"\u5cad\u540e","merger_name":"\u5c71\u897f,\u957f\u6cbb,\u6f5e\u57ce,\u9ec4\u725b\u8e44,\u5cad\u540e","pinyin":"LingHou","lng":"113.342645","lat":"36.225999"},{"id":78273,"parent_id":78269,"level":4,"area_code":"140481201203","zip_code":"47599","city_code":"0355","name":"\u5357\u6843\u6751\u59d4\u4f1a","short_name":"\u5357\u6843","merger_name":"\u5c71\u897f,\u957f\u6cbb,\u6f5e\u57ce,\u9ec4\u725b\u8e44,\u5357\u6843","pinyin":"NanTao","lng":"113.390590","lat":"36.316780"},{"id":78274,"parent_id":78269,"level":4,"area_code":"140481201204","zip_code":"47599","city_code":"0355","name":"\u76d8\u77f3\u5934\u6751\u59d4\u4f1a","short_name":"\u76d8\u77f3\u5934","merger_name":"\u5c71\u897f,\u957f\u6cbb,\u6f5e\u57ce,\u9ec4\u725b\u8e44,\u76d8\u77f3\u5934","pinyin":"PanShiTou","lng":"112.936826","lat":"36.365453"},{"id":78275,"parent_id":78269,"level":4,"area_code":"140481201205","zip_code":"47599","city_code":"0355","name":"\u5e84\u5934\u6751\u59d4\u4f1a","short_name":"\u5e84\u5934","merger_name":"\u5c71\u897f,\u957f\u6cbb,\u6f5e\u57ce,\u9ec4\u725b\u8e44,\u5e84\u5934","pinyin":"ZhuangTou","lng":"113.369240","lat":"36.314090"},{"id":78276,"parent_id":78269,"level":4,"area_code":"140481201206","zip_code":"47599","city_code":"0355","name":"\u674e\u5e84\u6751\u59d4\u4f1a","short_name":"\u674e\u5e84","merger_name":"\u5c71\u897f,\u957f\u6cbb,\u6f5e\u57ce,\u9ec4\u725b\u8e44,\u674e\u5e84","pinyin":"LiZhuang","lng":"113.342645","lat":"36.225999"},{"id":78277,"parent_id":78269,"level":4,"area_code":"140481201207","zip_code":"47599","city_code":"0355","name":"\u8d75\u5e84\u6751\u59d4\u4f1a","short_name":"\u8d75\u5e84","merger_name":"\u5c71\u897f,\u957f\u6cbb,\u6f5e\u57ce,\u9ec4\u725b\u8e44,\u8d75\u5e84","pinyin":"ZhaoZhuang","lng":"113.342645","lat":"36.225999"},{"id":78278,"parent_id":78269,"level":4,"area_code":"140481201208","zip_code":"47599","city_code":"0355","name":"\u79e6\u5bb6\u5e84\u6751\u59d4\u4f1a","short_name":"\u79e6\u5bb6\u5e84","merger_name":"\u5c71\u897f,\u957f\u6cbb,\u6f5e\u57ce,\u9ec4\u725b\u8e44,\u79e6\u5bb6\u5e84","pinyin":"QinJiaZhuang","lng":"113.167310","lat":"36.369560"},{"id":78279,"parent_id":78269,"level":4,"area_code":"140481201209","zip_code":"47599","city_code":"0355","name":"\u4e0b\u9ec4\u6751\u59d4\u4f1a","short_name":"\u4e0b\u9ec4","merger_name":"\u5c71\u897f,\u957f\u6cbb,\u6f5e\u57ce,\u9ec4\u725b\u8e44,\u4e0b\u9ec4","pinyin":"XiaHuang","lng":"113.397210","lat":"36.346170"},{"id":78280,"parent_id":78269,"level":4,"area_code":"140481201210","zip_code":"47599","city_code":"0355","name":"\u4e0a\u9ec4\u6751\u59d4\u4f1a","short_name":"\u4e0a\u9ec4","merger_name":"\u5c71\u897f,\u957f\u6cbb,\u6f5e\u57ce,\u9ec4\u725b\u8e44,\u4e0a\u9ec4","pinyin":"ShangHuang","lng":"113.342645","lat":"36.225999"},{"id":78281,"parent_id":78269,"level":4,"area_code":"140481201211","zip_code":"47599","city_code":"0355","name":"\u4e0b\u6cb3\u6751\u59d4\u4f1a","short_name":"\u4e0b\u6cb3","merger_name":"\u5c71\u897f,\u957f\u6cbb,\u6f5e\u57ce,\u9ec4\u725b\u8e44,\u4e0b\u6cb3","pinyin":"XiaHe","lng":"112.677930","lat":"36.626990"},{"id":78282,"parent_id":78269,"level":4,"area_code":"140481201212","zip_code":"47599","city_code":"0355","name":"\u9752\u53e3\u6751\u59d4\u4f1a","short_name":"\u9752\u53e3","merger_name":"\u5c71\u897f,\u957f\u6cbb,\u6f5e\u57ce,\u9ec4\u725b\u8e44,\u9752\u53e3","pinyin":"QingKou","lng":"113.369100","lat":"36.337630"},{"id":78283,"parent_id":78269,"level":4,"area_code":"140481201213","zip_code":"47599","city_code":"0355","name":"\u571f\u811a\u6751\u59d4\u4f1a","short_name":"\u571f\u811a","merger_name":"\u5c71\u897f,\u957f\u6cbb,\u6f5e\u57ce,\u9ec4\u725b\u8e44,\u571f\u811a","pinyin":"TuJiao","lng":"113.397210","lat":"36.346170"},{"id":78284,"parent_id":78269,"level":4,"area_code":"140481201214","zip_code":"47599","city_code":"0355","name":"\u5357\u82b1\u5c71\u6751\u59d4\u4f1a","short_name":"\u5357\u82b1\u5c71","merger_name":"\u5c71\u897f,\u957f\u6cbb,\u6f5e\u57ce,\u9ec4\u725b\u8e44,\u5357\u82b1\u5c71","pinyin":"NanHuaShan","lng":"113.263070","lat":"36.021400"},{"id":78285,"parent_id":78269,"level":4,"area_code":"140481201215","zip_code":"47599","city_code":"0355","name":"\u6f66\u6cb3\u5934\u6751\u59d4\u4f1a","short_name":"\u6f66\u6cb3\u5934","merger_name":"\u5c71\u897f,\u957f\u6cbb,\u6f5e\u57ce,\u9ec4\u725b\u8e44,\u6f66\u6cb3\u5934","pinyin":"LaoHeTou","lng":"113.369240","lat":"36.314090"},{"id":78286,"parent_id":78269,"level":4,"area_code":"140481201216","zip_code":"47599","city_code":"0355","name":"\u8f9b\u5b89\u6751\u59d4\u4f1a","short_name":"\u8f9b\u5b89","merger_name":"\u5c71\u897f,\u957f\u6cbb,\u6f5e\u57ce,\u9ec4\u725b\u8e44,\u8f9b\u5b89","pinyin":"XinAn","lng":"113.431640","lat":"36.352840"},{"id":78287,"parent_id":78269,"level":4,"area_code":"140481201217","zip_code":"47599","city_code":"0355","name":"\u5357\u5e84\u6751\u59d4\u4f1a","short_name":"\u5357\u5e84","merger_name":"\u5c71\u897f,\u957f\u6cbb,\u6f5e\u57ce,\u9ec4\u725b\u8e44,\u5357\u5e84","pinyin":"NanZhuang","lng":"113.369240","lat":"36.314090"},{"id":78288,"parent_id":78269,"level":4,"area_code":"140481201218","zip_code":"47599","city_code":"0355","name":"\u6f66\u6cb3\u6751\u59d4\u4f1a","short_name":"\u6f66\u6cb3","merger_name":"\u5c71\u897f,\u957f\u6cbb,\u6f5e\u57ce,\u9ec4\u725b\u8e44,\u6f66\u6cb3","pinyin":"LaoHe","lng":"113.397210","lat":"36.346170"},{"id":78289,"parent_id":78269,"level":4,"area_code":"140481201219","zip_code":"47599","city_code":"0355","name":"\u5b89\u9675\u5bfa\u6751\u59d4\u4f1a","short_name":"\u5b89\u9675\u5bfa","merger_name":"\u5c71\u897f,\u957f\u6cbb,\u6f5e\u57ce,\u9ec4\u725b\u8e44,\u5b89\u9675\u5bfa","pinyin":"AnLingSi","lng":"113.390590","lat":"36.316780"},{"id":78290,"parent_id":78100,"level":3,"area_code":"140481202000","zip_code":"47599","city_code":"0355","name":"\u53f2\u56de\u4e61","short_name":"\u53f2\u56de","merger_name":"\u5c71\u897f,\u957f\u6cbb,\u6f5e\u57ce,\u53f2\u56de","pinyin":"ShiHui","lng":"113.150921","lat":"36.349964"},{"id":78291,"parent_id":78290,"level":4,"area_code":"140481202200","zip_code":"47599","city_code":"0355","name":"\u95eb\u674e\u5e84\u6751\u59d4\u4f1a","short_name":"\u95eb\u674e\u5e84","merger_name":"\u5c71\u897f,\u957f\u6cbb,\u6f5e\u57ce,\u53f2\u56de,\u95eb\u674e\u5e84","pinyin":"YanLiZhuang","lng":"113.167310","lat":"36.369560"},{"id":78292,"parent_id":78290,"level":4,"area_code":"140481202201","zip_code":"47599","city_code":"0355","name":"\u66f2\u91cc\u6751\u59d4\u4f1a","short_name":"\u66f2\u91cc","merger_name":"\u5c71\u897f,\u957f\u6cbb,\u6f5e\u57ce,\u53f2\u56de,\u66f2\u91cc","pinyin":"QuLi","lng":"113.118060","lat":"36.377160"},{"id":78293,"parent_id":78290,"level":4,"area_code":"140481202202","zip_code":"47599","city_code":"0355","name":"\u9a6c\u6c60\u6c9f\u6751\u59d4\u4f1a","short_name":"\u9a6c\u6c60\u6c9f","merger_name":"\u5c71\u897f,\u957f\u6cbb,\u6f5e\u57ce,\u53f2\u56de,\u9a6c\u6c60\u6c9f","pinyin":"MaChiGou","lng":"113.108290","lat":"36.378000"},{"id":78294,"parent_id":78290,"level":4,"area_code":"140481202203","zip_code":"47599","city_code":"0355","name":"\u4efb\u6cb3\u6751\u59d4\u4f1a","short_name":"\u4efb\u6cb3","merger_name":"\u5c71\u897f,\u957f\u6cbb,\u6f5e\u57ce,\u53f2\u56de,\u4efb\u6cb3","pinyin":"RenHe","lng":"113.263070","lat":"36.021400"},{"id":78295,"parent_id":78290,"level":4,"area_code":"140481202204","zip_code":"47599","city_code":"0355","name":"\u9ec4\u6f33\u6751\u59d4\u4f1a","short_name":"\u9ec4\u6f33","merger_name":"\u5c71\u897f,\u957f\u6cbb,\u6f5e\u57ce,\u53f2\u56de,\u9ec4\u6f33","pinyin":"HuangZhang","lng":"113.151770","lat":"36.352220"},{"id":78296,"parent_id":78290,"level":4,"area_code":"140481202205","zip_code":"47599","city_code":"0355","name":"\u5c0f\u5e38\u6751\u59d4\u4f1a","short_name":"\u5c0f\u5e38","merger_name":"\u5c71\u897f,\u957f\u6cbb,\u6f5e\u57ce,\u53f2\u56de,\u5c0f\u5e38","pinyin":"XiaoChang","lng":"113.249087","lat":"36.339270"},{"id":78297,"parent_id":78290,"level":4,"area_code":"140481202206","zip_code":"47599","city_code":"0355","name":"\u5927\u5e38\u6751\u59d4\u4f1a","short_name":"\u5927\u5e38","merger_name":"\u5c71\u897f,\u957f\u6cbb,\u6f5e\u57ce,\u53f2\u56de,\u5927\u5e38","pinyin":"DaChang","lng":"113.249087","lat":"36.339270"},{"id":78298,"parent_id":78290,"level":4,"area_code":"140481202207","zip_code":"47599","city_code":"0355","name":"\u6865\u6c9f\u6751\u59d4\u4f1a","short_name":"\u6865\u6c9f","merger_name":"\u5c71\u897f,\u957f\u6cbb,\u6f5e\u57ce,\u53f2\u56de,\u6865\u6c9f","pinyin":"QiaoGou","lng":"113.066339","lat":"36.012208"},{"id":78299,"parent_id":78290,"level":4,"area_code":"140481202208","zip_code":"47599","city_code":"0355","name":"\u6768\u5bb6\u5e84\u6751\u59d4\u4f1a","short_name":"\u6768\u5bb6\u5e84","merger_name":"\u5c71\u897f,\u957f\u6cbb,\u6f5e\u57ce,\u53f2\u56de,\u6768\u5bb6\u5e84","pinyin":"YangJiaZhuang","lng":"113.127610","lat":"36.399030"},{"id":78300,"parent_id":78290,"level":4,"area_code":"140481202209","zip_code":"47599","city_code":"0355","name":"\u767d\u5bb6\u5e84\u6751\u59d4\u4f1a","short_name":"\u767d\u5bb6\u5e84","merger_name":"\u5c71\u897f,\u957f\u6cbb,\u6f5e\u57ce,\u53f2\u56de,\u767d\u5bb6\u5e84","pinyin":"BaiJiaZhuang","lng":"113.184048","lat":"36.345760"},{"id":78301,"parent_id":78290,"level":4,"area_code":"140481202210","zip_code":"47599","city_code":"0355","name":"\u674e\u5bb6\u6c9f\u6751\u59d4\u4f1a","short_name":"\u674e\u5bb6\u6c9f","merger_name":"\u5c71\u897f,\u957f\u6cbb,\u6f5e\u57ce,\u53f2\u56de,\u674e\u5bb6\u6c9f","pinyin":"LiJiaGou","lng":"112.690950","lat":"37.069220"},{"id":78302,"parent_id":78290,"level":4,"area_code":"140481202211","zip_code":"47599","city_code":"0355","name":"\u5411\u9633\u5761\u6751\u59d4\u4f1a","short_name":"\u5411\u9633\u5761","merger_name":"\u5c71\u897f,\u957f\u6cbb,\u6f5e\u57ce,\u53f2\u56de,\u5411\u9633\u5761","pinyin":"XiangYangPo","lng":"113.151810","lat":"36.372400"},{"id":78303,"parent_id":78290,"level":4,"area_code":"140481202212","zip_code":"47599","city_code":"0355","name":"\u738b\u91cc\u5821\u6751\u59d4\u4f1a","short_name":"\u738b\u91cc\u5821","merger_name":"\u5c71\u897f,\u957f\u6cbb,\u6f5e\u57ce,\u53f2\u56de,\u738b\u91cc\u5821","pinyin":"WangLiBao","lng":"113.125812","lat":"36.391786"},{"id":78304,"parent_id":78290,"level":4,"area_code":"140481202213","zip_code":"47599","city_code":"0355","name":"\u53f2\u56de\u6751\u59d4\u4f1a","short_name":"\u53f2\u56de","merger_name":"\u5c71\u897f,\u957f\u6cbb,\u6f5e\u57ce,\u53f2\u56de,\u53f2\u56de","pinyin":"ShiHui","lng":"113.151770","lat":"36.352220"},{"id":78305,"parent_id":78290,"level":4,"area_code":"140481202214","zip_code":"47599","city_code":"0355","name":"\u90ed\u5bb6\u5821\u6751\u59d4\u4f1a","short_name":"\u90ed\u5bb6\u5821","merger_name":"\u5c71\u897f,\u957f\u6cbb,\u6f5e\u57ce,\u53f2\u56de,\u90ed\u5bb6\u5821","pinyin":"GuoJiaBao","lng":"113.134672","lat":"36.341976"},{"id":78306,"parent_id":78290,"level":4,"area_code":"140481202215","zip_code":"47599","city_code":"0355","name":"\u68a8\u6811\u51f9\u6751\u59d4\u4f1a","short_name":"\u68a8\u6811\u51f9","merger_name":"\u5c71\u897f,\u957f\u6cbb,\u6f5e\u57ce,\u53f2\u56de,\u68a8\u6811\u51f9","pinyin":"LiShuAo","lng":"112.936826","lat":"36.365453"},{"id":78307,"parent_id":78290,"level":4,"area_code":"140481202216","zip_code":"47599","city_code":"0355","name":"\u5c71\u53e3\u6751\u59d4\u4f1a","short_name":"\u5c71\u53e3","merger_name":"\u5c71\u897f,\u957f\u6cbb,\u6f5e\u57ce,\u53f2\u56de,\u5c71\u53e3","pinyin":"ShanKou","lng":"113.150921","lat":"36.349964"},