[{"id":169001,"parent_id":168985,"level":4,"area_code":"310117002020","zip_code":"201614","city_code":"021","name":"\u4e94\u4e30\u82d1\u5c45\u59d4\u4f1a","short_name":"\u4e94\u4e30\u82d1","merger_name":"\u4e0a\u6d77,\u677e\u6c5f,\u6c38\u4e30,\u4e94\u4e30\u82d1","pinyin":"WuFengYuan","lng":"121.211210","lat":"31.018890"},{"id":169002,"parent_id":168985,"level":4,"area_code":"310117002021","zip_code":"201614","city_code":"021","name":"\u5174\u65e5\u5bb6\u56ed\u5c45\u59d4\u4f1a","short_name":"\u5174\u65e5\u5bb6\u56ed","merger_name":"\u4e0a\u6d77,\u677e\u6c5f,\u6c38\u4e30,\u5174\u65e5\u5bb6\u56ed","pinyin":"XingRiJiaYuan","lng":"121.214310","lat":"31.006560"},{"id":169003,"parent_id":168985,"level":4,"area_code":"310117002022","zip_code":"201614","city_code":"021","name":"\u534e\u4ead\u8363\u56ed\u5c45\u59d4\u4f1a","short_name":"\u534e\u4ead\u8363\u56ed","merger_name":"\u4e0a\u6d77,\u677e\u6c5f,\u6c38\u4e30,\u534e\u4ead\u8363\u56ed","pinyin":"HuaTingRongYuan","lng":"121.200180","lat":"31.019280"},{"id":169004,"parent_id":168985,"level":4,"area_code":"310117002023","zip_code":"201614","city_code":"021","name":"\u767e\u5408\u82d1\u5c45\u59d4\u4f1a","short_name":"\u767e\u5408\u82d1","merger_name":"\u4e0a\u6d77,\u677e\u6c5f,\u6c38\u4e30,\u767e\u5408\u82d1","pinyin":"BaiHeYuan","lng":"121.190750","lat":"31.012290"},{"id":169005,"parent_id":168985,"level":4,"area_code":"310117002024","zip_code":"201614","city_code":"021","name":"\u65b0\u7406\u60f3\u5bb6\u56ed\u5c45\u59d4\u4f1a","short_name":"\u65b0\u7406\u60f3\u5bb6\u56ed","merger_name":"\u4e0a\u6d77,\u677e\u6c5f,\u6c38\u4e30,\u65b0\u7406\u60f3\u5bb6\u56ed","pinyin":"XinLiXiangJiaYuan","lng":"121.493420","lat":"31.265813"},{"id":169006,"parent_id":168985,"level":4,"area_code":"310117002025","zip_code":"201614","city_code":"021","name":"\u91d1\u8272\u534e\u4ead\u5c45\u59d4\u4f1a","short_name":"\u91d1\u8272\u534e\u4ead","merger_name":"\u4e0a\u6d77,\u677e\u6c5f,\u6c38\u4e30,\u91d1\u8272\u534e\u4ead","pinyin":"JinSeHuaTing","lng":"121.189520","lat":"31.013930"},{"id":169007,"parent_id":168957,"level":3,"area_code":"310117003000","zip_code":"201600","city_code":"021","name":"\u65b9\u677e\u8857\u9053","short_name":"\u65b9\u677e","merger_name":"\u4e0a\u6d77,\u677e\u6c5f,\u65b9\u677e","pinyin":"FangSong","lng":"121.222640","lat":"31.025940"},{"id":169008,"parent_id":169007,"level":4,"area_code":"310117003001","zip_code":"201620","city_code":"021","name":"\u653e\u751f\u6c60\u5c45\u59d4\u4f1a","short_name":"\u653e\u751f\u6c60","merger_name":"\u4e0a\u6d77,\u677e\u6c5f,\u65b9\u677e,\u653e\u751f\u6c60","pinyin":"FangShengChi","lng":"121.216010","lat":"31.022980"},{"id":169009,"parent_id":169007,"level":4,"area_code":"310117003002","zip_code":"201601","city_code":"021","name":"\u6c5f\u8679\u5c45\u59d4\u4f1a","short_name":"\u6c5f\u8679","merger_name":"\u4e0a\u6d77,\u677e\u6c5f,\u65b9\u677e,\u6c5f\u8679","pinyin":"JiangHong","lng":"121.226020","lat":"31.023410"},{"id":169010,"parent_id":169007,"level":4,"area_code":"310117003003","zip_code":"201620","city_code":"021","name":"\u5929\u4e50\u5c45\u59d4\u4f1a","short_name":"\u5929\u4e50","merger_name":"\u4e0a\u6d77,\u677e\u6c5f,\u65b9\u677e,\u5929\u4e50","pinyin":"TianLe","lng":"121.237540","lat":"31.022380"},{"id":169011,"parent_id":169007,"level":4,"area_code":"310117003005","zip_code":"201601","city_code":"021","name":"\u6c5f\u4e2d\u5c45\u59d4\u4f1a","short_name":"\u6c5f\u4e2d","merger_name":"\u4e0a\u6d77,\u677e\u6c5f,\u65b9\u677e,\u6c5f\u4e2d","pinyin":"JiangZhong","lng":"121.226690","lat":"31.026270"},{"id":169012,"parent_id":169007,"level":4,"area_code":"310117003006","zip_code":"201600","city_code":"021","name":"\u7eff\u5ead\u82d1\u5c45\u59d4\u4f1a","short_name":"\u7eff\u5ead\u82d1","merger_name":"\u4e0a\u6d77,\u677e\u6c5f,\u65b9\u677e,\u7eff\u5ead\u82d1","pinyin":"LvTingYuan","lng":"121.219350","lat":"31.029130"},{"id":169013,"parent_id":169007,"level":4,"area_code":"310117003007","zip_code":"201601","city_code":"021","name":"\u7965\u548c\u5c45\u59d4\u4f1a","short_name":"\u7965\u548c","merger_name":"\u4e0a\u6d77,\u677e\u6c5f,\u65b9\u677e,\u7965\u548c","pinyin":"XiangHe","lng":"121.235690","lat":"31.026580"},{"id":169014,"parent_id":169007,"level":4,"area_code":"310117003008","zip_code":"201600","city_code":"021","name":"\u5170\u6865\u5c45\u59d4\u4f1a","short_name":"\u5170\u6865","merger_name":"\u4e0a\u6d77,\u677e\u6c5f,\u65b9\u677e,\u5170\u6865","pinyin":"LanQiao","lng":"121.209130","lat":"31.025650"},{"id":169015,"parent_id":169007,"level":4,"area_code":"310117003009","zip_code":"201600","city_code":"021","name":"\u9f0e\u4fe1\u5c45\u59d4\u4f1a","short_name":"\u9f0e\u4fe1","merger_name":"\u4e0a\u6d77,\u677e\u6c5f,\u65b9\u677e,\u9f0e\u4fe1","pinyin":"DingXin","lng":"121.234130","lat":"31.029920"},{"id":169016,"parent_id":169007,"level":4,"area_code":"310117003010","zip_code":"201601","city_code":"021","name":"\u5f00\u5143\u5c0f\u533a\u5c45\u59d4\u4f1a","short_name":"\u5f00\u5143\u5c0f\u533a","merger_name":"\u4e0a\u6d77,\u677e\u6c5f,\u65b9\u677e,\u5f00\u5143\u5c0f\u533a","pinyin":"KaiYuanXiaoQu","lng":"121.219800","lat":"31.038980"},{"id":169017,"parent_id":169007,"level":4,"area_code":"310117003011","zip_code":"201609","city_code":"021","name":"\u4e16\u7eaa\u5c0f\u533a\u5c45\u59d4\u4f1a","short_name":"\u4e16\u7eaa\u5c0f\u533a","merger_name":"\u4e0a\u6d77,\u677e\u6c5f,\u65b9\u677e,\u4e16\u7eaa\u5c0f\u533a","pinyin":"ShiJiXiaoQu","lng":"121.205310","lat":"31.041050"},{"id":169018,"parent_id":169007,"level":4,"area_code":"310117003012","zip_code":"201600","city_code":"021","name":"\u6a80\u9999\u5c0f\u533a\u5c45\u59d4\u4f1a","short_name":"\u6a80\u9999\u5c0f\u533a","merger_name":"\u4e0a\u6d77,\u677e\u6c5f,\u65b9\u677e,\u6a80\u9999\u5c0f\u533a","pinyin":"TanXiangXiaoQu","lng":"121.214100","lat":"31.039180"},{"id":169019,"parent_id":169007,"level":4,"area_code":"310117003016","zip_code":"201606","city_code":"021","name":"\u5efa\u8bbe\u5c45\u59d4\u4f1a","short_name":"\u5efa\u8bbe","merger_name":"\u4e0a\u6d77,\u677e\u6c5f,\u65b9\u677e,\u5efa\u8bbe","pinyin":"JianShe","lng":"121.236960","lat":"31.030570"},{"id":169020,"parent_id":169007,"level":4,"area_code":"310117003018","zip_code":"201600","city_code":"021","name":"\u6e56\u7554\u5929\u5730\u5c45\u59d4\u4f1a","short_name":"\u6e56\u7554\u5929\u5730","merger_name":"\u4e0a\u6d77,\u677e\u6c5f,\u65b9\u677e,\u6e56\u7554\u5929\u5730","pinyin":"HuPanTianDi","lng":"121.212650","lat":"31.033610"},{"id":169021,"parent_id":169007,"level":4,"area_code":"310117003019","zip_code":"201600","city_code":"021","name":"\u7d2b\u4e1c\u65b0\u82d1\u5c45\u59d4\u4f1a","short_name":"\u7d2b\u4e1c\u65b0\u82d1","merger_name":"\u4e0a\u6d77,\u677e\u6c5f,\u65b9\u677e,\u7d2b\u4e1c\u65b0\u82d1","pinyin":"ZiDongXinYuan","lng":"121.208430","lat":"31.041750"},{"id":169022,"parent_id":169007,"level":4,"area_code":"310117003020","zip_code":"201600","city_code":"021","name":"\u540d\u5ead\u82b1\u82d1\u5c45\u59d4\u4f1a","short_name":"\u540d\u5ead\u82b1\u82d1","merger_name":"\u4e0a\u6d77,\u677e\u6c5f,\u65b9\u677e,\u540d\u5ead\u82b1\u82d1","pinyin":"MingTingHuaYuan","lng":"121.233020","lat":"31.037280"},{"id":169023,"parent_id":169007,"level":4,"area_code":"310117003023","zip_code":"201615","city_code":"021","name":"\u6d77\u5fb7\u540d\u56ed\u5c45\u59d4\u4f1a","short_name":"\u6d77\u5fb7\u540d\u56ed","merger_name":"\u4e0a\u6d77,\u677e\u6c5f,\u65b9\u677e,\u6d77\u5fb7\u540d\u56ed","pinyin":"HaiDeMingYuan","lng":"121.200380","lat":"31.027810"},{"id":169024,"parent_id":169007,"level":4,"area_code":"310117003024","zip_code":"201600","city_code":"021","name":"\u4e45\u9633\u6587\u534e\u5c45\u59d4\u4f1a","short_name":"\u4e45\u9633\u6587\u534e","merger_name":"\u4e0a\u6d77,\u677e\u6c5f,\u65b9\u677e,\u4e45\u9633\u6587\u534e","pinyin":"JiuYangWenHua","lng":"121.193810","lat":"31.042800"},{"id":169025,"parent_id":169007,"level":4,"area_code":"310117003025","zip_code":"201612","city_code":"021","name":"\u6da6\u5cf0\u82d1\u5c45\u59d4\u4f1a","short_name":"\u6da6\u5cf0\u82d1","merger_name":"\u4e0a\u6d77,\u677e\u6c5f,\u65b9\u677e,\u6da6\u5cf0\u82d1","pinyin":"RunFengYuan","lng":"121.189290","lat":"31.023640"},{"id":169026,"parent_id":169007,"level":4,"area_code":"310117003026","zip_code":"201600","city_code":"021","name":"\u660c\u946b\u82b1\u56ed\u5c45\u59d4\u4f1a","short_name":"\u660c\u946b\u82b1\u56ed","merger_name":"\u4e0a\u6d77,\u677e\u6c5f,\u65b9\u677e,\u660c\u946b\u82b1\u56ed","pinyin":"ChangXinHuaYuan","lng":"121.201700","lat":"31.022350"},{"id":169027,"parent_id":169007,"level":4,"area_code":"310117003027","zip_code":"201600","city_code":"021","name":"\u6cf0\u5514\u58eb\u5c0f\u9547\u5c45\u59d4\u4f1a","short_name":"\u6cf0\u5514\u58eb\u5c0f\u9547","merger_name":"\u4e0a\u6d77,\u677e\u6c5f,\u65b9\u677e,\u6cf0\u5514\u58eb\u5c0f\u9547","pinyin":"TaiWuShiXiaoZhen","lng":"121.196660","lat":"31.033230"},{"id":169028,"parent_id":169007,"level":4,"area_code":"310117003028","zip_code":"201607","city_code":"021","name":"\u539f\u91ce\u5c45\u59d4\u4f1a","short_name":"\u539f\u91ce","merger_name":"\u4e0a\u6d77,\u677e\u6c5f,\u65b9\u677e,\u539f\u91ce","pinyin":"YuanYe","lng":"121.190190","lat":"31.027980"},{"id":169029,"parent_id":169007,"level":4,"area_code":"310117003032","zip_code":"201600","city_code":"021","name":"\u5b89\u742a\u82b1\u82d1\u5c45\u59d4\u4f1a","short_name":"\u5b89\u742a\u82b1\u82d1","merger_name":"\u4e0a\u6d77,\u677e\u6c5f,\u65b9\u677e,\u5b89\u742a\u82b1\u82d1","pinyin":"AnQiHuaYuan","lng":"121.237740","lat":"31.040600"},{"id":169030,"parent_id":169007,"level":4,"area_code":"310117003033","zip_code":"201611","city_code":"021","name":"\u534e\u4ead\u5c45\u59d4\u4f1a","short_name":"\u534e\u4ead","merger_name":"\u4e0a\u6d77,\u677e\u6c5f,\u65b9\u677e,\u534e\u4ead","pinyin":"HuaTing","lng":"121.190190","lat":"31.027980"},{"id":169031,"parent_id":169007,"level":4,"area_code":"310117003034","zip_code":"201600","city_code":"021","name":"\u73e0\u6c5f\u65b0\u57ce\u5c45\u59d4\u4f1a","short_name":"\u73e0\u6c5f\u65b0\u57ce","merger_name":"\u4e0a\u6d77,\u677e\u6c5f,\u65b9\u677e,\u73e0\u6c5f\u65b0\u57ce","pinyin":"ZhuJiangXinCheng","lng":"121.214310","lat":"31.006560"},{"id":169032,"parent_id":169007,"level":4,"area_code":"310117003035","zip_code":"201615","city_code":"021","name":"\u6708\u4eae\u6cb3\u5c45\u59d4\u4f1a","short_name":"\u6708\u4eae\u6cb3","merger_name":"\u4e0a\u6d77,\u677e\u6c5f,\u65b9\u677e,\u6708\u4eae\u6cb3","pinyin":"YueLiangHe","lng":"121.188820","lat":"31.034980"},{"id":169033,"parent_id":169007,"level":4,"area_code":"310117003036","zip_code":"201600","city_code":"021","name":"\u4e0a\u6cf0\u7ec5\u82d1\u5c45\u59d4\u4f1a","short_name":"\u4e0a\u6cf0\u7ec5\u82d1","merger_name":"\u4e0a\u6d77,\u677e\u6c5f,\u65b9\u677e,\u4e0a\u6cf0\u7ec5\u82d1","pinyin":"ShangTaiShenYuan","lng":"121.188940","lat":"31.035020"},{"id":169034,"parent_id":169007,"level":4,"area_code":"310117003037","zip_code":"201613","city_code":"021","name":"\u9526\u6842\u56ed\u5c45\u59d4\u4f1a","short_name":"\u9526\u6842\u56ed","merger_name":"\u4e0a\u6d77,\u677e\u6c5f,\u65b9\u677e,\u9526\u6842\u56ed","pinyin":"JinGuiYuan","lng":"121.217250","lat":"31.035360"},{"id":169035,"parent_id":169007,"level":4,"area_code":"310117003038","zip_code":"201600","city_code":"021","name":"\u82f1\u90e1\u522b\u82d1\u5c45\u59d4\u4f1a","short_name":"\u82f1\u90e1\u522b\u82d1","merger_name":"\u4e0a\u6d77,\u677e\u6c5f,\u65b9\u677e,\u82f1\u90e1\u522b\u82d1","pinyin":"YingJunBieYuan","lng":"121.181430","lat":"31.030920"},{"id":169036,"parent_id":169007,"level":4,"area_code":"310117003039","zip_code":"201601","city_code":"021","name":"\u4e1c\u9f0e\u5c45\u59d4\u4f1a\uff08\u7b79\uff09","short_name":"\u4e1c\u9f0e","merger_name":"\u4e0a\u6d77,\u677e\u6c5f,\u65b9\u677e,\u4e1c\u9f0e","pinyin":"DongDing","lng":"121.226690","lat":"31.026270"},{"id":169037,"parent_id":168957,"level":3,"area_code":"310117004000","zip_code":"201600","city_code":"021","name":"\u4e2d\u5c71\u8857\u9053","short_name":"\u4e2d\u5c71","merger_name":"\u4e0a\u6d77,\u677e\u6c5f,\u4e2d\u5c71","pinyin":"ZhongShan","lng":"121.245470","lat":"31.035660"},{"id":169038,"parent_id":169037,"level":4,"area_code":"310117004001","zip_code":"201600","city_code":"021","name":"\u8338\u6885\u5c45\u59d4\u4f1a","short_name":"\u8338\u6885","merger_name":"\u4e0a\u6d77,\u677e\u6c5f,\u4e2d\u5c71,\u8338\u6885","pinyin":"RongMei","lng":"121.247640","lat":"31.030690"},{"id":169039,"parent_id":169037,"level":4,"area_code":"310117004002","zip_code":"201613","city_code":"021","name":"\u5317\u95e8\u5c45\u59d4\u4f1a","short_name":"\u5317\u95e8","merger_name":"\u4e0a\u6d77,\u677e\u6c5f,\u4e2d\u5c71,\u5317\u95e8","pinyin":"BeiMen","lng":"121.242280","lat":"31.015070"},{"id":169040,"parent_id":169037,"level":4,"area_code":"310117004003","zip_code":"201600","city_code":"021","name":"\u767d\u4e91\u5c45\u59d4\u4f1a","short_name":"\u767d\u4e91","merger_name":"\u4e0a\u6d77,\u677e\u6c5f,\u4e2d\u5c71,\u767d\u4e91","pinyin":"BaiYun","lng":"121.254110","lat":"31.005700"},{"id":169041,"parent_id":169037,"level":4,"area_code":"310117004005","zip_code":"201600","city_code":"021","name":"\u5e73\u6865\u5c45\u59d4\u4f1a","short_name":"\u5e73\u6865","merger_name":"\u4e0a\u6d77,\u677e\u6c5f,\u4e2d\u5c71,\u5e73\u6865","pinyin":"PingQiao","lng":"121.252660","lat":"31.008550"},{"id":169042,"parent_id":169037,"level":4,"area_code":"310117004006","zip_code":"201613","city_code":"021","name":"\u4e1c\u5916\u5c45\u59d4\u4f1a","short_name":"\u4e1c\u5916","merger_name":"\u4e0a\u6d77,\u677e\u6c5f,\u4e2d\u5c71,\u4e1c\u5916","pinyin":"DongWai","lng":"121.256390","lat":"31.003850"},{"id":169043,"parent_id":169037,"level":4,"area_code":"310117004008","zip_code":"201600","city_code":"021","name":"\u65b9\u4e1c\u5c45\u59d4\u4f1a","short_name":"\u65b9\u4e1c","merger_name":"\u4e0a\u6d77,\u677e\u6c5f,\u4e2d\u5c71,\u65b9\u4e1c","pinyin":"FangDong","lng":"121.249720","lat":"31.004570"},{"id":169044,"parent_id":169037,"level":4,"area_code":"310117004009","zip_code":"201620","city_code":"021","name":"\u65b9\u897f\u5c45\u59d4\u4f1a","short_name":"\u65b9\u897f","merger_name":"\u4e0a\u6d77,\u677e\u6c5f,\u4e2d\u5c71,\u65b9\u897f","pinyin":"FangXi","lng":"121.247070","lat":"31.005460"},{"id":169045,"parent_id":169037,"level":4,"area_code":"310117004011","zip_code":"201611","city_code":"021","name":"\u5357\u95e8\u5c45\u59d4\u4f1a","short_name":"\u5357\u95e8","merger_name":"\u4e0a\u6d77,\u677e\u6c5f,\u4e2d\u5c71,\u5357\u95e8","pinyin":"NanMen","lng":"121.247590","lat":"31.001910"},{"id":169046,"parent_id":169037,"level":4,"area_code":"310117004012","zip_code":"201613","city_code":"021","name":"\u4e94\u9f99\u5c45\u59d4\u4f1a","short_name":"\u4e94\u9f99","merger_name":"\u4e0a\u6d77,\u677e\u6c5f,\u4e2d\u5c71,\u4e94\u9f99","pinyin":"WuLong","lng":"121.244270","lat":"31.036820"},{"id":169047,"parent_id":169037,"level":4,"area_code":"310117004013","zip_code":"201619","city_code":"021","name":"\u82b1\u6865\u5c45\u59d4\u4f1a","short_name":"\u82b1\u6865","merger_name":"\u4e0a\u6d77,\u677e\u6c5f,\u4e2d\u5c71,\u82b1\u6865","pinyin":"HuaQiao","lng":"121.258580","lat":"31.063410"},{"id":169048,"parent_id":169037,"level":4,"area_code":"310117004014","zip_code":"201600","city_code":"021","name":"\u4e2d\u5c71\u82d1\u5c45\u59d4\u4f1a","short_name":"\u4e2d\u5c71\u82d1","merger_name":"\u4e0a\u6d77,\u677e\u6c5f,\u4e2d\u5c71,\u4e2d\u5c71\u82d1","pinyin":"ZhongShanYuan","lng":"121.258190","lat":"31.058940"},{"id":169049,"parent_id":169037,"level":4,"area_code":"310117004015","zip_code":"201613","city_code":"021","name":"\u84dd\u5929\u4e00\u6751\u5c45\u59d4\u4f1a","short_name":"\u84dd\u5929\u4e00\u6751","merger_name":"\u4e0a\u6d77,\u677e\u6c5f,\u4e2d\u5c71,\u84dd\u5929\u4e00\u6751","pinyin":"LanTianYiCun","lng":"121.253440","lat":"31.015690"},{"id":169050,"parent_id":169037,"level":4,"area_code":"310117004016","zip_code":"201613","city_code":"021","name":"\u84dd\u5929\u4e8c\u6751\u5c45\u59d4\u4f1a","short_name":"\u84dd\u5929\u4e8c\u6751","merger_name":"\u4e0a\u6d77,\u677e\u6c5f,\u4e2d\u5c71,\u84dd\u5929\u4e8c\u6751","pinyin":"LanTianErCun","lng":"121.253290","lat":"31.011600"},{"id":169051,"parent_id":169037,"level":4,"area_code":"310117004018","zip_code":"201613","city_code":"021","name":"\u84dd\u5929\u56db\u6751\u5c45\u59d4\u4f1a","short_name":"\u84dd\u5929\u56db\u6751","merger_name":"\u4e0a\u6d77,\u677e\u6c5f,\u4e2d\u5c71,\u84dd\u5929\u56db\u6751","pinyin":"LanTianSiCun","lng":"121.258029","lat":"31.014161"},{"id":169052,"parent_id":169037,"level":4,"area_code":"310117004019","zip_code":"201613","city_code":"021","name":"\u84dd\u5929\u4e94\u6751\u5c45\u59d4\u4f1a","short_name":"\u84dd\u5929\u4e94\u6751","merger_name":"\u4e0a\u6d77,\u677e\u6c5f,\u4e2d\u5c71,\u84dd\u5929\u4e94\u6751","pinyin":"LanTianWuCun","lng":"121.258830","lat":"31.015820"},{"id":169053,"parent_id":169037,"level":4,"area_code":"310117004020","zip_code":"201600","city_code":"021","name":"\u83b1\u987f\u5c45\u59d4\u4f1a","short_name":"\u83b1\u987f","merger_name":"\u4e0a\u6d77,\u677e\u6c5f,\u4e2d\u5c71,\u83b1\u987f","pinyin":"LaiDun","lng":"121.245980","lat":"31.065740"},{"id":169054,"parent_id":169037,"level":4,"area_code":"310117004021","zip_code":"201600","city_code":"021","name":"\u9ec4\u6e21\u6d5c\u5c45\u59d4\u4f1a","short_name":"\u9ec4\u6e21\u6d5c","merger_name":"\u4e0a\u6d77,\u677e\u6c5f,\u4e2d\u5c71,\u9ec4\u6e21\u6d5c","pinyin":"HuangDuBang","lng":"121.241540","lat":"31.059910"},{"id":169055,"parent_id":169037,"level":4,"area_code":"310117004022","zip_code":"201600","city_code":"021","name":"\u540c\u6d4e\u96c5\u7b51\u5c45\u59d4\u4f1a","short_name":"\u540c\u6d4e\u96c5\u7b51","merger_name":"\u4e0a\u6d77,\u677e\u6c5f,\u4e2d\u5c71,\u540c\u6d4e\u96c5\u7b51","pinyin":"TongJiYaZhu","lng":"121.248090","lat":"31.012550"},{"id":169056,"parent_id":168957,"level":3,"area_code":"310117005000","zip_code":"201620","city_code":"021","name":"\u5e7f\u5bcc\u6797\u8857\u9053","short_name":"\u5e7f\u5bcc\u6797","merger_name":"\u4e0a\u6d77,\u677e\u6c5f,\u5e7f\u5bcc\u6797","pinyin":"GuangFuLin","lng":"121.222480","lat":"31.066070"},{"id":169057,"parent_id":169056,"level":4,"area_code":"310117005001","zip_code":"201620","city_code":"021","name":"\u677e\u4e91\u6c34\u82d1\u5c45\u59d4\u4f1a","short_name":"\u677e\u4e91\u6c34\u82d1","merger_name":"\u4e0a\u6d77,\u677e\u6c5f,\u5e7f\u5bcc\u6797,\u677e\u4e91\u6c34\u82d1","pinyin":"SongYunShuiYuan","lng":"121.236260","lat":"31.044320"},{"id":169058,"parent_id":169056,"level":4,"area_code":"310117005002","zip_code":"201620","city_code":"021","name":"\u897f\u5b50\u6e7e\u5c45\u59d4\u4f1a","short_name":"\u897f\u5b50\u6e7e","merger_name":"\u4e0a\u6d77,\u677e\u6c5f,\u5e7f\u5bcc\u6797,\u897f\u5b50\u6e7e","pinyin":"XiZiWan","lng":"121.236390","lat":"31.058560"},{"id":169059,"parent_id":169056,"level":4,"area_code":"310117005003","zip_code":"201620","city_code":"021","name":"\u5fa1\u4e0a\u6d77\u5c45\u59d4\u4f1a","short_name":"\u5fa1\u4e0a\u6d77","merger_name":"\u4e0a\u6d77,\u677e\u6c5f,\u5e7f\u5bcc\u6797,\u5fa1\u4e0a\u6d77","pinyin":"YuShangHai","lng":"121.548390","lat":"31.198110"},{"id":169060,"parent_id":169056,"level":4,"area_code":"310117005004","zip_code":"201620","city_code":"021","name":"\u661f\u8fb0\u56ed\u5c45\u59d4\u4f1a","short_name":"\u661f\u8fb0\u56ed","merger_name":"\u4e0a\u6d77,\u677e\u6c5f,\u5e7f\u5bcc\u6797,\u661f\u8fb0\u56ed","pinyin":"XingChenYuan","lng":"121.230950","lat":"31.050070"},{"id":169061,"parent_id":169056,"level":4,"area_code":"310117005005","zip_code":"201620","city_code":"021","name":"\u4e09\u6e58\u56db\u5b63\u5c45\u59d4\u4f1a","short_name":"\u4e09\u6e58\u56db\u5b63","merger_name":"\u4e0a\u6d77,\u677e\u6c5f,\u5e7f\u5bcc\u6797,\u4e09\u6e58\u56db\u5b63","pinyin":"SanXiangSiJi","lng":"121.231000","lat":"31.055220"},{"id":169062,"parent_id":169056,"level":4,"area_code":"310117005006","zip_code":"201620","city_code":"021","name":"\u6587\u7fd4\u540d\u82d1\u5c45\u59d4\u4f1a","short_name":"\u6587\u7fd4\u540d\u82d1","merger_name":"\u4e0a\u6d77,\u677e\u6c5f,\u5e7f\u5bcc\u6797,\u6587\u7fd4\u540d\u82d1","pinyin":"WenXiangMingYuan","lng":"121.192290","lat":"31.044200"},{"id":169063,"parent_id":169056,"level":4,"area_code":"310117005007","zip_code":"201620","city_code":"021","name":"\u8537\u8587\u5c45\u59d4\u4f1a","short_name":"\u8537\u8587","merger_name":"\u4e0a\u6d77,\u677e\u6c5f,\u5e7f\u5bcc\u6797,\u8537\u8587","pinyin":"QiangWei","lng":"121.229770","lat":"31.062710"},{"id":169064,"parent_id":169056,"level":4,"area_code":"310117005008","zip_code":"201620","city_code":"021","name":"\u5c71\u6c34\u666f\u82d1\u5c45\u59d4\u4f1a","short_name":"\u5c71\u6c34\u666f\u82d1","merger_name":"\u4e0a\u6d77,\u677e\u6c5f,\u5e7f\u5bcc\u6797,\u5c71\u6c34\u666f\u82d1","pinyin":"ShanShuiJingYuan","lng":"121.201986","lat":"31.060397"},{"id":169065,"parent_id":169056,"level":4,"area_code":"310117005009","zip_code":"201620","city_code":"021","name":"\u4e01\u9999\u5c45\u59d4\u4f1a","short_name":"\u4e01\u9999","merger_name":"\u4e0a\u6d77,\u677e\u6c5f,\u5e7f\u5bcc\u6797,\u4e01\u9999","pinyin":"DingXiang","lng":"121.185730","lat":"31.043620"},{"id":169066,"parent_id":169056,"level":4,"area_code":"310117005010","zip_code":"201620","city_code":"021","name":"\u8c37\u6c34\u6e7e\u5c45\u59d4\u4f1a","short_name":"\u8c37\u6c34\u6e7e","merger_name":"\u4e0a\u6d77,\u677e\u6c5f,\u5e7f\u5bcc\u6797,\u8c37\u6c34\u6e7e","pinyin":"GuShuiWan","lng":"121.224810","lat":"31.056010"},{"id":169067,"parent_id":169056,"level":4,"area_code":"310117005011","zip_code":"201620","city_code":"021","name":"\u4e0a\u6797\u5c45\u59d4\u4f1a","short_name":"\u4e0a\u6797","merger_name":"\u4e0a\u6d77,\u677e\u6c5f,\u5e7f\u5bcc\u6797,\u4e0a\u6797","pinyin":"ShangLin","lng":"121.192170","lat":"31.058330"},{"id":169068,"parent_id":169056,"level":4,"area_code":"310117005012","zip_code":"201620","city_code":"021","name":"\u94f6\u6e90\u5c45\u59d4\u4f1a","short_name":"\u94f6\u6e90","merger_name":"\u4e0a\u6d77,\u677e\u6c5f,\u5e7f\u5bcc\u6797,\u94f6\u6e90","pinyin":"YinYuan","lng":"121.201950","lat":"31.060320"},{"id":169069,"parent_id":169056,"level":4,"area_code":"310117005013","zip_code":"201620","city_code":"021","name":"\u8fb0\u5bcc\u5c45\u59d4\u4f1a","short_name":"\u8fb0\u5bcc","merger_name":"\u4e0a\u6d77,\u677e\u6c5f,\u5e7f\u5bcc\u6797,\u8fb0\u5bcc","pinyin":"ChenFu","lng":"121.229770","lat":"31.062710"},{"id":169070,"parent_id":169056,"level":4,"area_code":"310117005014","zip_code":"201620","city_code":"021","name":"\u65b0\u9648\u5bb6\u6751\u793e\u533a\u7ba1\u7406\u7ad9","short_name":"\u65b0\u9648\u5bb6\u6751\u7ba1\u7406\u7ad9","merger_name":"\u4e0a\u6d77,\u677e\u6c5f,\u5e7f\u5bcc\u6797,\u65b0\u9648\u5bb6\u6751\u7ba1\u7406\u7ad9","pinyin":"XinChenJiaCunGuanLiZhan","lng":"121.175970","lat":"31.059380"},{"id":169071,"parent_id":169056,"level":4,"area_code":"310117005015","zip_code":"201620","city_code":"021","name":"\u9996\u521b\u9526\u60a6\u5c45\u59d4\u4f1a\uff08\u7b79\uff09","short_name":"\u9996\u521b\u9526\u60a6","merger_name":"\u4e0a\u6d77,\u677e\u6c5f,\u5e7f\u5bcc\u6797,\u9996\u521b\u9526\u60a6","pinyin":"ShouChuangJinYue","lng":"121.192170","lat":"31.058330"},{"id":169072,"parent_id":169056,"level":4,"area_code":"310117005016","zip_code":"201620","city_code":"021","name":"\u9759\u89c2\u7fe0\u56ed\u5c45\u59d4\u4f1a\uff08\u7b79\uff09","short_name":"\u9759\u89c2\u7fe0\u56ed","merger_name":"\u4e0a\u6d77,\u677e\u6c5f,\u5e7f\u5bcc\u6797,\u9759\u89c2\u7fe0\u56ed","pinyin":"JingGuanCuiYuan","lng":"121.469037","lat":"31.264431"},{"id":169073,"parent_id":168957,"level":3,"area_code":"310117006000","zip_code":"201615","city_code":"021","name":"\u4e5d\u91cc\u4ead\u8857\u9053","short_name":"\u4e5d\u91cc\u4ead","merger_name":"\u4e0a\u6d77,\u677e\u6c5f,\u4e5d\u91cc\u4ead","pinyin":"JiuLiTing","lng":"121.311030","lat":"31.141340"},{"id":169074,"parent_id":169073,"level":4,"area_code":"310117006001","zip_code":"201615","city_code":"021","name":"\u4e5d\u91cc\u4ead\u793e\u533a\u5c45\u59d4\u4f1a","short_name":"\u4e5d\u91cc\u4ead","merger_name":"\u4e0a\u6d77,\u677e\u6c5f,\u4e5d\u91cc\u4ead,\u4e5d\u91cc\u4ead","pinyin":"JiuLiTing","lng":"121.303580","lat":"31.141530"},{"id":169075,"parent_id":169073,"level":4,"area_code":"310117006002","zip_code":"201615","city_code":"021","name":"\u4ead\u6c47\u793e\u533a\u5c45\u59d4\u4f1a","short_name":"\u4ead\u6c47","merger_name":"\u4e0a\u6d77,\u677e\u6c5f,\u4e5d\u91cc\u4ead,\u4ead\u6c47","pinyin":"TingHui","lng":"121.315360","lat":"31.140650"},{"id":169076,"parent_id":169073,"level":4,"area_code":"310117006003","zip_code":"201615","city_code":"021","name":"\u77e5\u96c5\u6c47\u793e\u533a\u5c45\u59d4\u4f1a","short_name":"\u77e5\u96c5\u6c47","merger_name":"\u4e0a\u6d77,\u677e\u6c5f,\u4e5d\u91cc\u4ead,\u77e5\u96c5\u6c47","pinyin":"ZhiYaHui","lng":"121.317080","lat":"31.152960"},{"id":169077,"parent_id":169073,"level":4,"area_code":"310117006004","zip_code":"201615","city_code":"021","name":"\u5357\u5965\u56ed\u793e\u533a\u5c45\u59d4\u4f1a","short_name":"\u5357\u5965\u56ed","merger_name":"\u4e0a\u6d77,\u677e\u6c5f,\u4e5d\u91cc\u4ead,\u5357\u5965\u56ed","pinyin":"NanAoYuan","lng":"121.303580","lat":"31.141530"},{"id":169078,"parent_id":169073,"level":4,"area_code":"310117006005","zip_code":"201615","city_code":"021","name":"\u5317\u5965\u56ed\u793e\u533a\u5c45\u59d4\u4f1a","short_name":"\u5317\u5965\u56ed","merger_name":"\u4e0a\u6d77,\u677e\u6c5f,\u4e5d\u91cc\u4ead,\u5317\u5965\u56ed","pinyin":"BeiAoYuan","lng":"121.303580","lat":"31.141530"},{"id":169079,"parent_id":169073,"level":4,"area_code":"310117006006","zip_code":"201615","city_code":"021","name":"\u4e2d\u5927\u793e\u533a\u5c45\u59d4\u4f1a","short_name":"\u4e2d\u5927","merger_name":"\u4e0a\u6d77,\u677e\u6c5f,\u4e5d\u91cc\u4ead,\u4e2d\u5927","pinyin":"ZhongDa","lng":"121.312162","lat":"31.135934"},{"id":169080,"parent_id":169073,"level":4,"area_code":"310117006007","zip_code":"201615","city_code":"021","name":"\u4ead\u5317\u793e\u533a\u5c45\u59d4\u4f1a","short_name":"\u4ead\u5317","merger_name":"\u4e0a\u6d77,\u677e\u6c5f,\u4e5d\u91cc\u4ead,\u4ead\u5317","pinyin":"TingBei","lng":"121.312170","lat":"31.155800"},{"id":169081,"parent_id":169073,"level":4,"area_code":"310117006008","zip_code":"201615","city_code":"021","name":"\u6717\u5ead\u793e\u533a\u5c45\u59d4\u4f1a","short_name":"\u6717\u5ead","merger_name":"\u4e0a\u6d77,\u677e\u6c5f,\u4e5d\u91cc\u4ead,\u6717\u5ead","pinyin":"LangTing","lng":"121.298490","lat":"31.147400"},{"id":169082,"parent_id":169073,"level":4,"area_code":"310117006009","zip_code":"201615","city_code":"021","name":"\u6d9e\u5bc5\u793e\u533a\u5c45\u59d4\u4f1a","short_name":"\u6d9e\u5bc5","merger_name":"\u4e0a\u6d77,\u677e\u6c5f,\u4e5d\u91cc\u4ead,\u6d9e\u5bc5","pinyin":"LaiYin","lng":"121.303580","lat":"31.141530"},{"id":169083,"parent_id":169073,"level":4,"area_code":"310117006010","zip_code":"201615","city_code":"021","name":"\u4ead\u8c0a\u793e\u533a\u5c45\u59d4\u4f1a","short_name":"\u4ead\u8c0a","merger_name":"\u4e0a\u6d77,\u677e\u6c5f,\u4e5d\u91cc\u4ead,\u4ead\u8c0a","pinyin":"TingYi","lng":"121.305880","lat":"31.144460"},{"id":169084,"parent_id":169073,"level":4,"area_code":"310117006011","zip_code":"201615","city_code":"021","name":"\u7eff\u5ead\u5c1a\u57ce\u793e\u533a\u5c45\u59d4\u4f1a","short_name":"\u7eff\u5ead\u5c1a\u57ce","merger_name":"\u4e0a\u6d77,\u677e\u6c5f,\u4e5d\u91cc\u4ead,\u7eff\u5ead\u5c1a\u57ce","pinyin":"LvTingShangCheng","lng":"121.312070","lat":"31.145080"},{"id":169085,"parent_id":169073,"level":4,"area_code":"310117006012","zip_code":"201615","city_code":"021","name":"\u4e5d\u57ce\u6e56\u6ee8\u793e\u533a\u5c45\u59d4\u4f1a","short_name":"\u4e5d\u57ce\u6e56\u6ee8","merger_name":"\u4e0a\u6d77,\u677e\u6c5f,\u4e5d\u91cc\u4ead,\u4e5d\u57ce\u6e56\u6ee8","pinyin":"JiuChengHuBin","lng":"121.319030","lat":"31.149320"},{"id":169086,"parent_id":169073,"level":4,"area_code":"310117006013","zip_code":"201615","city_code":"021","name":"\u8d1d\u5c1a\u6e7e\u793e\u533a\u5c45\u59d4\u4f1a","short_name":"\u8d1d\u5c1a\u6e7e","merger_name":"\u4e0a\u6d77,\u677e\u6c5f,\u4e5d\u91cc\u4ead,\u8d1d\u5c1a\u6e7e","pinyin":"BeiShangWan","lng":"121.318310","lat":"31.144380"},{"id":169087,"parent_id":169073,"level":4,"area_code":"310117006014","zip_code":"201615","city_code":"021","name":"\u767e\u4e3d\u82d1\u5c45\u59d4\u4f1a","short_name":"\u767e\u4e3d\u82d1","merger_name":"\u4e0a\u6d77,\u677e\u6c5f,\u4e5d\u91cc\u4ead,\u767e\u4e3d\u82d1","pinyin":"BaiLiYuan","lng":"121.304820","lat":"31.150880"},{"id":169088,"parent_id":169073,"level":4,"area_code":"310117006015","zip_code":"201615","city_code":"021","name":"\u4e94\u6d32\u5c45\u59d4\u4f1a","short_name":"\u4e94\u6d32","merger_name":"\u4e0a\u6d77,\u677e\u6c5f,\u4e5d\u91cc\u4ead,\u4e94\u6d32","pinyin":"WuZhou","lng":"121.312490","lat":"31.150160"},{"id":169089,"parent_id":168957,"level":3,"area_code":"310117102000","zip_code":"201601","city_code":"021","name":"\u6cd7\u6cfe\u9547","short_name":"\u6cd7\u6cfe","merger_name":"\u4e0a\u6d77,\u677e\u6c5f,\u6cd7\u6cfe","pinyin":"SiJing","lng":"121.270050","lat":"31.111620"},{"id":169090,"parent_id":169089,"level":4,"area_code":"310117102001","zip_code":"201601","city_code":"021","name":"\u5f20\u6cfe\u5c45\u59d4\u4f1a","short_name":"\u5f20\u6cfe","merger_name":"\u4e0a\u6d77,\u677e\u6c5f,\u6cd7\u6cfe,\u5f20\u6cfe","pinyin":"ZhangJing","lng":"121.281250","lat":"31.116490"},{"id":169091,"parent_id":169089,"level":4,"area_code":"310117102002","zip_code":"201601","city_code":"021","name":"\u4e2d\u897f\u5c45\u59d4\u4f1a","short_name":"\u4e2d\u897f","merger_name":"\u4e0a\u6d77,\u677e\u6c5f,\u6cd7\u6cfe,\u4e2d\u897f","pinyin":"ZhongXi","lng":"121.278470","lat":"31.112420"},{"id":169092,"parent_id":169089,"level":4,"area_code":"310117102003","zip_code":"201601","city_code":"021","name":"\u6c5f\u5ddd\u8def\u5c45\u59d4\u4f1a","short_name":"\u6c5f\u5ddd\u8def","merger_name":"\u4e0a\u6d77,\u677e\u6c5f,\u6cd7\u6cfe,\u6c5f\u5ddd\u8def","pinyin":"JiangChuanLu","lng":"121.273320","lat":"31.112940"},{"id":169093,"parent_id":169089,"level":4,"area_code":"310117102004","zip_code":"201601","city_code":"021","name":"\u65b0\u5357\u5c45\u59d4\u4f1a","short_name":"\u65b0\u5357","merger_name":"\u4e0a\u6d77,\u677e\u6c5f,\u6cd7\u6cfe,\u65b0\u5357","pinyin":"XinNan","lng":"121.281070","lat":"31.117880"},{"id":169094,"parent_id":169089,"level":4,"area_code":"310117102005","zip_code":"201601","city_code":"021","name":"\u6da6\u548c\u82d1\u5c45\u59d4\u4f1a","short_name":"\u6da6\u548c\u82d1","merger_name":"\u4e0a\u6d77,\u677e\u6c5f,\u6cd7\u6cfe,\u6da6\u548c\u82d1","pinyin":"RunHeYuan","lng":"121.262558","lat":"31.111571"},{"id":169095,"parent_id":169089,"level":4,"area_code":"310117102006","zip_code":"201601","city_code":"021","name":"\u6da6\u6c5f\u5c0f\u533a\u5c45\u59d4\u4f1a","short_name":"\u6da6\u6c5f\u5c0f\u533a","merger_name":"\u4e0a\u6d77,\u677e\u6c5f,\u6cd7\u6cfe,\u6da6\u6c5f\u5c0f\u533a","pinyin":"RunJiangXiaoQu","lng":"121.257070","lat":"31.106200"},{"id":169096,"parent_id":169089,"level":4,"area_code":"310117102007","zip_code":"201612","city_code":"021","name":"\u4e3d\u6c34\u5c45\u59d4\u4f1a","short_name":"\u4e3d\u6c34","merger_name":"\u4e0a\u6d77,\u677e\u6c5f,\u6cd7\u6cfe,\u4e3d\u6c34","pinyin":"LiShui","lng":"121.287950","lat":"31.113730"},{"id":169097,"parent_id":169089,"level":4,"area_code":"310117102008","zip_code":"201601","city_code":"021","name":"\u65b0\u51ef\u4e00\u6751\u5c45\u59d4\u4f1a","short_name":"\u65b0\u51ef\u4e00\u6751","merger_name":"\u4e0a\u6d77,\u677e\u6c5f,\u6cd7\u6cfe,\u65b0\u51ef\u4e00\u6751","pinyin":"XinKaiYiCun","lng":"121.236090","lat":"31.107610"},{"id":169098,"parent_id":169089,"level":4,"area_code":"310117102009","zip_code":"201601","city_code":"021","name":"\u897f\u5357\u5c45\u59d4\u4f1a","short_name":"\u897f\u5357","merger_name":"\u4e0a\u6d77,\u677e\u6c5f,\u6cd7\u6cfe,\u897f\u5357","pinyin":"XiNan","lng":"121.268640","lat":"31.117190"},{"id":169099,"parent_id":169089,"level":4,"area_code":"310117102010","zip_code":"201601","city_code":"021","name":"\u666f\u6e2f\u5c45\u59d4\u4f1a","short_name":"\u666f\u6e2f","merger_name":"\u4e0a\u6d77,\u677e\u6c5f,\u6cd7\u6cfe,\u666f\u6e2f","pinyin":"JingGang","lng":"121.263310","lat":"31.107220"},{"id":169100,"parent_id":169089,"level":4,"area_code":"310117102011","zip_code":"201601","city_code":"021","name":"\u666f\u56ed\u5c45\u59d4\u4f1a","short_name":"\u666f\u56ed","merger_name":"\u4e0a\u6d77,\u677e\u6c5f,\u6cd7\u6cfe,\u666f\u56ed","pinyin":"JingYuan","lng":"121.268651","lat":"31.124944"},{"id":169101,"parent_id":169089,"level":4,"area_code":"310117102012","zip_code":"201601","city_code":"021","name":"\u65b0\u51ef\u4e8c\u6751\u5c45\u59d4\u4f1a","short_name":"\u65b0\u51ef\u4e8c\u6751","merger_name":"\u4e0a\u6d77,\u677e\u6c5f,\u6cd7\u6cfe,\u65b0\u51ef\u4e8c\u6751","pinyin":"XinKaiErCun","lng":"121.237040","lat":"31.104880"},{"id":169102,"parent_id":169089,"level":4,"area_code":"310117102013","zip_code":"201601","city_code":"021","name":"\u5f20\u65bd\u5c45\u59d4\u4f1a","short_name":"\u5f20\u65bd","merger_name":"\u4e0a\u6d77,\u677e\u6c5f,\u6cd7\u6cfe,\u5f20\u65bd","pinyin":"ZhangShi","lng":"121.296120","lat":"31.104800"},{"id":169103,"parent_id":169089,"level":4,"area_code":"310117102014","zip_code":"201601","city_code":"021","name":"\u53f6\u661f\u5c45\u59d4\u4f1a","short_name":"\u53f6\u661f","merger_name":"\u4e0a\u6d77,\u677e\u6c5f,\u6cd7\u6cfe,\u53f6\u661f","pinyin":"YeXing","lng":"121.286870","lat":"31.117360"},{"id":169104,"parent_id":169089,"level":4,"area_code":"310117102015","zip_code":"201601","city_code":"021","name":"\u8d75\u975e\u6cfe\u5c45\u59d4\u4f1a","short_name":"\u8d75\u975e\u6cfe","merger_name":"\u4e0a\u6d77,\u677e\u6c5f,\u6cd7\u6cfe,\u8d75\u975e\u6cfe","pinyin":"ZhaoFeiJing","lng":"121.276190","lat":"31.117650"},{"id":169105,"parent_id":169089,"level":4,"area_code":"310117102016","zip_code":"201601","city_code":"021","name":"\u6253\u94c1\u6865\u5c45\u59d4\u4f1a","short_name":"\u6253\u94c1\u6865","merger_name":"\u4e0a\u6d77,\u677e\u6c5f,\u6cd7\u6cfe,\u6253\u94c1\u6865","pinyin":"DaTieQiao","lng":"121.273430","lat":"31.131770"},{"id":169106,"parent_id":169089,"level":4,"area_code":"310117102017","zip_code":"201601","city_code":"021","name":"\u6a2a\u6e2f\u5c45\u59d4\u4f1a","short_name":"\u6a2a\u6e2f","merger_name":"\u4e0a\u6d77,\u677e\u6c5f,\u6cd7\u6cfe,\u6a2a\u6e2f","pinyin":"HengGang","lng":"121.252354","lat":"31.104742"},{"id":169107,"parent_id":169089,"level":4,"area_code":"310117102018","zip_code":"201601","city_code":"021","name":"\u7965\u6cfd\u5c45\u59d4\u4f1a","short_name":"\u7965\u6cfd","merger_name":"\u4e0a\u6d77,\u677e\u6c5f,\u6cd7\u6cfe,\u7965\u6cfd","pinyin":"XiangZe","lng":"121.253437","lat":"31.121054"},{"id":169108,"parent_id":169089,"level":4,"area_code":"310117102019","zip_code":"201601","city_code":"021","name":"\u9752\u677e\u5c45\u59d4\u4f1a","short_name":"\u9752\u677e","merger_name":"\u4e0a\u6d77,\u677e\u6c5f,\u6cd7\u6cfe,\u9752\u677e","pinyin":"QingSong","lng":"121.236590","lat":"31.107430"},{"id":169109,"parent_id":169089,"level":4,"area_code":"310117102020","zip_code":"201601","city_code":"021","name":"\u53e4\u697c\u5c45\u59d4\u4f1a","short_name":"\u53e4\u697c","merger_name":"\u4e0a\u6d77,\u677e\u6c5f,\u6cd7\u6cfe,\u53e4\u697c","pinyin":"GuLou","lng":"121.267161","lat":"31.106218"},{"id":169110,"parent_id":169089,"level":4,"area_code":"310117102022","zip_code":"201601","city_code":"021","name":"\u65b0\u51ef\u4e09\u6751\u5c45\u59d4\u4f1a","short_name":"\u65b0\u51ef\u4e09\u6751","merger_name":"\u4e0a\u6d77,\u677e\u6c5f,\u6cd7\u6cfe,\u65b0\u51ef\u4e09\u6751","pinyin":"XinKaiSanCun","lng":"121.231970","lat":"31.111180"},{"id":169111,"parent_id":169089,"level":4,"area_code":"310117102023","zip_code":"201601","city_code":"021","name":"\u65b0\u51ef\u56db\u6751\u5c45\u59d4\u4f1a","short_name":"\u65b0\u51ef\u56db\u6751","merger_name":"\u4e0a\u6d77,\u677e\u6c5f,\u6cd7\u6cfe,\u65b0\u51ef\u56db\u6751","pinyin":"XinKaiSiCun","lng":"121.381990","lat":"31.316190"},{"id":169112,"parent_id":169089,"level":4,"area_code":"310117102024","zip_code":"201601","city_code":"021","name":"\u65b0\u51ef\u4e94\u6751\u5c45\u59d4\u4f1a","short_name":"\u65b0\u51ef\u4e94\u6751","merger_name":"\u4e0a\u6d77,\u677e\u6c5f,\u6cd7\u6cfe,\u65b0\u51ef\u4e94\u6751","pinyin":"XinKaiWuCun","lng":"121.420920","lat":"31.134300"},{"id":169113,"parent_id":169089,"level":4,"area_code":"310117102025","zip_code":"201612","city_code":"021","name":"\u540c\u6da6\u5c45\u59d4\u4f1a","short_name":"\u540c\u6da6","merger_name":"\u4e0a\u6d77,\u677e\u6c5f,\u6cd7\u6cfe,\u540c\u6da6","pinyin":"TongRun","lng":"121.251930","lat":"31.105710"},{"id":169114,"parent_id":169089,"level":4,"area_code":"310117102026","zip_code":"201601","city_code":"021","name":"\u5c71\u539f\u5c45\u59d4\u4f1a(\u7b79)","short_name":"\u5c71\u539f(\u7b79)","merger_name":"\u4e0a\u6d77,\u677e\u6c5f,\u6cd7\u6cfe,\u5c71\u539f(\u7b79)","pinyin":"ShanYuanChou","lng":"121.486620","lat":"31.249720"},{"id":169115,"parent_id":169089,"level":4,"area_code":"310117102028","zip_code":"201601","city_code":"021","name":"\u65b0\u51ef\u516d\u6751\u5c45\u59d4\u4f1a(\u7b79)","short_name":"\u65b0\u51ef\u516d\u6751(\u7b79)","merger_name":"\u4e0a\u6d77,\u677e\u6c5f,\u6cd7\u6cfe,\u65b0\u51ef\u516d\u6751(\u7b79)","pinyin":"XinKaiLiuCunChou","lng":"121.231970","lat":"31.111180"},{"id":169116,"parent_id":169089,"level":4,"area_code":"310117102031","zip_code":"201601","city_code":"021","name":"\u5411\u9633\u6865\u5c45\u59d4\u4f1a(\u7b79)","short_name":"\u5411\u9633\u6865(\u7b79)","merger_name":"\u4e0a\u6d77,\u677e\u6c5f,\u6cd7\u6cfe,\u5411\u9633\u6865(\u7b79)","pinyin":"XiangYangQiaoChou","lng":"121.092260","lat":"31.210350"},{"id":169117,"parent_id":169089,"level":4,"area_code":"310117102032","zip_code":"201601","city_code":"021","name":"\u65b0\u51ef\u4e03\u6751\u5c45\u59d4\u4f1a","short_name":"\u65b0\u51ef\u4e03\u6751","merger_name":"\u4e0a\u6d77,\u677e\u6c5f,\u6cd7\u6cfe,\u65b0\u51ef\u4e03\u6751","pinyin":"XinKaiQiCun","lng":"121.244370","lat":"31.115137"},{"id":169118,"parent_id":169089,"level":4,"area_code":"310117102033","zip_code":"201601","city_code":"021","name":"\u65b0\u51ef\u516b\u6751\u5c45\u59d4\u4f1a","short_name":"\u65b0\u51ef\u516b\u6751","merger_name":"\u4e0a\u6d77,\u677e\u6c5f,\u6cd7\u6cfe,\u65b0\u51ef\u516b\u6751","pinyin":"XinKaiBaCun","lng":"121.246254","lat":"31.113331"},{"id":169119,"parent_id":169089,"level":4,"area_code":"310117102034","zip_code":"201601","city_code":"021","name":"\u97f5\u610f\u4e00\u6751\u5c45\u59d4\u4f1a","short_name":"\u97f5\u610f\u4e00\u6751","merger_name":"\u4e0a\u6d77,\u677e\u6c5f,\u6cd7\u6cfe,\u97f5\u610f\u4e00\u6751","pinyin":"YunYiYiCun","lng":"121.246740","lat":"31.103650"},{"id":169120,"parent_id":169089,"level":4,"area_code":"310117102035","zip_code":"201601","city_code":"021","name":"\u97f5\u610f\u4e8c\u6751\u5c45\u59d4\u4f1a","short_name":"\u97f5\u610f\u4e8c\u6751","merger_name":"\u4e0a\u6d77,\u677e\u6c5f,\u6cd7\u6cfe,\u97f5\u610f\u4e8c\u6751","pinyin":"YunYiErCun","lng":"121.247250","lat":"31.104010"},{"id":169121,"parent_id":169089,"level":4,"area_code":"310117102036","zip_code":"201601","city_code":"021","name":"\u97f5\u610f\u4e09\u6751\u5c45\u59d4\u4f1a","short_name":"\u97f5\u610f\u4e09\u6751","merger_name":"\u4e0a\u6d77,\u677e\u6c5f,\u6cd7\u6cfe,\u97f5\u610f\u4e09\u6751","pinyin":"YunYiSanCun","lng":"121.231970","lat":"31.111180"},{"id":169122,"parent_id":169089,"level":4,"area_code":"310117102037","zip_code":"201601","city_code":"021","name":"\u97f5\u610f\u56db\u6751\u5c45\u59d4\u4f1a","short_name":"\u97f5\u610f\u56db\u6751","merger_name":"\u4e0a\u6d77,\u677e\u6c5f,\u6cd7\u6cfe,\u97f5\u610f\u56db\u6751","pinyin":"YunYiSiCun","lng":"121.261530","lat":"30.951570"},{"id":169123,"parent_id":169089,"level":4,"area_code":"310117102038","zip_code":"201601","city_code":"021","name":"\u97f5\u610f\u4e94\u6751\u5c45\u59d4\u4f1a","short_name":"\u97f5\u610f\u4e94\u6751","merger_name":"\u4e0a\u6d77,\u677e\u6c5f,\u6cd7\u6cfe,\u97f5\u610f\u4e94\u6751","pinyin":"YunYiWuCun","lng":"121.253530","lat":"31.101020"},{"id":169124,"parent_id":168957,"level":3,"area_code":"310117103000","zip_code":"201602","city_code":"021","name":"\u4f58\u5c71\u9547","short_name":"\u4f58\u5c71","merger_name":"\u4e0a\u6d77,\u677e\u6c5f,\u4f58\u5c71","pinyin":"SheShan","lng":"121.187550","lat":"31.103010"},{"id":169125,"parent_id":169124,"level":4,"area_code":"310117103001","zip_code":"201602","city_code":"021","name":"\u9648\u574a\u793e\u533a\u5c45\u59d4\u4f1a","short_name":"\u9648\u574a","merger_name":"\u4e0a\u6d77,\u677e\u6c5f,\u4f58\u5c71,\u9648\u574a","pinyin":"ChenFang","lng":"121.183740","lat":"31.105170"},{"id":169126,"parent_id":169124,"level":4,"area_code":"310117103003","zip_code":"201603","city_code":"021","name":"\u5929\u9a6c\u793e\u533a\u5c45\u59d4\u4f1a","short_name":"\u5929\u9a6c","merger_name":"\u4e0a\u6d77,\u677e\u6c5f,\u4f58\u5c71,\u5929\u9a6c","pinyin":"TianMa","lng":"121.144360","lat":"31.069650"},{"id":169127,"parent_id":169124,"level":4,"area_code":"310117103004","zip_code":"201602","city_code":"021","name":"\u6c5f\u79cb\u65b0\u82d1\u793e\u533a\u5c45\u59d4\u4f1a","short_name":"\u6c5f\u79cb\u65b0\u82d1","merger_name":"\u4e0a\u6d77,\u677e\u6c5f,\u4f58\u5c71,\u6c5f\u79cb\u65b0\u82d1","pinyin":"JiangQiuXinYuan","lng":"121.168880","lat":"31.098670"},{"id":169128,"parent_id":169124,"level":4,"area_code":"310117103005","zip_code":"201602","city_code":"021","name":"\u6708\u6e56\u793e\u533a\u5c45\u59d4\u4f1a","short_name":"\u6708\u6e56","merger_name":"\u4e0a\u6d77,\u677e\u6c5f,\u4f58\u5c71,\u6708\u6e56","pinyin":"YueHu","lng":"121.196820","lat":"31.093710"},{"id":169129,"parent_id":169124,"level":4,"area_code":"310117103006","zip_code":"201602","city_code":"021","name":"\u7fe0\u946b\u82d1\u793e\u533a\u5c45\u59d4\u4f1a","short_name":"\u7fe0\u946b\u82d1","merger_name":"\u4e0a\u6d77,\u677e\u6c5f,\u4f58\u5c71,\u7fe0\u946b\u82d1","pinyin":"CuiXinYuan","lng":"121.173900","lat":"31.104280"},{"id":169130,"parent_id":169124,"level":4,"area_code":"310117103007","zip_code":"201602","city_code":"021","name":"\u4f58\u5c71\u5bb6\u56ed\u793e\u533a\u5c45\u59d4\u4f1a","short_name":"\u4f58\u5c71\u5bb6\u56ed","merger_name":"\u4e0a\u6d77,\u677e\u6c5f,\u4f58\u5c71,\u4f58\u5c71\u5bb6\u56ed","pinyin":"SheShanJiaYuan","lng":"121.172410","lat":"31.094070"},{"id":169131,"parent_id":169124,"level":4,"area_code":"310117103008","zip_code":"201602","city_code":"021","name":"\u79cb\u6f6d\u82d1\u793e\u533a\u5c45\u59d4\u4f1a","short_name":"\u79cb\u6f6d\u82d1","merger_name":"\u4e0a\u6d77,\u677e\u6c5f,\u4f58\u5c71,\u79cb\u6f6d\u82d1","pinyin":"QiuTanYuan","lng":"121.165610","lat":"31.088250"},{"id":169132,"parent_id":169124,"level":4,"area_code":"310117103009","zip_code":"201602","city_code":"021","name":"\u9648\u574a\u65b0\u82d1\u793e\u533a\u5c45\u59d4\u4f1a","short_name":"\u9648\u574a\u65b0\u82d1","merger_name":"\u4e0a\u6d77,\u677e\u6c5f,\u4f58\u5c71,\u9648\u574a\u65b0\u82d1","pinyin":"ChenFangXinYuan","lng":"121.179630","lat":"31.103280"},{"id":169133,"parent_id":169124,"level":4,"area_code":"310117103201","zip_code":"201602","city_code":"021","name":"\u6c5f\u79cb\u6751\u6751\u59d4\u4f1a","short_name":"\u6c5f\u79cb\u6751","merger_name":"\u4e0a\u6d77,\u677e\u6c5f,\u4f58\u5c71,\u6c5f\u79cb\u6751","pinyin":"JiangQiuCun","lng":"121.166624","lat":"31.098019"},{"id":169134,"parent_id":169124,"level":4,"area_code":"310117103210","zip_code":"201602","city_code":"021","name":"\u5f20\u6734\u6751\u6751\u59d4\u4f1a","short_name":"\u5f20\u6734\u6751","merger_name":"\u4e0a\u6d77,\u677e\u6c5f,\u4f58\u5c71,\u5f20\u6734\u6751","pinyin":"ZhangPuCun","lng":"121.204280","lat":"31.082860"},{"id":169135,"parent_id":169124,"level":4,"area_code":"310117103212","zip_code":"201602","city_code":"021","name":"\u9ad8\u5bb6\u6751\u6751\u59d4\u4f1a","short_name":"\u9ad8\u5bb6\u6751","merger_name":"\u4e0a\u6d77,\u677e\u6c5f,\u4f58\u5c71,\u9ad8\u5bb6\u6751","pinyin":"GaoJiaCun","lng":"121.195350","lat":"31.133460"},{"id":169136,"parent_id":169124,"level":4,"area_code":"310117103213","zip_code":"201602","city_code":"021","name":"\u5317\u5e72\u5c71\u6751\u6751\u59d4\u4f1a","short_name":"\u5317\u5e72\u5c71\u6751","merger_name":"\u4e0a\u6d77,\u677e\u6c5f,\u4f58\u5c71,\u5317\u5e72\u5c71\u6751","pinyin":"BeiGanShanCun","lng":"121.197100","lat":"31.125960"},{"id":169137,"parent_id":169124,"level":4,"area_code":"310117103217","zip_code":"201602","city_code":"021","name":"\u9648\u574a\u6751\u6751\u59d4\u4f1a","short_name":"\u9648\u574a\u6751","merger_name":"\u4e0a\u6d77,\u677e\u6c5f,\u4f58\u5c71,\u9648\u574a\u6751","pinyin":"ChenFangCun","lng":"121.183740","lat":"31.105170"},{"id":169138,"parent_id":169124,"level":4,"area_code":"310117103219","zip_code":"201602","city_code":"021","name":"\u9646\u5176\u6d5c\u6751\u6751\u59d4\u4f1a","short_name":"\u9646\u5176\u6d5c\u6751","merger_name":"\u4e0a\u6d77,\u677e\u6c5f,\u4f58\u5c71,\u9646\u5176\u6d5c\u6751","pinyin":"LuQiBangCun","lng":"121.119030","lat":"31.102240"},{"id":169139,"parent_id":169124,"level":4,"area_code":"310117103221","zip_code":"201603","city_code":"021","name":"\u536b\u5bb6\u57ed\u6751\u6751\u59d4\u4f1a","short_name":"\u536b\u5bb6\u57ed\u6751","merger_name":"\u4e0a\u6d77,\u677e\u6c5f,\u4f58\u5c71,\u536b\u5bb6\u57ed\u6751","pinyin":"WeiJiaDaiCun","lng":"121.114600","lat":"31.088180"},{"id":169140,"parent_id":169124,"level":4,"area_code":"310117103223","zip_code":"201603","city_code":"021","name":"\u65b0\u9547\u6751\u6751\u59d4\u4f1a","short_name":"\u65b0\u9547\u6751","merger_name":"\u4e0a\u6d77,\u677e\u6c5f,\u4f58\u5c71,\u65b0\u9547\u6751","pinyin":"XinZhenCun","lng":"121.133180","lat":"31.086090"},{"id":169141,"parent_id":169124,"level":4,"area_code":"310117103226","zip_code":"201603","city_code":"021","name":"\u6a2a\u5c71\u6751\u6751\u59d4\u4f1a","short_name":"\u6a2a\u5c71\u6751","merger_name":"\u4e0a\u6d77,\u677e\u6c5f,\u4f58\u5c71,\u6a2a\u5c71\u6751","pinyin":"HengShanCun","lng":"121.151100","lat":"31.059880"},{"id":169142,"parent_id":169124,"level":4,"area_code":"310117103230","zip_code":"201602","city_code":"021","name":"\u5218\u5bb6\u5c71\u6751\u6751\u59d4\u4f1a","short_name":"\u5218\u5bb6\u5c71\u6751","merger_name":"\u4e0a\u6d77,\u677e\u6c5f,\u4f58\u5c71,\u5218\u5bb6\u5c71\u6751","pinyin":"LiuJiaShanCun","lng":"121.144360","lat":"31.069650"},{"id":169143,"parent_id":169124,"level":4,"area_code":"310117103233","zip_code":"201603","city_code":"021","name":"\u65b0\u5b85\u6751\u6751\u59d4\u4f1a","short_name":"\u65b0\u5b85\u6751","merger_name":"\u4e0a\u6d77,\u677e\u6c5f,\u4f58\u5c71,\u65b0\u5b85\u6751","pinyin":"XinZhaiCun","lng":"121.140830","lat":"31.074060"},{"id":169144,"parent_id":168957,"level":3,"area_code":"310117104000","zip_code":"201611","city_code":"021","name":"\u8f66\u58a9\u9547","short_name":"\u8f66\u58a9","merger_name":"\u4e0a\u6d77,\u677e\u6c5f,\u8f66\u58a9","pinyin":"CheDun","lng":"121.313190","lat":"31.014350"},{"id":169145,"parent_id":169144,"level":4,"area_code":"310117104001","zip_code":"201611","city_code":"021","name":"\u866c\u957f\u8def\u5c45\u59d4\u4f1a","short_name":"\u866c\u957f\u8def","merger_name":"\u4e0a\u6d77,\u677e\u6c5f,\u8f66\u58a9,\u866c\u957f\u8def","pinyin":"QiuChangLu","lng":"121.310360","lat":"31.014990"},{"id":169146,"parent_id":169144,"level":4,"area_code":"310117104003","zip_code":"201611","city_code":"021","name":"\u534e\u9633\u5c45\u59d4\u4f1a","short_name":"\u534e\u9633","merger_name":"\u4e0a\u6d77,\u677e\u6c5f,\u8f66\u58a9,\u534e\u9633","pinyin":"HuaYang","lng":"121.283870","lat":"31.005620"},{"id":169147,"parent_id":169144,"level":4,"area_code":"310117104004","zip_code":"201611","city_code":"021","name":"\u7965\u4e1c\u5c45\u59d4\u4f1a","short_name":"\u7965\u4e1c","merger_name":"\u4e0a\u6d77,\u677e\u6c5f,\u8f66\u58a9,\u7965\u4e1c","pinyin":"XiangDong","lng":"121.320330","lat":"31.010220"},{"id":169148,"parent_id":169144,"level":4,"area_code":"310117104005","zip_code":"201611","city_code":"021","name":"\u5f71\u4f73\u5c45\u59d4\u4f1a","short_name":"\u5f71\u4f73","merger_name":"\u4e0a\u6d77,\u677e\u6c5f,\u8f66\u58a9,\u5f71\u4f73","pinyin":"YingJia","lng":"121.316540","lat":"31.013810"},{"id":169149,"parent_id":169144,"level":4,"area_code":"310117104006","zip_code":"201619","city_code":"021","name":"\u540c\u4e50\u5c45\u59d4\u4f1a","short_name":"\u540c\u4e50","merger_name":"\u4e0a\u6d77,\u677e\u6c5f,\u8f66\u58a9,\u540c\u4e50","pinyin":"TongLe","lng":"121.575054","lat":"31.217626"},{"id":169150,"parent_id":169144,"level":4,"area_code":"310117104202","zip_code":"201611","city_code":"021","name":"\u9ad8\u6865\u6751\u6751\u59d4\u4f1a","short_name":"\u9ad8\u6865\u6751","merger_name":"\u4e0a\u6d77,\u677e\u6c5f,\u8f66\u58a9,\u9ad8\u6865\u6751","pinyin":"GaoQiaoCun","lng":"121.315680","lat":"31.019910"},{"id":169151,"parent_id":169144,"level":4,"area_code":"310117104204","zip_code":"201611","city_code":"021","name":"\u65b0\u4f59\u6751\u6751\u59d4\u4f1a","short_name":"\u65b0\u4f59\u6751","merger_name":"\u4e0a\u6d77,\u677e\u6c5f,\u8f66\u58a9,\u65b0\u4f59\u6751","pinyin":"XinYuCun","lng":"121.304770","lat":"31.012237"},{"id":169152,"parent_id":169144,"level":4,"area_code":"310117104205","zip_code":"201611","city_code":"021","name":"\u8054\u5efa\u6751\u6751\u59d4\u4f1a","short_name":"\u8054\u5efa\u6751","merger_name":"\u4e0a\u6d77,\u677e\u6c5f,\u8f66\u58a9,\u8054\u5efa\u6751","pinyin":"LianJianCun","lng":"121.304770","lat":"31.012237"},{"id":169153,"parent_id":169144,"level":4,"area_code":"310117104206","zip_code":"201611","city_code":"021","name":"\u5f97\u80dc\u6751\u6751\u59d4\u4f1a","short_name":"\u5f97\u80dc\u6751","merger_name":"\u4e0a\u6d77,\u677e\u6c5f,\u8f66\u58a9,\u5f97\u80dc\u6751","pinyin":"DeShengCun","lng":"121.304650","lat":"30.980960"},{"id":169154,"parent_id":169144,"level":4,"area_code":"310117104207","zip_code":"201611","city_code":"021","name":"\u8054\u5e84\u6751\u6751\u59d4\u4f1a","short_name":"\u8054\u5e84\u6751","merger_name":"\u4e0a\u6d77,\u677e\u6c5f,\u8f66\u58a9,\u8054\u5e84\u6751","pinyin":"LianZhuangCun","lng":"121.304770","lat":"31.012237"},{"id":169155,"parent_id":169144,"level":4,"area_code":"310117104208","zip_code":"201611","city_code":"021","name":"\u6c47\u6865\u6751\u6751\u59d4\u4f1a","short_name":"\u6c47\u6865\u6751","merger_name":"\u4e0a\u6d77,\u677e\u6c5f,\u8f66\u58a9,\u6c47\u6865\u6751","pinyin":"HuiQiaoCun","lng":"121.304770","lat":"31.012237"},{"id":169156,"parent_id":169144,"level":4,"area_code":"310117104209","zip_code":"201611","city_code":"021","name":"\u8054\u6c11\u6751\u6751\u59d4\u4f1a","short_name":"\u8054\u6c11\u6751","merger_name":"\u4e0a\u6d77,\u677e\u6c5f,\u8f66\u58a9,\u8054\u6c11\u6751","pinyin":"LianMinCun","lng":"121.258610","lat":"30.989410"},{"id":169157,"parent_id":169144,"level":4,"area_code":"310117104210","zip_code":"201611","city_code":"021","name":"\u5357\u95e8\u6751\u6751\u59d4\u4f1a","short_name":"\u5357\u95e8\u6751","merger_name":"\u4e0a\u6d77,\u677e\u6c5f,\u8f66\u58a9,\u5357\u95e8\u6751","pinyin":"NanMenCun","lng":"121.249610","lat":"30.997970"},{"id":169158,"parent_id":169144,"level":4,"area_code":"310117104211","zip_code":"201611","city_code":"021","name":"\u7c73\u5e02\u6e21\u6751\u6751\u59d4\u4f1a","short_name":"\u7c73\u5e02\u6e21\u6751","merger_name":"\u4e0a\u6d77,\u677e\u6c5f,\u8f66\u58a9,\u7c73\u5e02\u6e21\u6751","pinyin":"MiShiDuCun","lng":"121.236580","lat":"30.977690"},{"id":169159,"parent_id":169144,"level":4,"area_code":"310117104212","zip_code":"201611","city_code":"021","name":"\u6c38\u798f\u6751\u6751\u59d4\u4f1a","short_name":"\u6c38\u798f\u6751","merger_name":"\u4e0a\u6d77,\u677e\u6c5f,\u8f66\u58a9,\u6c38\u798f\u6751","pinyin":"YongFuCun","lng":"121.304770","lat":"31.012237"},{"id":169160,"parent_id":169144,"level":4,"area_code":"310117104213","zip_code":"201611","city_code":"021","name":"\u957f\u6e87\u6751\u6751\u59d4\u4f1a","short_name":"\u957f\u6e87\u6751","merger_name":"\u4e0a\u6d77,\u677e\u6c5f,\u8f66\u58a9,\u957f\u6e87\u6751","pinyin":"ZhangLouCun","lng":"121.286460","lat":"30.964920"},{"id":169161,"parent_id":169144,"level":4,"area_code":"310117104216","zip_code":"201611","city_code":"021","name":"\u6d0b\u6cfe\u6751\u6751\u59d4\u4f1a","short_name":"\u6d0b\u6cfe\u6751","merger_name":"\u4e0a\u6d77,\u677e\u6c5f,\u8f66\u58a9,\u6d0b\u6cfe\u6751","pinyin":"YangJingCun","lng":"121.300130","lat":"30.984890"},{"id":169162,"parent_id":169144,"level":4,"area_code":"310117104217","zip_code":"201611","city_code":"021","name":"\u9999\u5c71\u6751\u6751\u59d4\u4f1a","short_name":"\u9999\u5c71\u6751","merger_name":"\u4e0a\u6d77,\u677e\u6c5f,\u8f66\u58a9,\u9999\u5c71\u6751","pinyin":"XiangShanCun","lng":"121.304770","lat":"31.012237"},{"id":169163,"parent_id":169144,"level":4,"area_code":"310117104218","zip_code":"201611","city_code":"021","name":"\u6253\u94c1\u6865\u6751\u6751\u59d4\u4f1a","short_name":"\u6253\u94c1\u6865\u6751","merger_name":"\u4e0a\u6d77,\u677e\u6c5f,\u8f66\u58a9,\u6253\u94c1\u6865\u6751","pinyin":"DaTieQiaoCun","lng":"121.273430","lat":"31.131770"},{"id":169164,"parent_id":169144,"level":4,"area_code":"310117104219","zip_code":"201611","city_code":"021","name":"\u534e\u9633\u6751\u6751\u59d4\u4f1a","short_name":"\u534e\u9633\u6751","merger_name":"\u4e0a\u6d77,\u677e\u6c5f,\u8f66\u58a9,\u534e\u9633\u6751","pinyin":"HuaYangCun","lng":"121.274620","lat":"31.004440"},{"id":169165,"parent_id":169144,"level":4,"area_code":"310117104220","zip_code":"201613","city_code":"021","name":"\u4e1c\u95e8\u6751\u6751\u59d4\u4f1a","short_name":"\u4e1c\u95e8\u6751","merger_name":"\u4e0a\u6d77,\u677e\u6c5f,\u8f66\u58a9,\u4e1c\u95e8\u6751","pinyin":"DongMenCun","lng":"121.249610","lat":"30.997970"},{"id":169166,"parent_id":168957,"level":3,"area_code":"310117105000","zip_code":"201612","city_code":"021","name":"\u65b0\u6865\u9547","short_name":"\u65b0\u6865","merger_name":"\u4e0a\u6d77,\u677e\u6c5f,\u65b0\u6865","pinyin":"XinQiao","lng":"121.315540","lat":"31.059880"},{"id":169167,"parent_id":169166,"level":4,"area_code":"310117105001","zip_code":"201607","city_code":"021","name":"\u65b0\u4e50\u5c45\u59d4\u4f1a","short_name":"\u65b0\u4e50","merger_name":"\u4e0a\u6d77,\u677e\u6c5f,\u65b0\u6865,\u65b0\u4e50","pinyin":"XinLe","lng":"121.312630","lat":"31.063650"},{"id":169168,"parent_id":169166,"level":4,"area_code":"310117105002","zip_code":"201612","city_code":"021","name":"\u65b0\u80b2\u5c45\u59d4\u4f1a","short_name":"\u65b0\u80b2","merger_name":"\u4e0a\u6d77,\u677e\u6c5f,\u65b0\u6865,\u65b0\u80b2","pinyin":"XinYu","lng":"121.310360","lat":"31.014990"},{"id":169169,"parent_id":169166,"level":4,"area_code":"310117105003","zip_code":"201612","city_code":"021","name":"\u6c11\u76ca\u5c45\u59d4\u4f1a","short_name":"\u6c11\u76ca","merger_name":"\u4e0a\u6d77,\u677e\u6c5f,\u65b0\u6865,\u6c11\u76ca","pinyin":"MinYi","lng":"121.313990","lat":"31.054590"},{"id":169170,"parent_id":169166,"level":4,"area_code":"310117105004","zip_code":"201612","city_code":"021","name":"\u573a\u4e1c\u5c45\u59d4\u4f1a","short_name":"\u573a\u4e1c","merger_name":"\u4e0a\u6d77,\u677e\u6c5f,\u65b0\u6865,\u573a\u4e1c","pinyin":"ChangDong","lng":"121.362328","lat":"31.088874"},{"id":169171,"parent_id":169166,"level":4,"area_code":"310117105005","zip_code":"201612","city_code":"021","name":"\u573a\u897f\u5c45\u59d4\u4f1a","short_name":"\u573a\u897f","merger_name":"\u4e0a\u6d77,\u677e\u6c5f,\u65b0\u6865,\u573a\u897f","pinyin":"ChangXi","lng":"121.340843","lat":"31.084087"},{"id":169172,"parent_id":169166,"level":4,"area_code":"310117105006","zip_code":"201612","city_code":"021","name":"\u6f58\u5bb6\u6d5c\u5c45\u59d4\u4f1a","short_name":"\u6f58\u5bb6\u6d5c","merger_name":"\u4e0a\u6d77,\u677e\u6c5f,\u65b0\u6865,\u6f58\u5bb6\u6d5c","pinyin":"PanJiaBang","lng":"121.340270","lat":"31.078160"},{"id":169173,"parent_id":169166,"level":4,"area_code":"310117105007","zip_code":"201612","city_code":"021","name":"\u573a\u4e2d\u5c45\u59d4\u4f1a","short_name":"\u573a\u4e2d","merger_name":"\u4e0a\u6d77,\u677e\u6c5f,\u65b0\u6865,\u573a\u4e2d","pinyin":"ChangZhong","lng":"121.344470","lat":"31.094920"},{"id":169174,"parent_id":169166,"level":4,"area_code":"310117105008","zip_code":"201612","city_code":"021","name":"\u65b0\u4e1c\u82d1\u5c45\u59d4\u4f1a","short_name":"\u65b0\u4e1c\u82d1","merger_name":"\u4e0a\u6d77,\u677e\u6c5f,\u65b0\u6865,\u65b0\u4e1c\u82d1","pinyin":"XinDongYuan","lng":"121.327550","lat":"31.068810"},{"id":169175,"parent_id":169166,"level":4,"area_code":"310117105009","zip_code":"201612","city_code":"021","name":"\u660e\u4e2d\u5c45\u59d4\u4f1a","short_name":"\u660e\u4e2d","merger_name":"\u4e0a\u6d77,\u677e\u6c5f,\u65b0\u6865,\u660e\u4e2d","pinyin":"MingZhong","lng":"121.315060","lat":"31.070500"},{"id":169176,"parent_id":169166,"level":4,"area_code":"310117105010","zip_code":"201612","city_code":"021","name":"\u6668\u661f\u5c45\u59d4\u4f1a","short_name":"\u6668\u661f","merger_name":"\u4e0a\u6d77,\u677e\u6c5f,\u65b0\u6865,\u6668\u661f","pinyin":"ChenXing","lng":"121.312700","lat":"31.044030"},{"id":169177,"parent_id":169166,"level":4,"area_code":"310117105011","zip_code":"201612","city_code":"021","name":"\u9a6c\u6c64\u5c45\u59d4\u4f1a","short_name":"\u9a6c\u6c64","merger_name":"\u4e0a\u6d77,\u677e\u6c5f,\u65b0\u6865,\u9a6c\u6c64","pinyin":"MaTang","lng":"121.297280","lat":"31.076150"},{"id":169178,"parent_id":169166,"level":4,"area_code":"310117105012","zip_code":"201612","city_code":"021","name":"\u6625\u7533\u5c45\u59d4\u4f1a","short_name":"\u6625\u7533","merger_name":"\u4e0a\u6d77,\u677e\u6c5f,\u65b0\u6865,\u6625\u7533","pinyin":"ChunShen","lng":"121.363270","lat":"31.081430"},{"id":169179,"parent_id":169166,"level":4,"area_code":"310117105013","zip_code":"201612","city_code":"021","name":"\u8398\u677e\u5c45\u59d4\u4f1a","short_name":"\u8398\u677e","merger_name":"\u4e0a\u6d77,\u677e\u6c5f,\u65b0\u6865,\u8398\u677e","pinyin":"ShenSong","lng":"121.339220","lat":"31.093330"},{"id":169180,"parent_id":169166,"level":4,"area_code":"310117105014","zip_code":"201612","city_code":"021","name":"\u6625\u4e5d\u5c45\u59d4\u4f1a","short_name":"\u6625\u4e5d","merger_name":"\u4e0a\u6d77,\u677e\u6c5f,\u65b0\u6865,\u6625\u4e5d","pinyin":"ChunJiu","lng":"121.341260","lat":"31.083860"},{"id":169181,"parent_id":169166,"level":4,"area_code":"310117105015","zip_code":"201612","city_code":"021","name":"\u6625\u8398\u5c45\u59d4\u4f1a","short_name":"\u6625\u8398","merger_name":"\u4e0a\u6d77,\u677e\u6c5f,\u65b0\u6865,\u6625\u8398","pinyin":"ChunShen","lng":"121.349520","lat":"31.091400"},{"id":169182,"parent_id":169166,"level":4,"area_code":"310117105016","zip_code":"201612","city_code":"021","name":"\u660e\u5174\u5c45\u59d4\u4f1a","short_name":"\u660e\u5174","merger_name":"\u4e0a\u6d77,\u677e\u6c5f,\u65b0\u6865,\u660e\u5174","pinyin":"MingXing","lng":"121.337840","lat":"31.089280"},{"id":169183,"parent_id":169166,"level":4,"area_code":"310117105017","zip_code":"201612","city_code":"021","name":"\u767d\u9a6c\u5c45\u59d4\u4f1a","short_name":"\u767d\u9a6c","merger_name":"\u4e0a\u6d77,\u677e\u6c5f,\u65b0\u6865,\u767d\u9a6c","pinyin":"BaiMa","lng":"121.340270","lat":"31.078160"},{"id":169184,"parent_id":169166,"level":4,"area_code":"310117105018","zip_code":"201612","city_code":"021","name":"\u660e\u534e\u5c45\u59d4\u4f1a","short_name":"\u660e\u534e","merger_name":"\u4e0a\u6d77,\u677e\u6c5f,\u65b0\u6865,\u660e\u534e","pinyin":"MingHua","lng":"121.337840","lat":"31.089280"},{"id":169185,"parent_id":169166,"level":4,"area_code":"310117105019","zip_code":"201612","city_code":"021","name":"\u8fbe\u5b89\u5c45\u59d4\u4f1a","short_name":"\u8fbe\u5b89","merger_name":"\u4e0a\u6d77,\u677e\u6c5f,\u65b0\u6865,\u8fbe\u5b89","pinyin":"DaAn","lng":"121.428370","lat":"31.230300"},{"id":169186,"parent_id":169166,"level":4,"area_code":"310117105020","zip_code":"201612","city_code":"021","name":"\u99a8\u5ead\u5c45\u59d4\u4f1a","short_name":"\u99a8\u5ead","merger_name":"\u4e0a\u6d77,\u677e\u6c5f,\u65b0\u6865,\u99a8\u5ead","pinyin":"XinTing","lng":"121.328270","lat":"31.074860"},{"id":169187,"parent_id":169166,"level":4,"area_code":"310117105021","zip_code":"201612","city_code":"021","name":"\u65b0\u5f18\u5c45\u59d4\u4f1a","short_name":"\u65b0\u5f18","merger_name":"\u4e0a\u6d77,\u677e\u6c5f,\u65b0\u6865,\u65b0\u5f18","pinyin":"XinHong","lng":"121.495829","lat":"31.283041"},{"id":169188,"parent_id":169166,"level":4,"area_code":"310117105022","zip_code":"201612","city_code":"021","name":"\u4e01\u6d5c\u793e\u533a\u5c45\u59d4\u4f1a","short_name":"\u4e01\u6d5c","merger_name":"\u4e0a\u6d77,\u677e\u6c5f,\u65b0\u6865,\u4e01\u6d5c","pinyin":"DingBang","lng":"121.278681","lat":"31.105580"},{"id":169189,"parent_id":169166,"level":4,"area_code":"310117105023","zip_code":"201612","city_code":"021","name":"\u65b0\u6cfe\u793e\u533a\u5c45\u59d4\u4f1a","short_name":"\u65b0\u6cfe","merger_name":"\u4e0a\u6d77,\u677e\u6c5f,\u65b0\u6865,\u65b0\u6cfe","pinyin":"XinJing","lng":"121.449409","lat":"31.191917"},{"id":169190,"parent_id":168957,"level":3,"area_code":"310117106000","zip_code":"201619","city_code":"021","name":"\u6d1e\u6cfe\u9547","short_name":"\u6d1e\u6cfe","merger_name":"\u4e0a\u6d77,\u677e\u6c5f,\u6d1e\u6cfe","pinyin":"DongJing","lng":"121.270050","lat":"31.088250"},{"id":169191,"parent_id":169190,"level":4,"area_code":"310117106001","zip_code":"201619","city_code":"021","name":"\u65b0\u6b23\u5c45\u59d4\u4f1a","short_name":"\u65b0\u6b23","merger_name":"\u4e0a\u6d77,\u677e\u6c5f,\u6d1e\u6cfe,\u65b0\u6b23","pinyin":"XinXin","lng":"121.274870","lat":"31.085870"},{"id":169192,"parent_id":169190,"level":4,"area_code":"310117106002","zip_code":"201619","city_code":"021","name":"\u957f\u6b23\u5c45\u59d4\u4f1a","short_name":"\u957f\u6b23","merger_name":"\u4e0a\u6d77,\u677e\u6c5f,\u6d1e\u6cfe,\u957f\u6b23","pinyin":"ZhangXin","lng":"121.269167","lat":"31.081372"},{"id":169193,"parent_id":169190,"level":4,"area_code":"310117106003","zip_code":"201611","city_code":"021","name":"\u6d77\u6b23\u5c45\u59d4\u4f1a","short_name":"\u6d77\u6b23","merger_name":"\u4e0a\u6d77,\u677e\u6c5f,\u6d1e\u6cfe,\u6d77\u6b23","pinyin":"HaiXin","lng":"121.276760","lat":"31.083620"},{"id":169194,"parent_id":169190,"level":4,"area_code":"310117106005","zip_code":"201619","city_code":"021","name":"\u540c\u6b23\u5c45\u59d4\u4f1a","short_name":"\u540c\u6b23","merger_name":"\u4e0a\u6d77,\u677e\u6c5f,\u6d1e\u6cfe,\u540c\u6b23","pinyin":"TongXin","lng":"121.270050","lat":"31.088250"},{"id":169195,"parent_id":169190,"level":4,"area_code":"310117106006","zip_code":"201619","city_code":"021","name":"\u7816\u6865\u5c45\u59d4\u4f1a","short_name":"\u7816\u6865","merger_name":"\u4e0a\u6d77,\u677e\u6c5f,\u6d1e\u6cfe,\u7816\u6865","pinyin":"ZhuanQiao","lng":"121.278681","lat":"31.105580"},{"id":169196,"parent_id":169190,"level":4,"area_code":"310117106007","zip_code":"201619","city_code":"021","name":"\u6e14\u6d0b\u6d5c\u5c45\u59d4\u4f1a","short_name":"\u6e14\u6d0b\u6d5c","merger_name":"\u4e0a\u6d77,\u677e\u6c5f,\u6d1e\u6cfe,\u6e14\u6d0b\u6d5c","pinyin":"YuYangBang","lng":"121.241740","lat":"31.087090"},{"id":169197,"parent_id":169190,"level":4,"area_code":"310117106008","zip_code":"201619","city_code":"021","name":"\u5858\u6865\u5c45\u59d4\u4f1a","short_name":"\u5858\u6865","merger_name":"\u4e0a\u6d77,\u677e\u6c5f,\u6d1e\u6cfe,\u5858\u6865","pinyin":"TangQiao","lng":"121.281070","lat":"31.117880"},{"id":169198,"parent_id":169190,"level":4,"area_code":"310117106009","zip_code":"201619","city_code":"021","name":"\u5149\u661f\u5c45\u59d4\u4f1a","short_name":"\u5149\u661f","merger_name":"\u4e0a\u6d77,\u677e\u6c5f,\u6d1e\u6cfe,\u5149\u661f","pinyin":"GuangXing","lng":"121.279200","lat":"31.076130"},{"id":169199,"parent_id":169190,"level":4,"area_code":"310117106010","zip_code":"201619","city_code":"021","name":"\u8363\u6b23\u5c45\u59d4\u4f1a","short_name":"\u8363\u6b23","merger_name":"\u4e0a\u6d77,\u677e\u6c5f,\u6d1e\u6cfe,\u8363\u6b23","pinyin":"RongXin","lng":"121.289640","lat":"31.082810"},{"id":169200,"parent_id":169190,"level":4,"area_code":"310117106011","zip_code":"201619","city_code":"021","name":"\u5e73\u9633\u5c45\u59d4\u4f1a","short_name":"\u5e73\u9633","merger_name":"\u4e0a\u6d77,\u677e\u6c5f,\u6d1e\u6cfe,\u5e73\u9633","pinyin":"PingYang","lng":"121.271630","lat":"31.076560"},{"id":169201,"parent_id":168957,"level":3,"area_code":"310117107000","zip_code":"201615","city_code":"021","name":"\u4e5d\u4ead\u9547","short_name":"\u4e5d\u4ead","merger_name":"\u4e0a\u6d77,\u677e\u6c5f,\u4e5d\u4ead","pinyin":"JiuTing","lng":"121.317900","lat":"31.130070"},{"id":169202,"parent_id":169201,"level":4,"area_code":"310117107001","zip_code":"201615","city_code":"021","name":"\u4ead\u4e2d\u5c45\u59d4\u4f1a","short_name":"\u4ead\u4e2d","merger_name":"\u4e0a\u6d77,\u677e\u6c5f,\u4e5d\u4ead,\u4ead\u4e2d","pinyin":"TingZhong","lng":"121.329740","lat":"31.128790"},{"id":169203,"parent_id":169201,"level":4,"area_code":"310117107002","zip_code":"201615","city_code":"021","name":"\u4ead\u4e1c\u5c45\u59d4\u4f1a","short_name":"\u4ead\u4e1c","merger_name":"\u4e0a\u6d77,\u677e\u6c5f,\u4e5d\u4ead,\u4ead\u4e1c","pinyin":"TingDong","lng":"121.325910","lat":"31.133390"},{"id":169204,"parent_id":169201,"level":4,"area_code":"310117107004","zip_code":"201615","city_code":"021","name":"\u4ead\u5357\u5c45\u59d4\u4f1a","short_name":"\u4ead\u5357","merger_name":"\u4e0a\u6d77,\u677e\u6c5f,\u4e5d\u4ead,\u4ead\u5357","pinyin":"TingNan","lng":"121.347360","lat":"31.101190"},{"id":169205,"parent_id":169201,"level":4,"area_code":"310117107005","zip_code":"201615","city_code":"021","name":"\u5e84\u5bb6\u5c45\u59d4\u4f1a","short_name":"\u5e84\u5bb6","merger_name":"\u4e0a\u6d77,\u677e\u6c5f,\u4e5d\u4ead,\u5e84\u5bb6","pinyin":"ZhuangJia","lng":"121.322940","lat":"31.131050"},{"id":169206,"parent_id":169201,"level":4,"area_code":"310117107006","zip_code":"201615","city_code":"021","name":"\u5174\u8054\u5c45\u59d4\u4f1a","short_name":"\u5174\u8054","merger_name":"\u4e0a\u6d77,\u677e\u6c5f,\u4e5d\u4ead,\u5174\u8054","pinyin":"XingLian","lng":"121.333660","lat":"31.141630"},{"id":169207,"parent_id":169201,"level":4,"area_code":"310117107008","zip_code":"201615","city_code":"021","name":"\u6731\u9f99\u5c45\u59d4\u4f1a","short_name":"\u6731\u9f99","merger_name":"\u4e0a\u6d77,\u677e\u6c5f,\u4e5d\u4ead,\u6731\u9f99","pinyin":"ZhuLong","lng":"121.328820","lat":"31.119020"},{"id":169208,"parent_id":169201,"level":4,"area_code":"310117107009","zip_code":"201615","city_code":"021","name":"\u91d1\u5434\u5c45\u59d4\u4f1a","short_name":"\u91d1\u5434","merger_name":"\u4e0a\u6d77,\u677e\u6c5f,\u4e5d\u4ead,\u91d1\u5434","pinyin":"JinWu","lng":"121.311250","lat":"31.102590"},{"id":169209,"parent_id":169201,"level":4,"area_code":"310117107010","zip_code":"201615","city_code":"021","name":"\u677e\u6caa\u5c45\u59d4\u4f1a","short_name":"\u677e\u6caa","merger_name":"\u4e0a\u6d77,\u677e\u6c5f,\u4e5d\u4ead,\u677e\u6caa","pinyin":"SongHu","lng":"121.333480","lat":"31.117530"},{"id":169210,"parent_id":169201,"level":4,"area_code":"310117107011","zip_code":"201615","city_code":"021","name":"\u5c0f\u5bc5\u5c45\u59d4\u4f1a","short_name":"\u5c0f\u5bc5","merger_name":"\u4e0a\u6d77,\u677e\u6c5f,\u4e5d\u4ead,\u5c0f\u5bc5","pinyin":"XiaoYin","lng":"121.299070","lat":"31.141160"},{"id":169211,"parent_id":169201,"level":4,"area_code":"310117107012","zip_code":"201615","city_code":"021","name":"\u6731\u6cfe\u6d5c\u5c45\u59d4\u4f1a","short_name":"\u6731\u6cfe\u6d5c","merger_name":"\u4e0a\u6d77,\u677e\u6c5f,\u4e5d\u4ead,\u6731\u6cfe\u6d5c","pinyin":"ZhuJingBang","lng":"121.328820","lat":"31.119020"},{"id":169212,"parent_id":169201,"level":4,"area_code":"310117107013","zip_code":"201615","city_code":"021","name":"\u4ead\u6e90\u5c45\u59d4\u4f1a","short_name":"\u4ead\u6e90","merger_name":"\u4e0a\u6d77,\u677e\u6c5f,\u4e5d\u4ead,\u4ead\u6e90","pinyin":"TingYuan","lng":"121.319009","lat":"31.125761"},{"id":169213,"parent_id":169201,"level":4,"area_code":"310117107014","zip_code":"201615","city_code":"021","name":"\u5317\u573a\u5c45\u59d4\u4f1a","short_name":"\u5317\u573a","merger_name":"\u4e0a\u6d77,\u677e\u6c5f,\u4e5d\u4ead,\u5317\u573a","pinyin":"BeiChang","lng":"121.341478","lat":"31.104596"},{"id":169214,"parent_id":169201,"level":4,"area_code":"310117107016","zip_code":"201615","city_code":"021","name":"\u725b\u8f66\u6cfe\u5c45\u59d4\u4f1a","short_name":"\u725b\u8f66\u6cfe","merger_name":"\u4e0a\u6d77,\u677e\u6c5f,\u4e5d\u4ead,\u725b\u8f66\u6cfe","pinyin":"NiuCheJing","lng":"121.328820","lat":"31.119020"},{"id":169215,"parent_id":169201,"level":4,"area_code":"310117107017","zip_code":"201615","city_code":"021","name":"\u56fd\u4ead\u5c45\u59d4\u4f1a","short_name":"\u56fd\u4ead","merger_name":"\u4e0a\u6d77,\u677e\u6c5f,\u4e5d\u4ead,\u56fd\u4ead","pinyin":"GuoTing","lng":"121.331400","lat":"31.135370"},{"id":169216,"parent_id":169201,"level":4,"area_code":"310117107018","zip_code":"201620","city_code":"021","name":"\u5609\u79be\u5c45\u59d4\u4f1a","short_name":"\u5609\u79be","merger_name":"\u4e0a\u6d77,\u677e\u6c5f,\u4e5d\u4ead,\u5609\u79be","pinyin":"JiaHe","lng":"121.317030","lat":"31.133580"},{"id":169217,"parent_id":169201,"level":4,"area_code":"310117107020","zip_code":"201615","city_code":"021","name":"\u9890\u666f\u56ed\u5c45\u59d4\u4f1a","short_name":"\u9890\u666f\u56ed","merger_name":"\u4e0a\u6d77,\u677e\u6c5f,\u4e5d\u4ead,\u9890\u666f\u56ed","pinyin":"YiJingYuan","lng":"121.341990","lat":"31.123670"},{"id":169218,"parent_id":169201,"level":4,"area_code":"310117107023","zip_code":"201620","city_code":"021","name":"\u590d\u5730\u5c45\u59d4\u4f1a","short_name":"\u590d\u5730","merger_name":"\u4e0a\u6d77,\u677e\u6c5f,\u4e5d\u4ead,\u590d\u5730","pinyin":"FuDi","lng":"121.341640","lat":"31.126170"},{"id":169219,"parent_id":169201,"level":4,"area_code":"310117107034","zip_code":"201615","city_code":"021","name":"\u5929\u5143\u5c45\u59d4\u4f1a","short_name":"\u5929\u5143","merger_name":"\u4e0a\u6d77,\u677e\u6c5f,\u4e5d\u4ead,\u5929\u5143","pinyin":"TianYuan","lng":"121.324850","lat":"31.127270"},{"id":169220,"parent_id":169201,"level":4,"area_code":"310117107035","zip_code":"201615","city_code":"021","name":"\u9752\u6625\u5c45\u59d4\u4f1a","short_name":"\u9752\u6625","merger_name":"\u4e0a\u6d77,\u677e\u6c5f,\u4e5d\u4ead,\u9752\u6625","pinyin":"QingChun","lng":"121.317880","lat":"31.135420"},{"id":169221,"parent_id":169201,"level":4,"area_code":"310117107036","zip_code":"201615","city_code":"021","name":"\u4e91\u6da6\u5c45\u59d4\u4f1a","short_name":"\u4e91\u6da6","merger_name":"\u4e0a\u6d77,\u677e\u6c5f,\u4e5d\u4ead,\u4e91\u6da6","pinyin":"YunRun","lng":"121.318800","lat":"31.129890"},{"id":169222,"parent_id":169201,"level":4,"area_code":"310117107037","zip_code":"201615","city_code":"021","name":"\u6d9e\u4ead\u5c45\u59d4\u4f1a","short_name":"\u6d9e\u4ead","merger_name":"\u4e0a\u6d77,\u677e\u6c5f,\u4e5d\u4ead,\u6d9e\u4ead","pinyin":"LaiTing","lng":"121.334530","lat":"31.129900"},{"id":169223,"parent_id":169201,"level":4,"area_code":"310117107038","zip_code":"201615","city_code":"021","name":"\u8c61\u5c7f\u90fd\u57ce\u5c45\u59d4\u4f1a","short_name":"\u8c61\u5c7f\u90fd\u57ce","merger_name":"\u4e0a\u6d77,\u677e\u6c5f,\u4e5d\u4ead,\u8c61\u5c7f\u90fd\u57ce","pinyin":"XiangYuDuCheng","lng":"121.337450","lat":"31.122790"},{"id":169224,"parent_id":169201,"level":4,"area_code":"310117107039","zip_code":"201615","city_code":"021","name":"\u7d2b\u91d1\u5c45\u59d4\u4f1a","short_name":"\u7d2b\u91d1","merger_name":"\u4e0a\u6d77,\u677e\u6c5f,\u4e5d\u4ead,\u7d2b\u91d1","pinyin":"ZiJin","lng":"121.327460","lat":"31.124490"},{"id":169225,"parent_id":169201,"level":4,"area_code":"310117107040","zip_code":"201615","city_code":"021","name":"\u4e5d\u4ead\u5bb6\u56ed\u5c45\u59d4\u4f1a","short_name":"\u4e5d\u4ead\u5bb6\u56ed","merger_name":"\u4e0a\u6d77,\u677e\u6c5f,\u4e5d\u4ead,\u4e5d\u4ead\u5bb6\u56ed","pinyin":"JiuTingJiaYuan","lng":"121.341240","lat":"31.111070"},{"id":169226,"parent_id":169201,"level":4,"area_code":"310117107041","zip_code":"201615","city_code":"021","name":"\u8c61\u5c7f\u54c1\u57ce\u5c45\u59d4\u4f1a","short_name":"\u8c61\u5c7f\u54c1\u57ce","merger_name":"\u4e0a\u6d77,\u677e\u6c5f,\u4e5d\u4ead,\u8c61\u5c7f\u54c1\u57ce","pinyin":"XiangYuPinCheng","lng":"121.214310","lat":"31.006560"},{"id":169227,"parent_id":168957,"level":3,"area_code":"310117109000","zip_code":"201607","city_code":"021","name":"\u6cd6\u6e2f\u9547","short_name":"\u6cd6\u6e2f","merger_name":"\u4e0a\u6d77,\u677e\u6c5f,\u6cd6\u6e2f","pinyin":"MaoGang","lng":"121.213530","lat":"30.932880"},{"id":169228,"parent_id":169227,"level":4,"area_code":"310117109001","zip_code":"201607","city_code":"021","name":"\u6cd6\u6e2f\u5c45\u59d4\u4f1a","short_name":"\u6cd6\u6e2f","merger_name":"\u4e0a\u6d77,\u677e\u6c5f,\u6cd6\u6e2f,\u6cd6\u6e2f","pinyin":"MaoGang","lng":"121.217770","lat":"30.931840"},{"id":169229,"parent_id":169227,"level":4,"area_code":"310117109002","zip_code":"201606","city_code":"021","name":"\u4e94\u538d\u5c45\u59d4\u4f1a","short_name":"\u4e94\u538d","merger_name":"\u4e0a\u6d77,\u677e\u6c5f,\u6cd6\u6e2f,\u4e94\u538d","pinyin":"WuShe","lng":"121.143910","lat":"30.956550"},{"id":169230,"parent_id":169227,"level":4,"area_code":"310117109201","zip_code":"201607","city_code":"021","name":"\u7126\u5bb6\u6751\u6751\u59d4\u4f1a","short_name":"\u7126\u5bb6\u6751","merger_name":"\u4e0a\u6d77,\u677e\u6c5f,\u6cd6\u6e2f,\u7126\u5bb6\u6751","pinyin":"JiaoJiaCun","lng":"121.234960","lat":"30.934400"},{"id":169231,"parent_id":169227,"level":4,"area_code":"310117109202","zip_code":"201607","city_code":"021","name":"\u65b0\u9f9a\u6751\u6751\u59d4\u4f1a","short_name":"\u65b0\u9f9a\u6751","merger_name":"\u4e0a\u6d77,\u677e\u6c5f,\u6cd6\u6e2f,\u65b0\u9f9a\u6751","pinyin":"XinGongCun","lng":"121.211880","lat":"30.940720"},{"id":169232,"parent_id":169227,"level":4,"area_code":"310117109203","zip_code":"201607","city_code":"021","name":"\u8170\u6cfe\u6751\u6751\u59d4\u4f1a","short_name":"\u8170\u6cfe\u6751","merger_name":"\u4e0a\u6d77,\u677e\u6c5f,\u6cd6\u6e2f,\u8170\u6cfe\u6751","pinyin":"YaoJingCun","lng":"121.180160","lat":"30.928850"},{"id":169233,"parent_id":169227,"level":4,"area_code":"310117109204","zip_code":"201607","city_code":"021","name":"\u80e1\u5149\u6751\u6751\u59d4\u4f1a","short_name":"\u80e1\u5149\u6751","merger_name":"\u4e0a\u6d77,\u677e\u6c5f,\u6cd6\u6e2f,\u80e1\u5149\u6751","pinyin":"HuGuangCun","lng":"121.172460","lat":"30.930550"},{"id":169234,"parent_id":169227,"level":4,"area_code":"310117109205","zip_code":"201607","city_code":"021","name":"\u9ec4\u6865\u6751\u6751\u59d4\u4f1a","short_name":"\u9ec4\u6865\u6751","merger_name":"\u4e0a\u6d77,\u677e\u6c5f,\u6cd6\u6e2f,\u9ec4\u6865\u6751","pinyin":"HuangQiaoCun","lng":"121.211880","lat":"30.940720"},{"id":169235,"parent_id":169227,"level":4,"area_code":"310117109206","zip_code":"201607","city_code":"021","name":"\u8303\u5bb6\u6751\u6751\u59d4\u4f1a","short_name":"\u8303\u5bb6\u6751","merger_name":"\u4e0a\u6d77,\u677e\u6c5f,\u6cd6\u6e2f,\u8303\u5bb6\u6751","pinyin":"FanJiaCun","lng":"121.190090","lat":"30.944070"},{"id":169236,"parent_id":169227,"level":4,"area_code":"310117109207","zip_code":"201607","city_code":"021","name":"\u6cd6\u6e2f\u6751\u6751\u59d4\u4f1a","short_name":"\u6cd6\u6e2f\u6751","merger_name":"\u4e0a\u6d77,\u677e\u6c5f,\u6cd6\u6e2f,\u6cd6\u6e2f\u6751","pinyin":"MaoGangCun","lng":"121.211880","lat":"30.940720"},{"id":169237,"parent_id":169227,"level":4,"area_code":"310117109208","zip_code":"201607","city_code":"021","name":"\u65b0\u5efa\u6751\u6751\u59d4\u4f1a","short_name":"\u65b0\u5efa\u6751","merger_name":"\u4e0a\u6d77,\u677e\u6c5f,\u6cd6\u6e2f,\u65b0\u5efa\u6751","pinyin":"XinJianCun","lng":"121.234960","lat":"30.934400"},{"id":169238,"parent_id":169227,"level":4,"area_code":"310117109209","zip_code":"201606","city_code":"021","name":"\u5f90\u538d\u6751\u6751\u59d4\u4f1a","short_name":"\u5f90\u538d\u6751","merger_name":"\u4e0a\u6d77,\u677e\u6c5f,\u6cd6\u6e2f,\u5f90\u538d\u6751","pinyin":"XuSheCun","lng":"121.141810","lat":"30.956550"},{"id":169239,"parent_id":169227,"level":4,"area_code":"310117109210","zip_code":"201606","city_code":"021","name":"\u5357\u4e09\u6751\u6751\u59d4\u4f1a","short_name":"\u5357\u4e09\u6751","merger_name":"\u4e0a\u6d77,\u677e\u6c5f,\u6cd6\u6e2f,\u5357\u4e09\u6751","pinyin":"NanSanCun","lng":"121.130050","lat":"30.961540"},{"id":169240,"parent_id":169227,"level":4,"area_code":"310117109211","zip_code":"201606","city_code":"021","name":"\u5174\u65fa\u6751\u6751\u59d4\u4f1a","short_name":"\u5174\u65fa\u6751","merger_name":"\u4e0a\u6d77,\u677e\u6c5f,\u6cd6\u6e2f,\u5174\u65fa\u6751","pinyin":"XingWangCun","lng":"121.130400","lat":"30.947790"},{"id":169241,"parent_id":169227,"level":4,"area_code":"310117109212","zip_code":"201606","city_code":"021","name":"\u7530\u9ec4\u6751\u6751\u59d4\u4f1a","short_name":"\u7530\u9ec4\u6751","merger_name":"\u4e0a\u6d77,\u677e\u6c5f,\u6cd6\u6e2f,\u7530\u9ec4\u6751","pinyin":"TianHuangCun","lng":"121.149100","lat":"30.937990"},{"id":169242,"parent_id":169227,"level":4,"area_code":"310117109213","zip_code":"201606","city_code":"021","name":"\u66d9\u5149\u6751\u6751\u59d4\u4f1a","short_name":"\u66d9\u5149\u6751","merger_name":"\u4e0a\u6d77,\u677e\u6c5f,\u6cd6\u6e2f,\u66d9\u5149\u6751","pinyin":"ShuGuangCun","lng":"121.134860","lat":"30.912220"},{"id":169243,"parent_id":169227,"level":4,"area_code":"310117109214","zip_code":"201606","city_code":"021","name":"\u66f9\u5bb6\u6d5c\u6751\u6751\u59d4\u4f1a","short_name":"\u66f9\u5bb6\u6d5c\u6751","merger_name":"\u4e0a\u6d77,\u677e\u6c5f,\u6cd6\u6e2f,\u66f9\u5bb6\u6d5c\u6751","pinyin":"CaoJiaBangCun","lng":"121.145710","lat":"30.931990"},{"id":169244,"parent_id":169227,"level":4,"area_code":"310117109215","zip_code":"201606","city_code":"021","name":"\u6731\u5b9a\u6751\u6751\u59d4\u4f1a","short_name":"\u6731\u5b9a\u6751","merger_name":"\u4e0a\u6d77,\u677e\u6c5f,\u6cd6\u6e2f,\u6731\u5b9a\u6751","pinyin":"ZhuDingCun","lng":"121.150160","lat":"30.924590"},{"id":169245,"parent_id":169227,"level":4,"area_code":"310117109216","zip_code":"201606","city_code":"021","name":"\u8339\u5858\u6751\u6751\u59d4\u4f1a","short_name":"\u8339\u5858\u6751","merger_name":"\u4e0a\u6d77,\u677e\u6c5f,\u6cd6\u6e2f,\u8339\u5858\u6751","pinyin":"RuTangCun","lng":"121.109279","lat":"30.931936"},{"id":169246,"parent_id":168957,"level":3,"area_code":"310117116000","zip_code":"201604","city_code":"021","name":"\u77f3\u6e56\u8361\u9547","short_name":"\u77f3\u6e56","merger_name":"\u4e0a\u6d77,\u677e\u6c5f,\u77f3\u6e56","pinyin":"ShiHu","lng":"121.119600","lat":"30.984720"},{"id":169247,"parent_id":169246,"level":4,"area_code":"310117116001","zip_code":"201604","city_code":"021","name":"\u53e4\u677e\u5c45\u59d4\u4f1a","short_name":"\u53e4\u677e","merger_name":"\u4e0a\u6d77,\u677e\u6c5f,\u77f3\u6e56,\u53e4\u677e","pinyin":"GuSong","lng":"121.118680","lat":"30.983570"},{"id":169248,"parent_id":169246,"level":4,"area_code":"310117116002","zip_code":"201617","city_code":"021","name":"\u5854\u6c47\u5c45\u59d4\u4f1a","short_name":"\u5854\u6c47","merger_name":"\u4e0a\u6d77,\u677e\u6c5f,\u77f3\u6e56,\u5854\u6c47","pinyin":"TaHui","lng":"121.181060","lat":"30.969250"},{"id":169249,"parent_id":169246,"level":4,"area_code":"310117116003","zip_code":"201604","city_code":"021","name":"\u606c\u6da6\u65b0\u82d1\u5c45\u59d4\u4f1a","short_name":"\u606c\u6da6\u65b0\u82d1","merger_name":"\u4e0a\u6d77,\u677e\u6c5f,\u77f3\u6e56,\u606c\u6da6\u65b0\u82d1","pinyin":"TianRunXinYuan","lng":"121.173990","lat":"30.975140"},{"id":169250,"parent_id":169246,"level":4,"area_code":"310117116201","zip_code":"201604","city_code":"021","name":"\u65b0\u59da\u6751\u6751\u59d4\u4f1a","short_name":"\u65b0\u59da\u6751","merger_name":"\u4e0a\u6d77,\u677e\u6c5f,\u77f3\u6e56,\u65b0\u59da\u6751","pinyin":"XinYaoCun","lng":"121.275320","lat":"30.942710"},{"id":169251,"parent_id":169246,"level":4,"area_code":"310117116202","zip_code":"201604","city_code":"021","name":"\u6cd6\u65b0\u6751\u6751\u59d4\u4f1a","short_name":"\u6cd6\u65b0\u6751","merger_name":"\u4e0a\u6d77,\u677e\u6c5f,\u77f3\u6e56,\u6cd6\u65b0\u6751","pinyin":"MaoXinCun","lng":"121.117470","lat":"30.998750"},{"id":169252,"parent_id":169246,"level":4,"area_code":"310117116204","zip_code":"201604","city_code":"021","name":"\u65b0\u6e90\u6751\u6751\u59d4\u4f1a","short_name":"\u65b0\u6e90\u6751","merger_name":"\u4e0a\u6d77,\u677e\u6c5f,\u77f3\u6e56,\u65b0\u6e90\u6751","pinyin":"XinYuanCun","lng":"121.118680","lat":"30.983570"},{"id":169253,"parent_id":169246,"level":4,"area_code":"310117116205","zip_code":"201604","city_code":"021","name":"\u6d19\u6865\u6751\u6751\u59d4\u4f1a","short_name":"\u6d19\u6865\u6751","merger_name":"\u4e0a\u6d77,\u677e\u6c5f,\u77f3\u6e56,\u6d19\u6865\u6751","pinyin":"ZhuQiaoCun","lng":"121.113860","lat":"30.966150"},{"id":169254,"parent_id":169246,"level":4,"area_code":"310117116206","zip_code":"201604","city_code":"021","name":"\u4e1c\u590f\u6751\u6751\u59d4\u4f1a","short_name":"\u4e1c\u590f\u6751","merger_name":"\u4e0a\u6d77,\u677e\u6c5f,\u77f3\u6e56,\u4e1c\u590f\u6751","pinyin":"DongXiaCun","lng":"121.135040","lat":"30.973810"},{"id":169255,"parent_id":169246,"level":4,"area_code":"310117116210","zip_code":"201617","city_code":"021","name":"\u4e1c\u6e2f\u6751\u6751\u59d4\u4f1a","short_name":"\u4e1c\u6e2f\u6751","merger_name":"\u4e0a\u6d77,\u677e\u6c5f,\u77f3\u6e56,\u4e1c\u6e2f\u6751","pinyin":"DongGangCun","lng":"121.188330","lat":"30.980650"},{"id":169256,"parent_id":169246,"level":4,"area_code":"310117116211","zip_code":"201617","city_code":"021","name":"\u91d1\u6c47\u6751\u6751\u59d4\u4f1a","short_name":"\u91d1\u6c47\u6751","merger_name":"\u4e0a\u6d77,\u677e\u6c5f,\u77f3\u6e56,\u91d1\u6c47\u6751","pinyin":"JinHuiCun","lng":"121.680440","lat":"31.153720"},{"id":169257,"parent_id":169246,"level":4,"area_code":"310117116213","zip_code":"201617","city_code":"021","name":"\u91d1\u80dc\u6751\u6751\u59d4\u4f1a","short_name":"\u91d1\u80dc\u6751","merger_name":"\u4e0a\u6d77,\u677e\u6c5f,\u77f3\u6e56,\u91d1\u80dc\u6751","pinyin":"JinShengCun","lng":"121.179230","lat":"30.965500"},{"id":169258,"parent_id":169246,"level":4,"area_code":"310117116215","zip_code":"201617","city_code":"021","name":"\u5f20\u5e84\u6751\u6751\u59d4\u4f1a","short_name":"\u5f20\u5e84\u6751","merger_name":"\u4e0a\u6d77,\u677e\u6c5f,\u77f3\u6e56,\u5f20\u5e84\u6751","pinyin":"ZhangZhuangCun","lng":"121.161090","lat":"30.978190"},{"id":169259,"parent_id":169246,"level":4,"area_code":"310117116217","zip_code":"201617","city_code":"021","name":"\u65b0\u4e2d\u6751\u6751\u59d4\u4f1a","short_name":"\u65b0\u4e2d\u6751","merger_name":"\u4e0a\u6d77,\u677e\u6c5f,\u77f3\u6e56,\u65b0\u4e2d\u6751","pinyin":"XinZhongCun","lng":"121.169640","lat":"30.972630"},{"id":169260,"parent_id":168957,"level":3,"area_code":"310117117000","zip_code":"201605","city_code":"021","name":"\u65b0\u6d5c\u9547","short_name":"\u65b0\u6d5c","merger_name":"\u4e0a\u6d77,\u677e\u6c5f,\u65b0\u6d5c","pinyin":"XinBang","lng":"121.075160","lat":"30.934530"},{"id":169261,"parent_id":169260,"level":4,"area_code":"310117117002","zip_code":"201605","city_code":"021","name":"\u6843\u56ed\u5c45\u59d4\u4f1a","short_name":"\u6843\u56ed","merger_name":"\u4e0a\u6d77,\u677e\u6c5f,\u65b0\u6d5c,\u6843\u56ed","pinyin":"TaoYuan","lng":"121.067630","lat":"30.930750"},{"id":169262,"parent_id":169260,"level":4,"area_code":"310117117003","zip_code":"201605","city_code":"021","name":"\u65b9\u5bb6\u54c8\u5c45\u59d4\u4f1a","short_name":"\u65b9\u5bb6\u54c8","merger_name":"\u4e0a\u6d77,\u677e\u6c5f,\u65b0\u6d5c,\u65b9\u5bb6\u54c8","pinyin":"FangJiaHa","lng":"121.078460","lat":"30.934580"},{"id":169263,"parent_id":169260,"level":4,"area_code":"310117117204","zip_code":"201605","city_code":"021","name":"\u9c81\u661f\u6751\u6751\u59d4\u4f1a","short_name":"\u9c81\u661f\u6751","merger_name":"\u4e0a\u6d77,\u677e\u6c5f,\u65b0\u6d5c,\u9c81\u661f\u6751","pinyin":"LuXingCun","lng":"121.090870","lat":"30.953540"},{"id":169264,"parent_id":169260,"level":4,"area_code":"310117117207","zip_code":"201605","city_code":"021","name":"\u5357\u6768\u6751\u6751\u59d4\u4f1a","short_name":"\u5357\u6768\u6751","merger_name":"\u4e0a\u6d77,\u677e\u6c5f,\u65b0\u6d5c,\u5357\u6768\u6751","pinyin":"NanYangCun","lng":"121.052340","lat":"30.947990"},{"id":169265,"parent_id":169260,"level":4,"area_code":"310117117208","zip_code":"201605","city_code":"021","name":"\u9648\u5835\u6751\u6751\u59d4\u4f1a","short_name":"\u9648\u5835\u6751","merger_name":"\u4e0a\u6d77,\u677e\u6c5f,\u65b0\u6d5c,\u9648\u5835\u6751","pinyin":"ChenDuCun","lng":"121.067410","lat":"30.924690"},{"id":169266,"parent_id":169260,"level":4,"area_code":"310117117210","zip_code":"201605","city_code":"021","name":"\u8d75\u738b\u6751\u6751\u59d4\u4f1a","short_name":"\u8d75\u738b\u6751","merger_name":"\u4e0a\u6d77,\u677e\u6c5f,\u65b0\u6d5c,\u8d75\u738b\u6751","pinyin":"ZhaoWangCun","lng":"121.050540","lat":"30.914340"},{"id":169267,"parent_id":169260,"level":4,"area_code":"310117117212","zip_code":"201605","city_code":"021","name":"\u6797\u5efa\u6751\u6751\u59d4\u4f1a","short_name":"\u6797\u5efa\u6751","merger_name":"\u4e0a\u6d77,\u677e\u6c5f,\u65b0\u6d5c,\u6797\u5efa\u6751","pinyin":"LinJianCun","lng":"121.039900","lat":"30.933960"},{"id":169268,"parent_id":169260,"level":4,"area_code":"310117117213","zip_code":"201605","city_code":"021","name":"\u8bb8\u5bb6\u8349\u6751\u6751\u59d4\u4f1a","short_name":"\u8bb8\u5bb6\u8349\u6751","merger_name":"\u4e0a\u6d77,\u677e\u6c5f,\u65b0\u6d5c,\u8bb8\u5bb6\u8349\u6751","pinyin":"XuJiaCaoCun","lng":"121.052390","lat":"30.935790"},{"id":169269,"parent_id":169260,"level":4,"area_code":"310117117215","zip_code":"201605","city_code":"021","name":"\u65b0\u6d5c\u6751\u6751\u59d4\u4f1a","short_name":"\u65b0\u6d5c\u6751","merger_name":"\u4e0a\u6d77,\u677e\u6c5f,\u65b0\u6d5c,\u65b0\u6d5c\u6751","pinyin":"XinBangCun","lng":"121.067410","lat":"30.924690"},{"id":169270,"parent_id":169260,"level":4,"area_code":"310117117216","zip_code":"201605","city_code":"021","name":"\u9ec4\u5bb6\u57ed\u6751\u6751\u59d4\u4f1a","short_name":"\u9ec4\u5bb6\u57ed\u6751","merger_name":"\u4e0a\u6d77,\u677e\u6c5f,\u65b0\u6d5c,\u9ec4\u5bb6\u57ed\u6751","pinyin":"HuangJiaDaiCun","lng":"121.066430","lat":"30.943220"},{"id":169271,"parent_id":169260,"level":4,"area_code":"310117117217","zip_code":"201605","city_code":"021","name":"\u6587\u534e\u6751\u6751\u59d4\u4f1a","short_name":"\u6587\u534e\u6751","merger_name":"\u4e0a\u6d77,\u677e\u6c5f,\u65b0\u6d5c,\u6587\u534e\u6751","pinyin":"WenHuaCun","lng":"121.104030","lat":"30.936730"},{"id":169272,"parent_id":169260,"level":4,"area_code":"310117117218","zip_code":"201605","city_code":"021","name":"\u80e1\u5bb6\u57ed\u6751\u6751\u59d4\u4f1a","short_name":"\u80e1\u5bb6\u57ed\u6751","merger_name":"\u4e0a\u6d77,\u677e\u6c5f,\u65b0\u6d5c,\u80e1\u5bb6\u57ed\u6751","pinyin":"HuJiaDaiCun","lng":"121.091660","lat":"30.935310"},{"id":169273,"parent_id":169260,"level":4,"area_code":"310117117220","zip_code":"201605","city_code":"021","name":"\u9999\u5858\u6751\u6751\u59d4\u4f1a","short_name":"\u9999\u5858\u6751","merger_name":"\u4e0a\u6d77,\u677e\u6c5f,\u65b0\u6d5c,\u9999\u5858\u6751","pinyin":"XiangTangCun","lng":"121.067410","lat":"30.924690"},{"id":169274,"parent_id":168957,"level":3,"area_code":"310117120000","zip_code":"201609","city_code":"021","name":"\u53f6\u69ad\u9547","short_name":"\u53f6\u69ad","merger_name":"\u4e0a\u6d77,\u677e\u6c5f,\u53f6\u69ad","pinyin":"YeXie","lng":"121.317900","lat":"30.943110"},{"id":169275,"parent_id":169274,"level":4,"area_code":"310117120002","zip_code":"201608","city_code":"021","name":"\u5f20\u6cfd\u5c45\u59d4\u4f1a","short_name":"\u5f20\u6cfd","merger_name":"\u4e0a\u6d77,\u677e\u6c5f,\u53f6\u69ad,\u5f20\u6cfd","pinyin":"ZhangZe","lng":"121.276560","lat":"30.930220"},{"id":169276,"parent_id":169274,"level":4,"area_code":"310117120003","zip_code":"201609","city_code":"021","name":"\u4e2d\u539f\u5c45\u59d4\u4f1a","short_name":"\u4e2d\u539f","merger_name":"\u4e0a\u6d77,\u677e\u6c5f,\u53f6\u69ad,\u4e2d\u539f","pinyin":"ZhongYuan","lng":"121.323670","lat":"30.949350"},{"id":169277,"parent_id":169274,"level":4,"area_code":"310117120004","zip_code":"201609","city_code":"021","name":"\u4e16\u5f3a\u5c45\u59d4\u4f1a","short_name":"\u4e16\u5f3a","merger_name":"\u4e0a\u6d77,\u677e\u6c5f,\u53f6\u69ad,\u4e16\u5f3a","pinyin":"ShiQiang","lng":"121.313830","lat":"30.938850"},{"id":169278,"parent_id":169274,"level":4,"area_code":"310117120202","zip_code":"201609","city_code":"021","name":"\u540c\u5efa\u6751\u6751\u59d4\u4f1a","short_name":"\u540c\u5efa\u6751","merger_name":"\u4e0a\u6d77,\u677e\u6c5f,\u53f6\u69ad,\u540c\u5efa\u6751","pinyin":"TongJianCun","lng":"121.320550","lat":"30.919270"},{"id":169279,"parent_id":169274,"level":4,"area_code":"310117120203","zip_code":"201609","city_code":"021","name":"\u91d1\u5bb6\u6751\u6751\u59d4\u4f1a","short_name":"\u91d1\u5bb6\u6751","merger_name":"\u4e0a\u6d77,\u677e\u6c5f,\u53f6\u69ad,\u91d1\u5bb6\u6751","pinyin":"JinJiaCun","lng":"121.314750","lat":"30.946770"},{"id":169280,"parent_id":169274,"level":4,"area_code":"310117120205","zip_code":"201609","city_code":"021","name":"\u4e1c\u77f3\u6751\u6751\u59d4\u4f1a","short_name":"\u4e1c\u77f3\u6751","merger_name":"\u4e0a\u6d77,\u677e\u6c5f,\u53f6\u69ad,\u4e1c\u77f3\u6751","pinyin":"DongShiCun","lng":"121.347850","lat":"30.937700"},{"id":169281,"parent_id":169274,"level":4,"area_code":"310117120206","zip_code":"201609","city_code":"021","name":"\u5174\u8fbe\u6751\u6751\u59d4\u4f1a","short_name":"\u5174\u8fbe\u6751","merger_name":"\u4e0a\u6d77,\u677e\u6c5f,\u53f6\u69ad,\u5174\u8fbe\u6751","pinyin":"XingDaCun","lng":"121.334660","lat":"30.948940"},{"id":169282,"parent_id":169274,"level":4,"area_code":"310117120208","zip_code":"201609","city_code":"021","name":"\u4e1c\u52e4\u6751\u6751\u59d4\u4f1a","short_name":"\u4e1c\u52e4\u6751","merger_name":"\u4e0a\u6d77,\u677e\u6c5f,\u53f6\u69ad,\u4e1c\u52e4\u6751","pinyin":"DongQinCun","lng":"121.343150","lat":"30.963440"},{"id":169283,"parent_id":169274,"level":4,"area_code":"310117120210","zip_code":"201609","city_code":"021","name":"\u5830\u6cfe\u6751\u6751\u59d4\u4f1a","short_name":"\u5830\u6cfe\u6751","merger_name":"\u4e0a\u6d77,\u677e\u6c5f,\u53f6\u69ad,\u5830\u6cfe\u6751","pinyin":"YanJingCun","lng":"121.330170","lat":"30.963240"},{"id":169284,"parent_id":169274,"level":4,"area_code":"310117120211","zip_code":"201609","city_code":"021","name":"\u56e2\u7ed3\u6751\u6751\u59d4\u4f1a","short_name":"\u56e2\u7ed3\u6751","merger_name":"\u4e0a\u6d77,\u677e\u6c5f,\u53f6\u69ad,\u56e2\u7ed3\u6751","pinyin":"TuanJieCun","lng":"121.314750","lat":"30.946770"},{"id":169285,"parent_id":169274,"level":4,"area_code":"310117120213","zip_code":"201608","city_code":"021","name":"\u56db\u6751\u6751\u6751\u59d4\u4f1a","short_name":"\u56db\u6751\u6751","merger_name":"\u4e0a\u6d77,\u677e\u6c5f,\u53f6\u69ad,\u56db\u6751\u6751","pinyin":"SiCunCun","lng":"121.215070","lat":"31.304080"},{"id":169286,"parent_id":169274,"level":4,"area_code":"310117120214","zip_code":"201608","city_code":"021","name":"\u4e95\u51cc\u6865\u6751\u6751\u59d4\u4f1a","short_name":"\u4e95\u51cc\u6865\u6751","merger_name":"\u4e0a\u6d77,\u677e\u6c5f,\u53f6\u69ad,\u4e95\u51cc\u6865\u6751","pinyin":"JingLingQiaoCun","lng":"121.258200","lat":"30.930240"},{"id":169287,"parent_id":169274,"level":4,"area_code":"310117120216","zip_code":"201608","city_code":"021","name":"\u5927\u5e99\u6751\u6751\u59d4\u4f1a","short_name":"\u5927\u5e99\u6751","merger_name":"\u4e0a\u6d77,\u677e\u6c5f,\u53f6\u69ad,\u5927\u5e99\u6751","pinyin":"DaMiaoCun","lng":"121.266380","lat":"30.917490"},{"id":169288,"parent_id":169274,"level":4,"area_code":"310117120217","zip_code":"201608","city_code":"021","name":"\u9a6c\u6865\u6751\u6751\u59d4\u4f1a","short_name":"\u9a6c\u6865\u6751","merger_name":"\u4e0a\u6d77,\u677e\u6c5f,\u53f6\u69ad,\u9a6c\u6865\u6751","pinyin":"MaQiaoCun","lng":"121.275570","lat":"30.909860"},{"id":169289,"parent_id":169274,"level":4,"area_code":"310117120218","zip_code":"201608","city_code":"021","name":"\u516b\u5b57\u6865\u6751\u6751\u59d4\u4f1a","short_name":"\u516b\u5b57\u6865\u6751","merger_name":"\u4e0a\u6d77,\u677e\u6c5f,\u53f6\u69ad,\u516b\u5b57\u6865\u6751","pinyin":"BaZiQiaoCun","lng":"121.283770","lat":"30.929880"},{"id":169290,"parent_id":169274,"level":4,"area_code":"310117120220","zip_code":"201608","city_code":"021","name":"\u5f90\u59da\u6751\u6751\u59d4\u4f1a","short_name":"\u5f90\u59da\u6751","merger_name":"\u4e0a\u6d77,\u677e\u6c5f,\u53f6\u69ad,\u5f90\u59da\u6751","pinyin":"XuYaoCun","lng":"121.275320","lat":"30.942710"},{"id":169291,"parent_id":168957,"level":3,"area_code":"310117121000","zip_code":"201615","city_code":"021","name":"\u5c0f\u6606\u5c71\u9547","short_name":"\u5c0f\u6606","merger_name":"\u4e0a\u6d77,\u677e\u6c5f,\u5c0f\u6606","pinyin":"XiaoKun","lng":"121.132480","lat":"31.029350"},{"id":169292,"parent_id":169291,"level":4,"area_code":"310117121001","zip_code":"201616","city_code":"021","name":"\u79e6\u5b89\u5c45\u59d4\u4f1a","short_name":"\u79e6\u5b89","merger_name":"\u4e0a\u6d77,\u677e\u6c5f,\u5c0f\u6606,\u79e6\u5b89","pinyin":"QinAn","lng":"121.141230","lat":"31.031420"},{"id":169293,"parent_id":169291,"level":4,"area_code":"310117121002","zip_code":"201616","city_code":"021","name":"\u5e73\u539f\u5c45\u59d4\u4f1a","short_name":"\u5e73\u539f","merger_name":"\u4e0a\u6d77,\u677e\u6c5f,\u5c0f\u6606,\u5e73\u539f","pinyin":"PingYuan","lng":"121.124620","lat":"31.029800"},{"id":169294,"parent_id":169291,"level":4,"area_code":"310117121003","zip_code":"201616","city_code":"021","name":"\u6606\u897f\u5c45\u59d4\u4f1a","short_name":"\u6606\u897f","merger_name":"\u4e0a\u6d77,\u677e\u6c5f,\u5c0f\u6606,\u6606\u897f","pinyin":"KunXi","lng":"121.141230","lat":"31.031420"},{"id":169295,"parent_id":169291,"level":4,"area_code":"310117121004","zip_code":"201614","city_code":"021","name":"\u5927\u6e2f\u5c45\u59d4\u4f1a","short_name":"\u5927\u6e2f","merger_name":"\u4e0a\u6d77,\u677e\u6c5f,\u5c0f\u6606,\u5927\u6e2f","pinyin":"DaGang","lng":"121.149730","lat":"31.006660"},{"id":169296,"parent_id":169291,"level":4,"area_code":"310117121005","zip_code":"201616","city_code":"021","name":"\u7389\u6606\u4e00\u6751\u5c45\u59d4\u4f1a","short_name":"\u7389\u6606\u4e00\u6751","merger_name":"\u4e0a\u6d77,\u677e\u6c5f,\u5c0f\u6606,\u7389\u6606\u4e00\u6751","pinyin":"YuKunYiCun","lng":"121.148220","lat":"31.009780"},{"id":169297,"parent_id":169291,"level":4,"area_code":"310117121006","zip_code":"201616","city_code":"021","name":"\u7389\u6606\u4e8c\u6751\u5c45\u59d4\u4f1a","short_name":"\u7389\u6606\u4e8c\u6751","merger_name":"\u4e0a\u6d77,\u677e\u6c5f,\u5c0f\u6606,\u7389\u6606\u4e8c\u6751","pinyin":"YuKunErCun","lng":"121.148220","lat":"31.009780"},{"id":169298,"parent_id":169291,"level":4,"area_code":"310117121007","zip_code":"201620","city_code":"021","name":"\u6587\u664b\u82d1\u5c45\u59d4\u4f1a","short_name":"\u6587\u664b\u82d1","merger_name":"\u4e0a\u6d77,\u677e\u6c5f,\u5c0f\u6606,\u6587\u664b\u82d1","pinyin":"WenJinYuan","lng":"121.124620","lat":"31.029800"},{"id":169299,"parent_id":169291,"level":4,"area_code":"310117121008","zip_code":"201600","city_code":"021","name":"\u7fd4\u6606\u82d1\u5c45\u59d4\u4f1a","short_name":"\u7fd4\u6606\u82d1","merger_name":"\u4e0a\u6d77,\u677e\u6c5f,\u5c0f\u6606,\u7fd4\u6606\u82d1","pinyin":"XiangKunYuan","lng":"121.124620","lat":"31.029800"},{"id":169300,"parent_id":169291,"level":4,"area_code":"310117121009","zip_code":"201600","city_code":"021","name":"\u5e73\u590d\u82d1\u5c45\u59d4\u4f1a","short_name":"\u5e73\u590d\u82d1","merger_name":"\u4e0a\u6d77,\u677e\u6c5f,\u5c0f\u6606,\u5e73\u590d\u82d1","pinyin":"PingFuYuan","lng":"121.268640","lat":"31.117190"},{"id":169301,"parent_id":169291,"level":4,"area_code":"310117121201","zip_code":"201616","city_code":"021","name":"\u5468\u5bb6\u6d5c\u6751\u6751\u59d4\u4f1a","short_name":"\u5468\u5bb6\u6d5c\u6751","merger_name":"\u4e0a\u6d77,\u677e\u6c5f,\u5c0f\u6606,\u5468\u5bb6\u6d5c\u6751","pinyin":"ZhouJiaBangCun","lng":"121.117330","lat":"31.027880"},{"id":169302,"parent_id":169291,"level":4,"area_code":"310117121202","zip_code":"201612","city_code":"021","name":"\u6c64\u6751\u6751\u59d4\u4f1a","short_name":"\u6c64\u6751","merger_name":"\u4e0a\u6d77,\u677e\u6c5f,\u5c0f\u6606,\u6c64\u6751","pinyin":"TangCun","lng":"121.112690","lat":"31.035300"},{"id":169303,"parent_id":169291,"level":4,"area_code":"310117121203","zip_code":"201616","city_code":"021","name":"\u6c38\u4e30\u6751\u6751\u59d4\u4f1a","short_name":"\u6c38\u4e30\u6751","merger_name":"\u4e0a\u6d77,\u677e\u6c5f,\u5c0f\u6606,\u6c38\u4e30\u6751","pinyin":"YongFengCun","lng":"121.090161","lat":"31.053602"},{"id":169304,"parent_id":169291,"level":4,"area_code":"310117121204","zip_code":"201616","city_code":"021","name":"\u8361\u6e7e\u6751\u6751\u59d4\u4f1a","short_name":"\u8361\u6e7e\u6751","merger_name":"\u4e0a\u6d77,\u677e\u6c5f,\u5c0f\u6606,\u8361\u6e7e\u6751","pinyin":"DangWanCun","lng":"121.131269","lat":"31.047269"},{"id":169305,"parent_id":169291,"level":4,"area_code":"310117121205","zip_code":"201616","city_code":"021","name":"\u6cfe\u5fb7\u6751\u6751\u59d4\u4f1a","short_name":"\u6cfe\u5fb7\u6751","merger_name":"\u4e0a\u6d77,\u677e\u6c5f,\u5c0f\u6606,\u6cfe\u5fb7\u6751","pinyin":"JingDeCun","lng":"121.141230","lat":"31.031420"},{"id":169306,"parent_id":169291,"level":4,"area_code":"310117121206","zip_code":"201616","city_code":"021","name":"\u6e2f\u4e30\u6751\u6751\u59d4\u4f1a","short_name":"\u6e2f\u4e30\u6751","merger_name":"\u4e0a\u6d77,\u677e\u6c5f,\u5c0f\u6606,\u6e2f\u4e30\u6751","pinyin":"GangFengCun","lng":"121.148120","lat":"31.005490"},{"id":169307,"parent_id":169291,"level":4,"area_code":"310117121207","zip_code":"201616","city_code":"021","name":"\u5927\u6e2f\u6751\u6751\u59d4\u4f1a","short_name":"\u5927\u6e2f\u6751","merger_name":"\u4e0a\u6d77,\u677e\u6c5f,\u5c0f\u6606,\u5927\u6e2f\u6751","pinyin":"DaGangCun","lng":"121.148120","lat":"31.005490"},{"id":169308,"parent_id":169291,"level":4,"area_code":"310117121208","zip_code":"201616","city_code":"021","name":"\u9646\u5bb6\u57ed\u6751\u6751\u59d4\u4f1a","short_name":"\u9646\u5bb6\u57ed\u6751","merger_name":"\u4e0a\u6d77,\u677e\u6c5f,\u5c0f\u6606,\u9646\u5bb6\u57ed\u6751","pinyin":"LuJiaDaiCun","lng":"121.150970","lat":"31.004300"},{"id":169309,"parent_id":168957,"level":3,"area_code":"310117501000","zip_code":"201607","city_code":"021","name":"\u677e\u6c5f\u5de5\u4e1a\u533a","short_name":"\u677e\u6c5f\u5de5\u4e1a\u533a","merger_name":"\u4e0a\u6d77,\u677e\u6c5f,\u677e\u6c5f\u5de5\u4e1a\u533a","pinyin":"SongJiangGongYeQu","lng":"121.272470","lat":"31.024300"},{"id":169310,"parent_id":169309,"level":4,"area_code":"310117501498","zip_code":"201607","city_code":"021","name":"\u677e\u6c5f\u5de5\u4e1a\u533a\u865a\u62df\u793e\u533a","short_name":"\u677e\u6c5f\u5de5\u4e1a\u533a","merger_name":"\u4e0a\u6d77,\u677e\u6c5f,\u677e\u6c5f\u5de5\u4e1a\u533a,\u677e\u6c5f\u5de5\u4e1a\u533a","pinyin":"SongJiangGongYeQu","lng":"121.235880","lat":"31.023140"},{"id":169311,"parent_id":168957,"level":3,"area_code":"310117504000","zip_code":"201602","city_code":"021","name":"\u4f58\u5c71\u5ea6\u5047\u533a","short_name":"\u4f58\u5c71\u5ea6\u5047\u533a","merger_name":"\u4e0a\u6d77,\u677e\u6c5f,\u4f58\u5c71\u5ea6\u5047\u533a","pinyin":"SheShanDuJiaQu","lng":"121.203800","lat":"31.086540"},{"id":169312,"parent_id":169311,"level":4,"area_code":"310117504498","zip_code":"201602","city_code":"021","name":"\u4f58\u5c71\u5ea6\u5047\u533a\u865a\u62df\u793e\u533a","short_name":"\u4f58\u5c71\u5ea6\u5047\u533a","merger_name":"\u4e0a\u6d77,\u677e\u6c5f,\u4f58\u5c71\u5ea6\u5047\u533a,\u4f58\u5c71\u5ea6\u5047\u533a","pinyin":"SheShanDuJiaQu","lng":"121.178600","lat":"31.096940"},{"id":169313,"parent_id":168957,"level":3,"area_code":"310117507000","zip_code":"201620","city_code":"021","name":"\u4e0a\u6d77\u677e\u6c5f\u51fa\u53e3\u52a0\u5de5\u533a","short_name":"\u4e0a\u6d77\u677e\u6c5f\u51fa\u53e3\u52a0\u5de5\u533a","merger_name":"\u4e0a\u6d77,\u677e\u6c5f,\u4e0a\u6d77\u677e\u6c5f\u51fa\u53e3\u52a0\u5de5\u533a","pinyin":"ShangHaiSongJiangChuKouJiaGong","lng":"121.287414","lat":"31.015901"},