[{"id":197001,"parent_id":196989,"level":4,"area_code":"330127106257","zip_code":"311722","city_code":"0571","name":"\u767d\u576a\u6751\u6751\u6c11\u59d4\u5458\u4f1a","short_name":"\u767d\u576a\u6751","merger_name":"\u6d59\u6c5f,\u676d\u5dde,\u6df3\u5b89,\u59dc\u5bb6,\u767d\u576a\u6751","pinyin":"BaiPingCun","lng":"118.658140","lat":"29.472080"},{"id":197002,"parent_id":196989,"level":4,"area_code":"330127106258","zip_code":"311722","city_code":"0571","name":"\u9ec4\u6751\u6865\u6751\u6751\u6c11\u59d4\u5458\u4f1a","short_name":"\u9ec4\u6751\u6865\u6751","merger_name":"\u6d59\u6c5f,\u676d\u5dde,\u6df3\u5b89,\u59dc\u5bb6,\u9ec4\u6751\u6865\u6751","pinyin":"HuangCunQiaoCun","lng":"118.654240","lat":"29.502830"},{"id":197003,"parent_id":196989,"level":4,"area_code":"330127106259","zip_code":"311722","city_code":"0571","name":"\u971e\u793e\u6751\u6751\u6c11\u59d4\u5458\u4f1a","short_name":"\u971e\u793e\u6751","merger_name":"\u6d59\u6c5f,\u676d\u5dde,\u6df3\u5b89,\u59dc\u5bb6,\u971e\u793e\u6751","pinyin":"XiaSheCun","lng":"118.658140","lat":"29.472080"},{"id":197004,"parent_id":196989,"level":4,"area_code":"330127106260","zip_code":"311722","city_code":"0571","name":"\u59dc\u5bb6\u6751\u6751\u6c11\u59d4\u5458\u4f1a","short_name":"\u59dc\u5bb6\u6751","merger_name":"\u6d59\u6c5f,\u676d\u5dde,\u6df3\u5b89,\u59dc\u5bb6,\u59dc\u5bb6\u6751","pinyin":"JiangJiaCun","lng":"118.658140","lat":"29.472080"},{"id":197005,"parent_id":196989,"level":4,"area_code":"330127106261","zip_code":"311722","city_code":"0571","name":"\u53cc\u6eaa\u6751\u6751\u6c11\u59d4\u5458\u4f1a","short_name":"\u53cc\u6eaa\u6751","merger_name":"\u6d59\u6c5f,\u676d\u5dde,\u6df3\u5b89,\u59dc\u5bb6,\u53cc\u6eaa\u6751","pinyin":"ShuangXiCun","lng":"118.701210","lat":"29.529080"},{"id":197006,"parent_id":196989,"level":4,"area_code":"330127106262","zip_code":"311722","city_code":"0571","name":"\u971e\u4e94\u6751\u6751\u6c11\u59d4\u5458\u4f1a","short_name":"\u971e\u4e94\u6751","merger_name":"\u6d59\u6c5f,\u676d\u5dde,\u6df3\u5b89,\u59dc\u5bb6,\u971e\u4e94\u6751","pinyin":"XiaWuCun","lng":"118.658140","lat":"29.472080"},{"id":197007,"parent_id":196989,"level":4,"area_code":"330127106263","zip_code":"311722","city_code":"0571","name":"\u8d64\u57ce\u6751\u6751\u6c11\u59d4\u5458\u4f1a","short_name":"\u8d64\u57ce\u6751","merger_name":"\u6d59\u6c5f,\u676d\u5dde,\u6df3\u5b89,\u59dc\u5bb6,\u8d64\u57ce\u6751","pinyin":"ChiChengCun","lng":"118.658140","lat":"29.472080"},{"id":197008,"parent_id":196989,"level":4,"area_code":"330127106264","zip_code":"311722","city_code":"0571","name":"\u6d6e\u6797\u6751\u6751\u6c11\u59d4\u5458\u4f1a","short_name":"\u6d6e\u6797\u6751","merger_name":"\u6d59\u6c5f,\u676d\u5dde,\u6df3\u5b89,\u59dc\u5bb6,\u6d6e\u6797\u6751","pinyin":"FuLinCun","lng":"118.610770","lat":"29.494630"},{"id":197009,"parent_id":196989,"level":4,"area_code":"330127106265","zip_code":"311722","city_code":"0571","name":"\u7ae0\u6751\u6751\u6751\u6c11\u59d4\u5458\u4f1a","short_name":"\u7ae0\u6751\u6751","merger_name":"\u6d59\u6c5f,\u676d\u5dde,\u6df3\u5b89,\u59dc\u5bb6,\u7ae0\u6751\u6751","pinyin":"ZhangCunCun","lng":"118.610130","lat":"29.571230"},{"id":197010,"parent_id":196989,"level":4,"area_code":"330127106266","zip_code":"311722","city_code":"0571","name":"\u6c88\u7548\u6751\u6751\u6c11\u59d4\u5458\u4f1a","short_name":"\u6c88\u7548\u6751","merger_name":"\u6d59\u6c5f,\u676d\u5dde,\u6df3\u5b89,\u59dc\u5bb6,\u6c88\u7548\u6751","pinyin":"ShenFanCun","lng":"118.610130","lat":"29.571230"},{"id":197011,"parent_id":196989,"level":4,"area_code":"330127106267","zip_code":"311722","city_code":"0571","name":"\u6842\u6eaa\u6751\u6751\u6c11\u59d4\u5458\u4f1a","short_name":"\u6842\u6eaa\u6751","merger_name":"\u6d59\u6c5f,\u676d\u5dde,\u6df3\u5b89,\u59dc\u5bb6,\u6842\u6eaa\u6751","pinyin":"GuiXiCun","lng":"118.721311","lat":"29.507273"},{"id":197012,"parent_id":196989,"level":4,"area_code":"330127106268","zip_code":"311722","city_code":"0571","name":"\u72ee\u77f3\u6751\u6751\u6c11\u59d4\u5458\u4f1a","short_name":"\u72ee\u77f3\u6751","merger_name":"\u6d59\u6c5f,\u676d\u5dde,\u6df3\u5b89,\u59dc\u5bb6,\u72ee\u77f3\u6751","pinyin":"ShiShiCun","lng":"118.598870","lat":"29.507800"},{"id":197013,"parent_id":196989,"level":4,"area_code":"330127106269","zip_code":"311722","city_code":"0571","name":"\u9f99\u5ddd\u6751\u6751\u6c11\u59d4\u5458\u4f1a","short_name":"\u9f99\u5ddd\u6751","merger_name":"\u6d59\u6c5f,\u676d\u5dde,\u6df3\u5b89,\u59dc\u5bb6,\u9f99\u5ddd\u6751","pinyin":"LongChuanCun","lng":"118.658140","lat":"29.472080"},{"id":197014,"parent_id":196989,"level":4,"area_code":"330127106270","zip_code":"311722","city_code":"0571","name":"\u4e0a\u7389\u6cc9\u6751\u6751\u6c11\u59d4\u5458\u4f1a","short_name":"\u4e0a\u7389\u6cc9\u6751","merger_name":"\u6d59\u6c5f,\u676d\u5dde,\u6df3\u5b89,\u59dc\u5bb6,\u4e0a\u7389\u6cc9\u6751","pinyin":"ShangYuQuanCun","lng":"118.610770","lat":"29.494630"},{"id":197015,"parent_id":196989,"level":4,"area_code":"330127106271","zip_code":"311722","city_code":"0571","name":"\u7403\u5c71\u6751\u6751\u6c11\u59d4\u5458\u4f1a","short_name":"\u7403\u5c71\u6751","merger_name":"\u6d59\u6c5f,\u676d\u5dde,\u6df3\u5b89,\u59dc\u5bb6,\u7403\u5c71\u6751","pinyin":"QiuShanCun","lng":"118.598870","lat":"29.507800"},{"id":197016,"parent_id":196989,"level":4,"area_code":"330127106272","zip_code":"311722","city_code":"0571","name":"\u94f6\u5cf0\u6751\u6751\u6c11\u59d4\u5458\u4f1a","short_name":"\u94f6\u5cf0\u6751","merger_name":"\u6d59\u6c5f,\u676d\u5dde,\u6df3\u5b89,\u59dc\u5bb6,\u94f6\u5cf0\u6751","pinyin":"YinFengCun","lng":"118.586480","lat":"29.518260"},{"id":197017,"parent_id":196989,"level":4,"area_code":"330127106273","zip_code":"311722","city_code":"0571","name":"\u90ed\u6751\u6751\u6751\u6c11\u59d4\u5458\u4f1a","short_name":"\u90ed\u6751\u6751","merger_name":"\u6d59\u6c5f,\u676d\u5dde,\u6df3\u5b89,\u59dc\u5bb6,\u90ed\u6751\u6751","pinyin":"GuoCunCun","lng":"118.637280","lat":"29.554740"},{"id":197018,"parent_id":196989,"level":4,"area_code":"330127106274","zip_code":"311722","city_code":"0571","name":"\u53cc\u6eaa\u53e3\u6751\u6751\u6c11\u59d4\u5458\u4f1a","short_name":"\u53cc\u6eaa\u53e3\u6751","merger_name":"\u6d59\u6c5f,\u676d\u5dde,\u6df3\u5b89,\u59dc\u5bb6,\u53cc\u6eaa\u53e3\u6751","pinyin":"ShuangXiKouCun","lng":"118.605840","lat":"29.621890"},{"id":197019,"parent_id":196864,"level":3,"area_code":"330127107000","zip_code":"311711","city_code":"0571","name":"\u6893\u6850\u9547","short_name":"\u6893\u6850","merger_name":"\u6d59\u6c5f,\u676d\u5dde,\u6df3\u5b89,\u6893\u6850","pinyin":"ZiTong","lng":"118.762050","lat":"29.606100"},{"id":197020,"parent_id":197019,"level":4,"area_code":"330127107202","zip_code":"311711","city_code":"0571","name":"\u7ec3\u6eaa\u6751\u6751\u6c11\u59d4\u5458\u4f1a","short_name":"\u7ec3\u6eaa\u6751","merger_name":"\u6d59\u6c5f,\u676d\u5dde,\u6df3\u5b89,\u6893\u6850,\u7ec3\u6eaa\u6751","pinyin":"LianXiCun","lng":"118.721311","lat":"29.507273"},{"id":197021,"parent_id":197019,"level":4,"area_code":"330127107208","zip_code":"311711","city_code":"0571","name":"\u5bcc\u77f3\u6751\u6751\u6c11\u59d4\u5458\u4f1a","short_name":"\u5bcc\u77f3\u6751","merger_name":"\u6d59\u6c5f,\u676d\u5dde,\u6df3\u5b89,\u6893\u6850,\u5bcc\u77f3\u6751","pinyin":"FuShiCun","lng":"118.799540","lat":"29.571710"},{"id":197022,"parent_id":197019,"level":4,"area_code":"330127107211","zip_code":"311711","city_code":"0571","name":"\u9ec4\u6751\u6751\u6751\u6c11\u59d4\u5458\u4f1a","short_name":"\u9ec4\u6751\u6751","merger_name":"\u6d59\u6c5f,\u676d\u5dde,\u6df3\u5b89,\u6893\u6850,\u9ec4\u6751\u6751","pinyin":"HuangCunCun","lng":"118.785403","lat":"29.614447"},{"id":197023,"parent_id":197019,"level":4,"area_code":"330127107217","zip_code":"311711","city_code":"0571","name":"\u5e38\u5b81\u6751\u6751\u6c11\u59d4\u5458\u4f1a","short_name":"\u5e38\u5b81\u6751","merger_name":"\u6d59\u6c5f,\u676d\u5dde,\u6df3\u5b89,\u6893\u6850,\u5e38\u5b81\u6751","pinyin":"ChangNingCun","lng":"118.739035","lat":"29.584923"},{"id":197024,"parent_id":197019,"level":4,"area_code":"330127107223","zip_code":"311711","city_code":"0571","name":"\u5510\u5bb6\u6751\u6751\u6c11\u59d4\u5458\u4f1a","short_name":"\u5510\u5bb6\u6751","merger_name":"\u6d59\u6c5f,\u676d\u5dde,\u6df3\u5b89,\u6893\u6850,\u5510\u5bb6\u6751","pinyin":"TangJiaCun","lng":"118.746820","lat":"29.609070"},{"id":197025,"parent_id":197019,"level":4,"area_code":"330127107232","zip_code":"311711","city_code":"0571","name":"\u4e09\u8054\u6751\u6751\u6c11\u59d4\u5458\u4f1a","short_name":"\u4e09\u8054\u6751","merger_name":"\u6d59\u6c5f,\u676d\u5dde,\u6df3\u5b89,\u6893\u6850,\u4e09\u8054\u6751","pinyin":"SanLianCun","lng":"120.152500","lat":"29.948460"},{"id":197026,"parent_id":197019,"level":4,"area_code":"330127107238","zip_code":"311711","city_code":"0571","name":"\u897f\u6e56\u6751\u6751\u6c11\u59d4\u5458\u4f1a","short_name":"\u897f\u6e56\u6751","merger_name":"\u6d59\u6c5f,\u676d\u5dde,\u6df3\u5b89,\u6893\u6850,\u897f\u6e56\u6751","pinyin":"XiHuCun","lng":"119.498160","lat":"29.543630"},{"id":197027,"parent_id":197019,"level":4,"area_code":"330127107239","zip_code":"311711","city_code":"0571","name":"\u6148\u6eaa\u6751\u6751\u6c11\u59d4\u5458\u4f1a","short_name":"\u6148\u6eaa\u6751","merger_name":"\u6d59\u6c5f,\u676d\u5dde,\u6df3\u5b89,\u6893\u6850,\u6148\u6eaa\u6751","pinyin":"CiXiCun","lng":"118.796780","lat":"29.621590"},{"id":197028,"parent_id":197019,"level":4,"area_code":"330127107240","zip_code":"311711","city_code":"0571","name":"\u5e76\u5cf0\u6751\u6751\u6c11\u59d4\u5458\u4f1a","short_name":"\u5e76\u5cf0\u6751","merger_name":"\u6d59\u6c5f,\u676d\u5dde,\u6df3\u5b89,\u6893\u6850,\u5e76\u5cf0\u6751","pinyin":"BingFengCun","lng":"118.785403","lat":"29.614447"},{"id":197029,"parent_id":197019,"level":4,"area_code":"330127107241","zip_code":"311711","city_code":"0571","name":"\u53f6\u5bb6\u5e84\u6751\u6751\u6c11\u59d4\u5458\u4f1a","short_name":"\u53f6\u5bb6\u5e84\u6751","merger_name":"\u6d59\u6c5f,\u676d\u5dde,\u6df3\u5b89,\u6893\u6850,\u53f6\u5bb6\u5e84\u6751","pinyin":"YeJiaZhuangCun","lng":"118.779210","lat":"29.609910"},{"id":197030,"parent_id":197019,"level":4,"area_code":"330127107242","zip_code":"311711","city_code":"0571","name":"\u675c\u4e95\u6751\u6751\u6c11\u59d4\u5458\u4f1a","short_name":"\u675c\u4e95\u6751","merger_name":"\u6d59\u6c5f,\u676d\u5dde,\u6df3\u5b89,\u6893\u6850,\u675c\u4e95\u6751","pinyin":"DuJingCun","lng":"118.746820","lat":"29.609070"},{"id":197031,"parent_id":197019,"level":4,"area_code":"330127107243","zip_code":"311711","city_code":"0571","name":"\u5362\u5bb6\u6751\u6751\u6c11\u59d4\u5458\u4f1a","short_name":"\u5362\u5bb6\u6751","merger_name":"\u6d59\u6c5f,\u676d\u5dde,\u6df3\u5b89,\u6893\u6850,\u5362\u5bb6\u6751","pinyin":"LuJiaCun","lng":"118.746820","lat":"29.609070"},{"id":197032,"parent_id":197019,"level":4,"area_code":"330127107244","zip_code":"311711","city_code":"0571","name":"\u7ed3\u8499\u6751\u6751\u6c11\u59d4\u5458\u4f1a","short_name":"\u7ed3\u8499\u6751","merger_name":"\u6d59\u6c5f,\u676d\u5dde,\u6df3\u5b89,\u6893\u6850,\u7ed3\u8499\u6751","pinyin":"JieMengCun","lng":"118.785403","lat":"29.614447"},{"id":197033,"parent_id":197019,"level":4,"area_code":"330127107245","zip_code":"311711","city_code":"0571","name":"\u7a0b\u5bb6\u6e90\u6751\u6751\u6c11\u59d4\u5458\u4f1a","short_name":"\u7a0b\u5bb6\u6e90\u6751","merger_name":"\u6d59\u6c5f,\u676d\u5dde,\u6df3\u5b89,\u6893\u6850,\u7a0b\u5bb6\u6e90\u6751","pinyin":"ChengJiaYuanCun","lng":"118.785403","lat":"29.614447"},{"id":197034,"parent_id":197019,"level":4,"area_code":"330127107246","zip_code":"311711","city_code":"0571","name":"\u5c39\u5c71\u6751\u6751\u6c11\u59d4\u5458\u4f1a","short_name":"\u5c39\u5c71\u6751","merger_name":"\u6d59\u6c5f,\u676d\u5dde,\u6df3\u5b89,\u6893\u6850,\u5c39\u5c71\u6751","pinyin":"YinShanCun","lng":"118.679020","lat":"29.636980"},{"id":197035,"parent_id":197019,"level":4,"area_code":"330127107247","zip_code":"311711","city_code":"0571","name":"\u674f\u5bcc\u6751\u6751\u6c11\u59d4\u5458\u4f1a","short_name":"\u674f\u5bcc\u6751","merger_name":"\u6d59\u6c5f,\u676d\u5dde,\u6df3\u5b89,\u6893\u6850,\u674f\u5bcc\u6751","pinyin":"XingFuCun","lng":"118.746140","lat":"29.589490"},{"id":197036,"parent_id":197019,"level":4,"area_code":"330127107248","zip_code":"311711","city_code":"0571","name":"\u80e1\u6c5f\u6751\u6751\u6c11\u59d4\u5458\u4f1a","short_name":"\u80e1\u6c5f\u6751","merger_name":"\u6d59\u6c5f,\u676d\u5dde,\u6df3\u5b89,\u6893\u6850,\u80e1\u6c5f\u6751","pinyin":"HuJiangCun","lng":"118.703530","lat":"29.563240"},{"id":197037,"parent_id":197019,"level":4,"area_code":"330127107249","zip_code":"311711","city_code":"0571","name":"\u59dc\u6850\u6751\u6751\u6c11\u59d4\u5458\u4f1a","short_name":"\u59dc\u6850\u6751","merger_name":"\u6d59\u6c5f,\u676d\u5dde,\u6df3\u5b89,\u6893\u6850,\u59dc\u6850\u6751","pinyin":"JiangTongCun","lng":"118.785403","lat":"29.614447"},{"id":197038,"parent_id":197019,"level":4,"area_code":"330127107250","zip_code":"311711","city_code":"0571","name":"\u6cb3\u8054\u6751\u6751\u6c11\u59d4\u5458\u4f1a","short_name":"\u6cb3\u8054\u6751","merger_name":"\u6d59\u6c5f,\u676d\u5dde,\u6df3\u5b89,\u6893\u6850,\u6cb3\u8054\u6751","pinyin":"HeLianCun","lng":"118.701250","lat":"29.619750"},{"id":197039,"parent_id":196864,"level":3,"area_code":"330127108000","zip_code":"311721","city_code":"0571","name":"\u6c7e\u53e3\u9547","short_name":"\u6c7e\u53e3","merger_name":"\u6d59\u6c5f,\u676d\u5dde,\u6df3\u5b89,\u6c7e\u53e3","pinyin":"FenKou","lng":"118.550300","lat":"29.427750"},{"id":197040,"parent_id":197039,"level":4,"area_code":"330127108001","zip_code":"311719","city_code":"0571","name":"\u6768\u65d7\u793e\u533a","short_name":"\u6768\u65d7","merger_name":"\u6d59\u6c5f,\u676d\u5dde,\u6df3\u5b89,\u6c7e\u53e3,\u6768\u65d7","pinyin":"YangQi","lng":"118.550100","lat":"29.432690"},{"id":197041,"parent_id":197039,"level":4,"area_code":"330127108200","zip_code":"311719","city_code":"0571","name":"\u4ea4\u754c\u6751\u6751\u6c11\u59d4\u5458\u4f1a","short_name":"\u4ea4\u754c\u6751","merger_name":"\u6d59\u6c5f,\u676d\u5dde,\u6df3\u5b89,\u6c7e\u53e3,\u4ea4\u754c\u6751","pinyin":"JiaoJieCun","lng":"118.570390","lat":"29.435340"},{"id":197042,"parent_id":197039,"level":4,"area_code":"330127108201","zip_code":"311719","city_code":"0571","name":"\u5b8f\u9c8d\u6751\u6751\u6c11\u59d4\u5458\u4f1a","short_name":"\u5b8f\u9c8d\u6751","merger_name":"\u6d59\u6c5f,\u676d\u5dde,\u6df3\u5b89,\u6c7e\u53e3,\u5b8f\u9c8d\u6751","pinyin":"HongBaoCun","lng":"118.610770","lat":"29.494630"},{"id":197043,"parent_id":197039,"level":4,"area_code":"330127108209","zip_code":"311719","city_code":"0571","name":"\u6c6a\u5bb6\u6865\u6751\u6751\u6c11\u59d4\u5458\u4f1a","short_name":"\u6c6a\u5bb6\u6865\u6751","merger_name":"\u6d59\u6c5f,\u676d\u5dde,\u6df3\u5b89,\u6c7e\u53e3,\u6c6a\u5bb6\u6865\u6751","pinyin":"WangJiaQiaoCun","lng":"118.522960","lat":"29.391850"},{"id":197044,"parent_id":197039,"level":4,"area_code":"330127108211","zip_code":"311721","city_code":"0571","name":"\u6c6a\u5bb6\u6751\u6751\u6751\u6c11\u59d4\u5458\u4f1a","short_name":"\u6c6a\u5bb6\u6751\u6751","merger_name":"\u6d59\u6c5f,\u676d\u5dde,\u6df3\u5b89,\u6c7e\u53e3,\u6c6a\u5bb6\u6751\u6751","pinyin":"WangJiaCunCun","lng":"118.645610","lat":"29.378720"},{"id":197045,"parent_id":197039,"level":4,"area_code":"330127108218","zip_code":"311719","city_code":"0571","name":"\u5bfa\u4e0b\u6751\u6751\u6c11\u59d4\u5458\u4f1a","short_name":"\u5bfa\u4e0b\u6751","merger_name":"\u6d59\u6c5f,\u676d\u5dde,\u6df3\u5b89,\u6c7e\u53e3,\u5bfa\u4e0b\u6751","pinyin":"SiXiaCun","lng":"118.518920","lat":"29.411980"},{"id":197046,"parent_id":197039,"level":4,"area_code":"330127108219","zip_code":"311719","city_code":"0571","name":"\u77f3\u7548\u6751\u6751\u6c11\u59d4\u5458\u4f1a","short_name":"\u77f3\u7548\u6751","merger_name":"\u6d59\u6c5f,\u676d\u5dde,\u6df3\u5b89,\u6c7e\u53e3,\u77f3\u7548\u6751","pinyin":"ShiFanCun","lng":"118.512910","lat":"29.420910"},{"id":197047,"parent_id":197039,"level":4,"area_code":"330127108226","zip_code":"311719","city_code":"0571","name":"\u7b80\u95e8\u6751\u6751\u6c11\u59d4\u5458\u4f1a","short_name":"\u7b80\u95e8\u6751","merger_name":"\u6d59\u6c5f,\u676d\u5dde,\u6df3\u5b89,\u6c7e\u53e3,\u7b80\u95e8\u6751","pinyin":"JianMenCun","lng":"118.570390","lat":"29.435340"},{"id":197048,"parent_id":197039,"level":4,"area_code":"330127108227","zip_code":"311719","city_code":"0571","name":"\u7ecf\u95e8\u6751\u6751\u6c11\u59d4\u5458\u4f1a","short_name":"\u7ecf\u95e8\u6751","merger_name":"\u6d59\u6c5f,\u676d\u5dde,\u6df3\u5b89,\u6c7e\u53e3,\u7ecf\u95e8\u6751","pinyin":"JingMenCun","lng":"118.610770","lat":"29.494630"},{"id":197049,"parent_id":197039,"level":4,"area_code":"330127108228","zip_code":"311719","city_code":"0571","name":"\u4e09\u5e95\u6751\u6751\u6c11\u59d4\u5458\u4f1a","short_name":"\u4e09\u5e95\u6751","merger_name":"\u6d59\u6c5f,\u676d\u5dde,\u6df3\u5b89,\u6c7e\u53e3,\u4e09\u5e95\u6751","pinyin":"SanDiCun","lng":"118.541920","lat":"29.424190"},{"id":197050,"parent_id":197039,"level":4,"area_code":"330127108230","zip_code":"311719","city_code":"0571","name":"\u90d1\u5bb6\u6751\u6751\u6c11\u59d4\u5458\u4f1a","short_name":"\u90d1\u5bb6\u6751","merger_name":"\u6d59\u6c5f,\u676d\u5dde,\u6df3\u5b89,\u6c7e\u53e3,\u90d1\u5bb6\u6751","pinyin":"ZhengJiaCun","lng":"118.541920","lat":"29.424190"},{"id":197051,"parent_id":197039,"level":4,"area_code":"330127108231","zip_code":"311719","city_code":"0571","name":"\u5b8b\u7941\u6751\u6751\u6c11\u59d4\u5458\u4f1a","short_name":"\u5b8b\u7941\u6751","merger_name":"\u6d59\u6c5f,\u676d\u5dde,\u6df3\u5b89,\u6c7e\u53e3,\u5b8b\u7941\u6751","pinyin":"SongQiCun","lng":"118.570390","lat":"29.435340"},{"id":197052,"parent_id":197039,"level":4,"area_code":"330127108251","zip_code":"311721","city_code":"0571","name":"\u897f\u6751\u6751\u6751\u6c11\u59d4\u5458\u4f1a","short_name":"\u897f\u6751\u6751","merger_name":"\u6d59\u6c5f,\u676d\u5dde,\u6df3\u5b89,\u6c7e\u53e3,\u897f\u6751\u6751","pinyin":"XiCunCun","lng":"118.577280","lat":"29.440540"},{"id":197053,"parent_id":197039,"level":4,"area_code":"330127108259","zip_code":"311719","city_code":"0571","name":"\u7a0b\u5e97\u6751\u6751\u6c11\u59d4\u5458\u4f1a","short_name":"\u7a0b\u5e97\u6751","merger_name":"\u6d59\u6c5f,\u676d\u5dde,\u6df3\u5b89,\u6c7e\u53e3,\u7a0b\u5e97\u6751","pinyin":"ChengDianCun","lng":"118.552075","lat":"29.457774"},{"id":197054,"parent_id":197039,"level":4,"area_code":"330127108260","zip_code":"311719","city_code":"0571","name":"\u4e09\u7548\u6751\u6751\u6c11\u59d4\u5458\u4f1a","short_name":"\u4e09\u7548\u6751","merger_name":"\u6d59\u6c5f,\u676d\u5dde,\u6df3\u5b89,\u6c7e\u53e3,\u4e09\u7548\u6751","pinyin":"SanFanCun","lng":"118.574590","lat":"29.451930"},{"id":197055,"parent_id":197039,"level":4,"area_code":"330127108265","zip_code":"311719","city_code":"0571","name":"\u5de7\u5858\u6751\u6751\u6c11\u59d4\u5458\u4f1a","short_name":"\u5de7\u5858\u6751","merger_name":"\u6d59\u6c5f,\u676d\u5dde,\u6df3\u5b89,\u6c7e\u53e3,\u5de7\u5858\u6751","pinyin":"QiaoTangCun","lng":"118.610770","lat":"29.494630"},{"id":197056,"parent_id":197039,"level":4,"area_code":"330127108272","zip_code":"311724","city_code":"0571","name":"\u9646\u4e61\u6751\u6751\u6c11\u59d4\u5458\u4f1a","short_name":"\u9646\u4e61\u6751","merger_name":"\u6d59\u6c5f,\u676d\u5dde,\u6df3\u5b89,\u6c7e\u53e3,\u9646\u4e61\u6751","pinyin":"LuXiangCun","lng":"118.595740","lat":"29.409230"},{"id":197057,"parent_id":197039,"level":4,"area_code":"330127108279","zip_code":"311724","city_code":"0571","name":"\u5b8b\u4eac\u6751\u6751\u6c11\u59d4\u5458\u4f1a","short_name":"\u5b8b\u4eac\u6751","merger_name":"\u6d59\u6c5f,\u676d\u5dde,\u6df3\u5b89,\u6c7e\u53e3,\u5b8b\u4eac\u6751","pinyin":"SongJingCun","lng":"118.570390","lat":"29.435340"},{"id":197058,"parent_id":197039,"level":4,"area_code":"330127108280","zip_code":"311724","city_code":"0571","name":"\u6e5b\u5ddd\u6751\u6751\u6c11\u59d4\u5458\u4f1a","short_name":"\u6e5b\u5ddd\u6751","merger_name":"\u6d59\u6c5f,\u676d\u5dde,\u6df3\u5b89,\u6c7e\u53e3,\u6e5b\u5ddd\u6751","pinyin":"ZhanChuanCun","lng":"118.529710","lat":"29.362310"},{"id":197059,"parent_id":197039,"level":4,"area_code":"330127108294","zip_code":"311724","city_code":"0571","name":"\u6a2a\u6cbf\u6751\u6751\u6c11\u59d4\u5458\u4f1a","short_name":"\u6a2a\u6cbf\u6751","merger_name":"\u6d59\u6c5f,\u676d\u5dde,\u6df3\u5b89,\u6c7e\u53e3,\u6a2a\u6cbf\u6751","pinyin":"HengYanCun","lng":"118.610770","lat":"29.494630"},{"id":197060,"parent_id":197039,"level":4,"area_code":"330127108301","zip_code":"311719","city_code":"0571","name":"\u5c71\u5934\u6751\u6751\u6c11\u59d4\u5458\u4f1a","short_name":"\u5c71\u5934\u6751","merger_name":"\u6d59\u6c5f,\u676d\u5dde,\u6df3\u5b89,\u6c7e\u53e3,\u5c71\u5934\u6751","pinyin":"ShanTouCun","lng":"118.491850","lat":"29.382820"},{"id":197061,"parent_id":197039,"level":4,"area_code":"330127108302","zip_code":"311719","city_code":"0571","name":"\u8d64\u5ddd\u53e3\u6751\u6751\u6c11\u59d4\u5458\u4f1a","short_name":"\u8d64\u5ddd\u53e3\u6751","merger_name":"\u6d59\u6c5f,\u676d\u5dde,\u6df3\u5b89,\u6c7e\u53e3,\u8d64\u5ddd\u53e3\u6751","pinyin":"ChiChuanKouCun","lng":"118.570390","lat":"29.435340"},{"id":197062,"parent_id":197039,"level":4,"area_code":"330127108303","zip_code":"311719","city_code":"0571","name":"\u9f99\u95e8\u6751\u6751\u6c11\u59d4\u5458\u4f1a","short_name":"\u9f99\u95e8\u6751","merger_name":"\u6d59\u6c5f,\u676d\u5dde,\u6df3\u5b89,\u6c7e\u53e3,\u9f99\u95e8\u6751","pinyin":"LongMenCun","lng":"118.509930","lat":"29.391170"},{"id":197063,"parent_id":197039,"level":4,"area_code":"330127108304","zip_code":"311719","city_code":"0571","name":"\u4e09\u6e21\u6751\u6751\u6c11\u59d4\u5458\u4f1a","short_name":"\u4e09\u6e21\u6751","merger_name":"\u6d59\u6c5f,\u676d\u5dde,\u6df3\u5b89,\u6c7e\u53e3,\u4e09\u6e21\u6751","pinyin":"SanDuCun","lng":"118.541920","lat":"29.424190"},{"id":197064,"parent_id":197039,"level":4,"area_code":"330127108305","zip_code":"311719","city_code":"0571","name":"\u4ed9\u5c45\u6751\u6751\u6c11\u59d4\u5458\u4f1a","short_name":"\u4ed9\u5c45\u6751","merger_name":"\u6d59\u6c5f,\u676d\u5dde,\u6df3\u5b89,\u6c7e\u53e3,\u4ed9\u5c45\u6751","pinyin":"XianJuCun","lng":"118.508040","lat":"29.426350"},{"id":197065,"parent_id":197039,"level":4,"area_code":"330127108306","zip_code":"311719","city_code":"0571","name":"\u5bcc\u5360\u6e90\u6751\u6751\u6c11\u59d4\u5458\u4f1a","short_name":"\u5bcc\u5360\u6e90\u6751","merger_name":"\u6d59\u6c5f,\u676d\u5dde,\u6df3\u5b89,\u6c7e\u53e3,\u5bcc\u5360\u6e90\u6751","pinyin":"FuZhanYuanCun","lng":"118.544220","lat":"29.413990"},{"id":197066,"parent_id":197039,"level":4,"area_code":"330127108307","zip_code":"311719","city_code":"0571","name":"\u8212\u7fe0\u6751\u6751\u6c11\u59d4\u5458\u4f1a","short_name":"\u8212\u7fe0\u6751","merger_name":"\u6d59\u6c5f,\u676d\u5dde,\u6df3\u5b89,\u6c7e\u53e3,\u8212\u7fe0\u6751","pinyin":"ShuCuiCun","lng":"118.556700","lat":"29.431940"},{"id":197067,"parent_id":197039,"level":4,"area_code":"330127108308","zip_code":"311719","city_code":"0571","name":"\u6768\u65d7\u5766\u6751\u6751\u6c11\u59d4\u5458\u4f1a","short_name":"\u6768\u65d7\u5766\u6751","merger_name":"\u6d59\u6c5f,\u676d\u5dde,\u6df3\u5b89,\u6c7e\u53e3,\u6768\u65d7\u5766\u6751","pinyin":"YangQiTanCun","lng":"118.550100","lat":"29.432690"},{"id":197068,"parent_id":197039,"level":4,"area_code":"330127108309","zip_code":"311719","city_code":"0571","name":"\u795d\u5bb6\u6751\u6751\u6c11\u59d4\u5458\u4f1a","short_name":"\u795d\u5bb6\u6751","merger_name":"\u6d59\u6c5f,\u676d\u5dde,\u6df3\u5b89,\u6c7e\u53e3,\u795d\u5bb6\u6751","pinyin":"ZhuJiaCun","lng":"118.541920","lat":"29.424190"},{"id":197069,"parent_id":197039,"level":4,"area_code":"330127108310","zip_code":"311719","city_code":"0571","name":"\u9f99\u5c71\u6751\u6751\u6c11\u59d4\u5458\u4f1a","short_name":"\u9f99\u5c71\u6751","merger_name":"\u6d59\u6c5f,\u676d\u5dde,\u6df3\u5b89,\u6c7e\u53e3,\u9f99\u5c71\u6751","pinyin":"LongShanCun","lng":"118.570390","lat":"29.435340"},{"id":197070,"parent_id":197039,"level":4,"area_code":"330127108311","zip_code":"311719","city_code":"0571","name":"\u5929\u6797\u5e84\u6751\u6751\u6c11\u59d4\u5458\u4f1a","short_name":"\u5929\u6797\u5e84\u6751","merger_name":"\u6d59\u6c5f,\u676d\u5dde,\u6df3\u5b89,\u6c7e\u53e3,\u5929\u6797\u5e84\u6751","pinyin":"TianLinZhuangCun","lng":"118.564898","lat":"29.434727"},{"id":197071,"parent_id":197039,"level":4,"area_code":"330127108312","zip_code":"311719","city_code":"0571","name":"\u5c04\u58a9\u6751\u6751\u6c11\u59d4\u5458\u4f1a","short_name":"\u5c04\u58a9\u6751","merger_name":"\u6d59\u6c5f,\u676d\u5dde,\u6df3\u5b89,\u6c7e\u53e3,\u5c04\u58a9\u6751","pinyin":"SheDunCun","lng":"118.570390","lat":"29.435340"},{"id":197072,"parent_id":197039,"level":4,"area_code":"330127108313","zip_code":"311719","city_code":"0571","name":"\u8305\u5c4f\u6751\u6751\u6c11\u59d4\u5458\u4f1a","short_name":"\u8305\u5c4f\u6751","merger_name":"\u6d59\u6c5f,\u676d\u5dde,\u6df3\u5b89,\u6c7e\u53e3,\u8305\u5c4f\u6751","pinyin":"MaoPingCun","lng":"118.552075","lat":"29.457774"},{"id":197073,"parent_id":197039,"level":4,"area_code":"330127108314","zip_code":"311719","city_code":"0571","name":"\u4e91\u6797\u6751\u6751\u6c11\u59d4\u5458\u4f1a","short_name":"\u4e91\u6797\u6751","merger_name":"\u6d59\u6c5f,\u676d\u5dde,\u6df3\u5b89,\u6c7e\u53e3,\u4e91\u6797\u6751","pinyin":"YunLinCun","lng":"118.610770","lat":"29.494630"},{"id":197074,"parent_id":197039,"level":4,"area_code":"330127108315","zip_code":"311721","city_code":"0571","name":"\u9c81\u6751\u6751\u6751\u6c11\u59d4\u5458\u4f1a","short_name":"\u9c81\u6751\u6751","merger_name":"\u6d59\u6c5f,\u676d\u5dde,\u6df3\u5b89,\u6c7e\u53e3,\u9c81\u6751\u6751","pinyin":"LuCunCun","lng":"118.645610","lat":"29.378720"},{"id":197075,"parent_id":197039,"level":4,"area_code":"330127108316","zip_code":"311719","city_code":"0571","name":"\u9f99\u59da\u6751\u6751\u6c11\u59d4\u5458\u4f1a","short_name":"\u9f99\u59da\u6751","merger_name":"\u6d59\u6c5f,\u676d\u5dde,\u6df3\u5b89,\u6c7e\u53e3,\u9f99\u59da\u6751","pinyin":"LongYaoCun","lng":"118.550300","lat":"29.427750"},{"id":197076,"parent_id":197039,"level":4,"area_code":"330127108317","zip_code":"311724","city_code":"0571","name":"\u9f99\u6e90\u6751\u6751\u6c11\u59d4\u5458\u4f1a","short_name":"\u9f99\u6e90\u6751","merger_name":"\u6d59\u6c5f,\u676d\u5dde,\u6df3\u5b89,\u6c7e\u53e3,\u9f99\u6e90\u6751","pinyin":"LongYuanCun","lng":"118.590790","lat":"29.397950"},{"id":197077,"parent_id":197039,"level":4,"area_code":"330127108318","zip_code":"311721","city_code":"0571","name":"\u6bdb\u5bb6\u6751\u6751\u6c11\u59d4\u5458\u4f1a","short_name":"\u6bdb\u5bb6\u6751","merger_name":"\u6d59\u6c5f,\u676d\u5dde,\u6df3\u5b89,\u6c7e\u53e3,\u6bdb\u5bb6\u6751","pinyin":"MaoJiaCun","lng":"118.541920","lat":"29.424190"},{"id":197078,"parent_id":197039,"level":4,"area_code":"330127108319","zip_code":"311721","city_code":"0571","name":"\u6817\u56ed\u91cc\u6751\u6751\u6c11\u59d4\u5458\u4f1a","short_name":"\u6817\u56ed\u91cc\u6751","merger_name":"\u6d59\u6c5f,\u676d\u5dde,\u6df3\u5b89,\u6c7e\u53e3,\u6817\u56ed\u91cc\u6751","pinyin":"LiYuanLiCun","lng":"118.570390","lat":"29.435340"},{"id":197079,"parent_id":197039,"level":4,"area_code":"330127108320","zip_code":"311724","city_code":"0571","name":"\u5cad\u540e\u6751\u6751\u6c11\u59d4\u5458\u4f1a","short_name":"\u5cad\u540e\u6751","merger_name":"\u6d59\u6c5f,\u676d\u5dde,\u6df3\u5b89,\u6c7e\u53e3,\u5cad\u540e\u6751","pinyin":"LingHouCun","lng":"118.570390","lat":"29.435340"},{"id":197080,"parent_id":197039,"level":4,"area_code":"330127108321","zip_code":"311719","city_code":"0571","name":"\u6c7e\u53e3\u6751\u6751\u6c11\u59d4\u5458\u4f1a","short_name":"\u6c7e\u53e3\u6751","merger_name":"\u6d59\u6c5f,\u676d\u5dde,\u6df3\u5b89,\u6c7e\u53e3,\u6c7e\u53e3\u6751","pinyin":"FenKouCun","lng":"118.541920","lat":"29.424190"},{"id":197081,"parent_id":197039,"level":4,"area_code":"330127108322","zip_code":"311719","city_code":"0571","name":"\u7ae0\u59da\u6751\u6751\u6c11\u59d4\u5458\u4f1a","short_name":"\u7ae0\u59da\u6751","merger_name":"\u6d59\u6c5f,\u676d\u5dde,\u6df3\u5b89,\u6c7e\u53e3,\u7ae0\u59da\u6751","pinyin":"ZhangYaoCun","lng":"118.508040","lat":"29.426350"},{"id":197082,"parent_id":197039,"level":4,"area_code":"330127108323","zip_code":"311719","city_code":"0571","name":"\u5f3a\u5ddd\u6751\u6751\u6c11\u59d4\u5458\u4f1a","short_name":"\u5f3a\u5ddd\u6751","merger_name":"\u6d59\u6c5f,\u676d\u5dde,\u6df3\u5b89,\u6c7e\u53e3,\u5f3a\u5ddd\u6751","pinyin":"QiangChuanCun","lng":"118.572100","lat":"29.423690"},{"id":197083,"parent_id":197039,"level":4,"area_code":"330127108324","zip_code":"311719","city_code":"0571","name":"\u7ea2\u661f\u6751\u6751\u6c11\u59d4\u5458\u4f1a","short_name":"\u7ea2\u661f\u6751","merger_name":"\u6d59\u6c5f,\u676d\u5dde,\u6df3\u5b89,\u6c7e\u53e3,\u7ea2\u661f\u6751","pinyin":"HongXingCun","lng":"118.577280","lat":"29.423370"},{"id":197084,"parent_id":197039,"level":4,"area_code":"330127108325","zip_code":"311719","city_code":"0571","name":"\u7fc1\u5ddd\u6e90\u6751\u6751\u6c11\u59d4\u5458\u4f1a","short_name":"\u7fc1\u5ddd\u6e90\u6751","merger_name":"\u6d59\u6c5f,\u676d\u5dde,\u6df3\u5b89,\u6c7e\u53e3,\u7fc1\u5ddd\u6e90\u6751","pinyin":"WengChuanYuanCun","lng":"118.570390","lat":"29.435340"},{"id":197085,"parent_id":197039,"level":4,"area_code":"330127108326","zip_code":"311719","city_code":"0571","name":"\u6843\u6797\u7548\u6751\u6751\u6c11\u59d4\u5458\u4f1a","short_name":"\u6843\u6797\u7548\u6751","merger_name":"\u6d59\u6c5f,\u676d\u5dde,\u6df3\u5b89,\u6c7e\u53e3,\u6843\u6797\u7548\u6751","pinyin":"TaoLinFanCun","lng":"118.562900","lat":"29.489590"},{"id":197086,"parent_id":197039,"level":4,"area_code":"330127108327","zip_code":"311724","city_code":"0571","name":"\u7ea2\u65d7\u6751\u6751\u6c11\u59d4\u5458\u4f1a","short_name":"\u7ea2\u65d7\u6751","merger_name":"\u6d59\u6c5f,\u676d\u5dde,\u6df3\u5b89,\u6c7e\u53e3,\u7ea2\u65d7\u6751","pinyin":"HongQiCun","lng":"118.610770","lat":"29.494630"},{"id":197087,"parent_id":197039,"level":4,"area_code":"330127108328","zip_code":"311724","city_code":"0571","name":"\u77f3\u5cf0\u6751\u6751\u6c11\u59d4\u5458\u4f1a","short_name":"\u77f3\u5cf0\u6751","merger_name":"\u6d59\u6c5f,\u676d\u5dde,\u6df3\u5b89,\u6c7e\u53e3,\u77f3\u5cf0\u6751","pinyin":"ShiFengCun","lng":"118.491850","lat":"29.382820"},{"id":197088,"parent_id":197039,"level":4,"area_code":"330127108329","zip_code":"311724","city_code":"0571","name":"\u5cf0\u6eaa\u6751\u6751\u6c11\u59d4\u5458\u4f1a","short_name":"\u5cf0\u6eaa\u6751","merger_name":"\u6d59\u6c5f,\u676d\u5dde,\u6df3\u5b89,\u6c7e\u53e3,\u5cf0\u6eaa\u6751","pinyin":"FengXiCun","lng":"118.645610","lat":"29.378720"},{"id":197089,"parent_id":197039,"level":4,"area_code":"330127108330","zip_code":"311724","city_code":"0571","name":"\u5bcc\u5858\u6751\u6751\u6c11\u59d4\u5458\u4f1a","short_name":"\u5bcc\u5858\u6751","merger_name":"\u6d59\u6c5f,\u676d\u5dde,\u6df3\u5b89,\u6c7e\u53e3,\u5bcc\u5858\u6751","pinyin":"FuTangCun","lng":"118.541920","lat":"29.424190"},{"id":197090,"parent_id":197039,"level":4,"area_code":"330127108331","zip_code":"311721","city_code":"0571","name":"\u767e\u4ea9\u7548\u6751\u6751\u6c11\u59d4\u5458\u4f1a","short_name":"\u767e\u4ea9\u7548\u6751","merger_name":"\u6d59\u6c5f,\u676d\u5dde,\u6df3\u5b89,\u6c7e\u53e3,\u767e\u4ea9\u7548\u6751","pinyin":"BaiMuFanCun","lng":"118.896580","lat":"29.463960"},{"id":197091,"parent_id":197039,"level":4,"area_code":"330127108332","zip_code":"311721","city_code":"0571","name":"\u8377\u5858\u6751\u6751\u6c11\u59d4\u5458\u4f1a","short_name":"\u8377\u5858\u6751","merger_name":"\u6d59\u6c5f,\u676d\u5dde,\u6df3\u5b89,\u6c7e\u53e3,\u8377\u5858\u6751","pinyin":"HeTangCun","lng":"118.610770","lat":"29.494630"},{"id":197092,"parent_id":196864,"level":3,"area_code":"330127109000","zip_code":"311719","city_code":"0571","name":"\u4e2d\u6d32\u9547","short_name":"\u4e2d\u6d32","merger_name":"\u6d59\u6c5f,\u676d\u5dde,\u6df3\u5b89,\u4e2d\u6d32","pinyin":"ZhongZhou","lng":"118.487380","lat":"29.438580"},{"id":197093,"parent_id":197092,"level":4,"area_code":"330127109202","zip_code":"311719","city_code":"0571","name":"\u7548\u5934\u6751\u6751\u6c11\u59d4\u5458\u4f1a","short_name":"\u7548\u5934\u6751","merger_name":"\u6d59\u6c5f,\u676d\u5dde,\u6df3\u5b89,\u4e2d\u6d32,\u7548\u5934\u6751","pinyin":"FanTouCun","lng":"118.496420","lat":"29.429230"},{"id":197094,"parent_id":197092,"level":4,"area_code":"330127109216","zip_code":"311719","city_code":"0571","name":"\u53cc\u8bb8\u6751\u6751\u6c11\u59d4\u5458\u4f1a","short_name":"\u53cc\u8bb8\u6751","merger_name":"\u6d59\u6c5f,\u676d\u5dde,\u6df3\u5b89,\u4e2d\u6d32,\u53cc\u8bb8\u6751","pinyin":"ShuangXuCun","lng":"118.471280","lat":"29.464910"},{"id":197095,"parent_id":197092,"level":4,"area_code":"330127109217","zip_code":"311719","city_code":"0571","name":"\u5357\u5e84\u6751\u6751\u6c11\u59d4\u5458\u4f1a","short_name":"\u5357\u5e84\u6751","merger_name":"\u6d59\u6c5f,\u676d\u5dde,\u6df3\u5b89,\u4e2d\u6d32,\u5357\u5e84\u6751","pinyin":"NanZhuangCun","lng":"118.463550","lat":"29.473770"},{"id":197096,"parent_id":197092,"level":4,"area_code":"330127109218","zip_code":"311719","city_code":"0571","name":"\u6d04\u6eaa\u6751\u6751\u6c11\u59d4\u5458\u4f1a","short_name":"\u6d04\u6eaa\u6751","merger_name":"\u6d59\u6c5f,\u676d\u5dde,\u6df3\u5b89,\u4e2d\u6d32,\u6d04\u6eaa\u6751","pinyin":"HuiXiCun","lng":"118.459960","lat":"29.490660"},{"id":197097,"parent_id":197092,"level":4,"area_code":"330127109227","zip_code":"311719","city_code":"0571","name":"\u6728\u74dc\u6751\u6751\u6c11\u59d4\u5458\u4f1a","short_name":"\u6728\u74dc\u6751","merger_name":"\u6d59\u6c5f,\u676d\u5dde,\u6df3\u5b89,\u4e2d\u6d32,\u6728\u74dc\u6751","pinyin":"MuGuaCun","lng":"118.378760","lat":"29.477270"},{"id":197098,"parent_id":197092,"level":4,"area_code":"330127109230","zip_code":"311719","city_code":"0571","name":"\u67ab\u6797\u575e\u6751\u6751\u6c11\u59d4\u5458\u4f1a","short_name":"\u67ab\u6797\u575e\u6751","merger_name":"\u6d59\u6c5f,\u676d\u5dde,\u6df3\u5b89,\u4e2d\u6d32,\u67ab\u6797\u575e\u6751","pinyin":"FengLinWuCun","lng":"118.463550","lat":"29.473770"},{"id":197099,"parent_id":197092,"level":4,"area_code":"330127109242","zip_code":"311719","city_code":"0571","name":"\u5f90\u5bb6\u6751\u6751\u6c11\u59d4\u5458\u4f1a","short_name":"\u5f90\u5bb6\u6751","merger_name":"\u6d59\u6c5f,\u676d\u5dde,\u6df3\u5b89,\u4e2d\u6d32,\u5f90\u5bb6\u6751","pinyin":"XuJiaCun","lng":"118.491970","lat":"29.411340"},{"id":197100,"parent_id":197092,"level":4,"area_code":"330127109243","zip_code":"311719","city_code":"0571","name":"\u957f\u57c2\u6751\u6751\u6c11\u59d4\u5458\u4f1a","short_name":"\u957f\u57c2\u6751","merger_name":"\u6d59\u6c5f,\u676d\u5dde,\u6df3\u5b89,\u4e2d\u6d32,\u957f\u57c2\u6751","pinyin":"ZhangGengCun","lng":"118.477290","lat":"29.460590"},{"id":197101,"parent_id":197092,"level":4,"area_code":"330127109244","zip_code":"311719","city_code":"0571","name":"\u4f59\u5bb6\u6751\u6751\u6c11\u59d4\u5458\u4f1a","short_name":"\u4f59\u5bb6\u6751","merger_name":"\u6d59\u6c5f,\u676d\u5dde,\u6df3\u5b89,\u4e2d\u6d32,\u4f59\u5bb6\u6751","pinyin":"YuJiaCun","lng":"118.477290","lat":"29.460590"},{"id":197102,"parent_id":197092,"level":4,"area_code":"330127109245","zip_code":"311719","city_code":"0571","name":"\u6a1f\u6751\u6751\u6751\u6c11\u59d4\u5458\u4f1a","short_name":"\u6a1f\u6751\u6751","merger_name":"\u6d59\u6c5f,\u676d\u5dde,\u6df3\u5b89,\u4e2d\u6d32,\u6a1f\u6751\u6751","pinyin":"ZhangCunCun","lng":"118.463550","lat":"29.473770"},{"id":197103,"parent_id":197092,"level":4,"area_code":"330127109246","zip_code":"311719","city_code":"0571","name":"\u4e58\u98ce\u6e90\u6751\u6751\u6c11\u59d4\u5458\u4f1a","short_name":"\u4e58\u98ce\u6e90\u6751","merger_name":"\u6d59\u6c5f,\u676d\u5dde,\u6df3\u5b89,\u4e2d\u6d32,\u4e58\u98ce\u6e90\u6751","pinyin":"ChengFengYuanCun","lng":"118.463550","lat":"29.473770"},{"id":197104,"parent_id":197092,"level":4,"area_code":"330127109247","zip_code":"311719","city_code":"0571","name":"\u82cf\u5bb6\u7548\u6751\u6751\u6c11\u59d4\u5458\u4f1a","short_name":"\u82cf\u5bb6\u7548\u6751","merger_name":"\u6d59\u6c5f,\u676d\u5dde,\u6df3\u5b89,\u4e2d\u6d32,\u82cf\u5bb6\u7548\u6751","pinyin":"SuJiaFanCun","lng":"118.467740","lat":"29.401800"},{"id":197105,"parent_id":197092,"level":4,"area_code":"330127109248","zip_code":"311719","city_code":"0571","name":"\u971e\u7ae5\u6751\u6751\u6c11\u59d4\u5458\u4f1a","short_name":"\u971e\u7ae5\u6751","merger_name":"\u6d59\u6c5f,\u676d\u5dde,\u6df3\u5b89,\u4e2d\u6d32,\u971e\u7ae5\u6751","pinyin":"XiaTongCun","lng":"118.490320","lat":"29.432350"},{"id":197106,"parent_id":197092,"level":4,"area_code":"330127109249","zip_code":"311719","city_code":"0571","name":"\u674e\u5bb6\u7548\u6751\u6751\u6c11\u59d4\u5458\u4f1a","short_name":"\u674e\u5bb6\u7548\u6751","merger_name":"\u6d59\u6c5f,\u676d\u5dde,\u6df3\u5b89,\u4e2d\u6d32,\u674e\u5bb6\u7548\u6751","pinyin":"LiJiaFanCun","lng":"118.463550","lat":"29.473770"},{"id":197107,"parent_id":197092,"level":4,"area_code":"330127109250","zip_code":"311719","city_code":"0571","name":"\u4e2d\u6d32\u6751\u6751\u6c11\u59d4\u5458\u4f1a","short_name":"\u4e2d\u6d32\u6751","merger_name":"\u6d59\u6c5f,\u676d\u5dde,\u6df3\u5b89,\u4e2d\u6d32,\u4e2d\u6d32\u6751","pinyin":"ZhongZhouCun","lng":"118.487220","lat":"29.439930"},{"id":197108,"parent_id":197092,"level":4,"area_code":"330127109251","zip_code":"311719","city_code":"0571","name":"\u53a6\u5c71\u6751\u6751\u6c11\u59d4\u5458\u4f1a","short_name":"\u53a6\u5c71\u6751","merger_name":"\u6d59\u6c5f,\u676d\u5dde,\u6df3\u5b89,\u4e2d\u6d32,\u53a6\u5c71\u6751","pinyin":"ShaShanCun","lng":"118.440800","lat":"29.501940"},{"id":197109,"parent_id":197092,"level":4,"area_code":"330127109252","zip_code":"311719","city_code":"0571","name":"\u5de6\u5ddd\u6751\u6751\u6c11\u59d4\u5458\u4f1a","short_name":"\u5de6\u5ddd\u6751","merger_name":"\u6d59\u6c5f,\u676d\u5dde,\u6df3\u5b89,\u4e2d\u6d32,\u5de6\u5ddd\u6751","pinyin":"ZuoChuanCun","lng":"118.448980","lat":"29.457450"},{"id":197110,"parent_id":197092,"level":4,"area_code":"330127109253","zip_code":"311719","city_code":"0571","name":"\u672d\u6eaa\u6751\u6751\u6c11\u59d4\u5458\u4f1a","short_name":"\u672d\u6eaa\u6751","merger_name":"\u6d59\u6c5f,\u676d\u5dde,\u6df3\u5b89,\u4e2d\u6d32,\u672d\u6eaa\u6751","pinyin":"ZhaXiCun","lng":"118.378760","lat":"29.477270"},{"id":197111,"parent_id":197092,"level":4,"area_code":"330127109254","zip_code":"311719","city_code":"0571","name":"\u53f6\u6751\u6751\u6751\u6c11\u59d4\u5458\u4f1a","short_name":"\u53f6\u6751\u6751","merger_name":"\u6d59\u6c5f,\u676d\u5dde,\u6df3\u5b89,\u4e2d\u6d32,\u53f6\u6751\u6751","pinyin":"YeCunCun","lng":"118.463550","lat":"29.473770"},{"id":197112,"parent_id":196864,"level":3,"area_code":"330127110000","zip_code":"311716","city_code":"0571","name":"\u5927\u5885\u9547","short_name":"\u5927\u5885","merger_name":"\u6d59\u6c5f,\u676d\u5dde,\u6df3\u5b89,\u5927\u5885","pinyin":"DaShu","lng":"118.741370","lat":"29.400470"},{"id":197113,"parent_id":197112,"level":4,"area_code":"330127110200","zip_code":"311716","city_code":"0571","name":"\u5927\u5885\u6751\u6751\u6c11\u59d4\u5458\u4f1a","short_name":"\u5927\u5885\u6751","merger_name":"\u6d59\u6c5f,\u676d\u5dde,\u6df3\u5b89,\u5927\u5885,\u5927\u5885\u6751","pinyin":"DaShuCun","lng":"118.744470","lat":"29.399150"},{"id":197114,"parent_id":197112,"level":4,"area_code":"330127110201","zip_code":"311716","city_code":"0571","name":"\u5b59\u5bb6\u7548\u6751\u6751\u6c11\u59d4\u5458\u4f1a","short_name":"\u5b59\u5bb6\u7548\u6751","merger_name":"\u6d59\u6c5f,\u676d\u5dde,\u6df3\u5b89,\u5927\u5885,\u5b59\u5bb6\u7548\u6751","pinyin":"SunJiaFanCun","lng":"118.738520","lat":"29.388290"},{"id":197115,"parent_id":197112,"level":4,"area_code":"330127110205","zip_code":"311716","city_code":"0571","name":"\u5927\u575e\u6751\u6751\u6c11\u59d4\u5458\u4f1a","short_name":"\u5927\u575e\u6751","merger_name":"\u6d59\u6c5f,\u676d\u5dde,\u6df3\u5b89,\u5927\u5885,\u5927\u575e\u6751","pinyin":"DaWuCun","lng":"118.744470","lat":"29.399150"},{"id":197116,"parent_id":197112,"level":4,"area_code":"330127110209","zip_code":"311716","city_code":"0571","name":"\u897f\u56ed\u6751\u6751\u6c11\u59d4\u5458\u4f1a","short_name":"\u897f\u56ed\u6751","merger_name":"\u6d59\u6c5f,\u676d\u5dde,\u6df3\u5b89,\u5927\u5885,\u897f\u56ed\u6751","pinyin":"XiYuanCun","lng":"118.744470","lat":"29.399150"},{"id":197117,"parent_id":197112,"level":4,"area_code":"330127110210","zip_code":"311716","city_code":"0571","name":"\u6b8a\u5858\u6751\u6751\u6c11\u59d4\u5458\u4f1a","short_name":"\u6b8a\u5858\u6751","merger_name":"\u6d59\u6c5f,\u676d\u5dde,\u6df3\u5b89,\u5927\u5885,\u6b8a\u5858\u6751","pinyin":"ShuTangCun","lng":"118.744470","lat":"29.399150"},{"id":197118,"parent_id":197112,"level":4,"area_code":"330127110238","zip_code":"311716","city_code":"0571","name":"\u6843\u6e90\u51cc\u5bb6\u6751\u6751\u6c11\u59d4\u5458\u4f1a","short_name":"\u6843\u6e90\u51cc\u5bb6\u6751","merger_name":"\u6d59\u6c5f,\u676d\u5dde,\u6df3\u5b89,\u5927\u5885,\u6843\u6e90\u51cc\u5bb6\u6751","pinyin":"TaoYuanLingJiaCun","lng":"118.744470","lat":"29.399150"},{"id":197119,"parent_id":197112,"level":4,"area_code":"330127110239","zip_code":"311716","city_code":"0571","name":"\u51e4\u5c71\u6751\u6751\u6c11\u59d4\u5458\u4f1a","short_name":"\u51e4\u5c71\u6751","merger_name":"\u6d59\u6c5f,\u676d\u5dde,\u6df3\u5b89,\u5927\u5885,\u51e4\u5c71\u6751","pinyin":"FengShanCun","lng":"118.744470","lat":"29.399150"},{"id":197120,"parent_id":197112,"level":4,"area_code":"330127110240","zip_code":"311716","city_code":"0571","name":"\u9ad8\u5c71\u6751\u6751\u6c11\u59d4\u5458\u4f1a","short_name":"\u9ad8\u5c71\u6751","merger_name":"\u6d59\u6c5f,\u676d\u5dde,\u6df3\u5b89,\u5927\u5885,\u9ad8\u5c71\u6751","pinyin":"GaoShanCun","lng":"118.763090","lat":"29.327370"},{"id":197121,"parent_id":197112,"level":4,"area_code":"330127110241","zip_code":"311716","city_code":"0571","name":"\u4e0b\u5751\u6751\u6751\u6c11\u59d4\u5458\u4f1a","short_name":"\u4e0b\u5751\u6751","merger_name":"\u6d59\u6c5f,\u676d\u5dde,\u6df3\u5b89,\u5927\u5885,\u4e0b\u5751\u6751","pinyin":"XiaKengCun","lng":"118.744470","lat":"29.399150"},{"id":197122,"parent_id":197112,"level":4,"area_code":"330127110242","zip_code":"311716","city_code":"0571","name":"\u6d1e\u575e\u6751\u6751\u6c11\u59d4\u5458\u4f1a","short_name":"\u6d1e\u575e\u6751","merger_name":"\u6d59\u6c5f,\u676d\u5dde,\u6df3\u5b89,\u5927\u5885,\u6d1e\u575e\u6751","pinyin":"DongWuCun","lng":"118.744470","lat":"29.399150"},{"id":197123,"parent_id":197112,"level":4,"area_code":"330127110243","zip_code":"311716","city_code":"0571","name":"\u4e0a\u574a\u6751\u6751\u6c11\u59d4\u5458\u4f1a","short_name":"\u4e0a\u574a\u6751","merger_name":"\u6d59\u6c5f,\u676d\u5dde,\u6df3\u5b89,\u5927\u5885,\u4e0a\u574a\u6751","pinyin":"ShangFangCun","lng":"118.744470","lat":"29.399150"},{"id":197124,"parent_id":197112,"level":4,"area_code":"330127110244","zip_code":"311716","city_code":"0571","name":"\u5bfa\u6797\u6751\u6751\u6c11\u59d4\u5458\u4f1a","short_name":"\u5bfa\u6797\u6751","merger_name":"\u6d59\u6c5f,\u676d\u5dde,\u6df3\u5b89,\u5927\u5885,\u5bfa\u6797\u6751","pinyin":"SiLinCun","lng":"118.744470","lat":"29.399150"},{"id":197125,"parent_id":197112,"level":4,"area_code":"330127110245","zip_code":"311716","city_code":"0571","name":"\u8001\u5cad\u6751\u6751\u6c11\u59d4\u5458\u4f1a","short_name":"\u8001\u5cad\u6751","merger_name":"\u6d59\u6c5f,\u676d\u5dde,\u6df3\u5b89,\u5927\u5885,\u8001\u5cad\u6751","pinyin":"LaoLingCun","lng":"118.794870","lat":"29.351650"},{"id":197126,"parent_id":197112,"level":4,"area_code":"330127110246","zip_code":"311716","city_code":"0571","name":"\u6843\u6797\u6751\u6751\u6c11\u59d4\u5458\u4f1a","short_name":"\u6843\u6797\u6751","merger_name":"\u6d59\u6c5f,\u676d\u5dde,\u6df3\u5b89,\u5927\u5885,\u6843\u6797\u6751","pinyin":"TaoLinCun","lng":"118.744470","lat":"29.399150"},{"id":197127,"parent_id":197112,"level":4,"area_code":"330127110247","zip_code":"311716","city_code":"0571","name":"\u5cad\u5e72\u6751\u6751\u6c11\u59d4\u5458\u4f1a","short_name":"\u5cad\u5e72\u6751","merger_name":"\u6d59\u6c5f,\u676d\u5dde,\u6df3\u5b89,\u5927\u5885,\u5cad\u5e72\u6751","pinyin":"LingGanCun","lng":"118.797520","lat":"29.363830"},{"id":197128,"parent_id":197112,"level":4,"area_code":"330127110248","zip_code":"311716","city_code":"0571","name":"\u5112\u6d2a\u6751\u6751\u6c11\u59d4\u5458\u4f1a","short_name":"\u5112\u6d2a\u6751","merger_name":"\u6d59\u6c5f,\u676d\u5dde,\u6df3\u5b89,\u5927\u5885,\u5112\u6d2a\u6751","pinyin":"RuHongCun","lng":"118.774400","lat":"29.387780"},{"id":197129,"parent_id":197112,"level":4,"area_code":"330127110249","zip_code":"311716","city_code":"0571","name":"\u6817\u6708\u576a\u6751\u6751\u6c11\u59d4\u5458\u4f1a","short_name":"\u6817\u6708\u576a\u6751","merger_name":"\u6d59\u6c5f,\u676d\u5dde,\u6df3\u5b89,\u5927\u5885,\u6817\u6708\u576a\u6751","pinyin":"LiYuePingCun","lng":"118.766860","lat":"29.396230"},{"id":197130,"parent_id":196864,"level":3,"area_code":"330127111000","zip_code":"311717","city_code":"0571","name":"\u67ab\u6811\u5cad\u9547","short_name":"\u67ab\u6811","merger_name":"\u6d59\u6c5f,\u676d\u5dde,\u6df3\u5b89,\u67ab\u6811","pinyin":"FengShu","lng":"118.709620","lat":"29.367850"},{"id":197131,"parent_id":197130,"level":4,"area_code":"330127111209","zip_code":"311717","city_code":"0571","name":"\u6a2a\u5751\u6751\u6751\u6c11\u59d4\u5458\u4f1a","short_name":"\u6a2a\u5751\u6751","merger_name":"\u6d59\u6c5f,\u676d\u5dde,\u6df3\u5b89,\u67ab\u6811,\u6a2a\u5751\u6751","pinyin":"HengKengCun","lng":"119.916770","lat":"29.837530"},{"id":197132,"parent_id":197130,"level":4,"area_code":"330127111217","zip_code":"311717","city_code":"0571","name":"\u6728\u82b1\u5751\u6751\u6751\u6c11\u59d4\u5458\u4f1a","short_name":"\u6728\u82b1\u5751\u6751","merger_name":"\u6d59\u6c5f,\u676d\u5dde,\u6df3\u5b89,\u67ab\u6811,\u6728\u82b1\u5751\u6751","pinyin":"MuHuaKengCun","lng":"120.172410","lat":"29.939680"},{"id":197133,"parent_id":197130,"level":4,"area_code":"330127111230","zip_code":"311717","city_code":"0571","name":"\u4e30\u5bb6\u6e90\u6751\u6751\u6c11\u59d4\u5458\u4f1a","short_name":"\u4e30\u5bb6\u6e90\u6751","merger_name":"\u6d59\u6c5f,\u676d\u5dde,\u6df3\u5b89,\u67ab\u6811,\u4e30\u5bb6\u6e90\u6751","pinyin":"FengJiaYuanCun","lng":"120.166579","lat":"29.935490"},{"id":197134,"parent_id":197130,"level":4,"area_code":"330127111231","zip_code":"311717","city_code":"0571","name":"\u7ea2\u5149\u6751\u6751\u6c11\u59d4\u5458\u4f1a","short_name":"\u7ea2\u5149\u6751","merger_name":"\u6d59\u6c5f,\u676d\u5dde,\u6df3\u5b89,\u67ab\u6811,\u7ea2\u5149\u6751","pinyin":"HongGuangCun","lng":"120.166579","lat":"29.935490"},{"id":197135,"parent_id":197130,"level":4,"area_code":"330127111238","zip_code":"311717","city_code":"0571","name":"\u4f0a\u5ddd\u6751\u6751\u6c11\u59d4\u5458\u4f1a","short_name":"\u4f0a\u5ddd\u6751","merger_name":"\u6d59\u6c5f,\u676d\u5dde,\u6df3\u5b89,\u67ab\u6811,\u4f0a\u5ddd\u6751","pinyin":"YiChuanCun","lng":"120.166579","lat":"29.935490"},{"id":197136,"parent_id":197130,"level":4,"area_code":"330127111254","zip_code":"311717","city_code":"0571","name":"\u4e73\u6d1e\u5c71\u6751\u6751\u6c11\u59d4\u5458\u4f1a","short_name":"\u4e73\u6d1e\u5c71\u6751","merger_name":"\u6d59\u6c5f,\u676d\u5dde,\u6df3\u5b89,\u67ab\u6811,\u4e73\u6d1e\u5c71\u6751","pinyin":"RuDongShanCun","lng":"118.745850","lat":"29.250930"},{"id":197137,"parent_id":197130,"level":4,"area_code":"330127111258","zip_code":"311717","city_code":"0571","name":"\u51e4\u51f0\u5e99\u6751\u6751\u6c11\u59d4\u5458\u4f1a","short_name":"\u51e4\u51f0\u5e99\u6751","merger_name":"\u6d59\u6c5f,\u676d\u5dde,\u6df3\u5b89,\u67ab\u6811,\u51e4\u51f0\u5e99\u6751","pinyin":"FengHuangMiaoCun","lng":"120.162490","lat":"29.945492"},{"id":197138,"parent_id":197130,"level":4,"area_code":"330127111264","zip_code":"311717","city_code":"0571","name":"\u4e0b\u59dc\u6751\u6751\u6c11\u59d4\u5458\u4f1a","short_name":"\u4e0b\u59dc\u6751","merger_name":"\u6d59\u6c5f,\u676d\u5dde,\u6df3\u5b89,\u67ab\u6811,\u4e0b\u59dc\u6751","pinyin":"XiaJiangCun","lng":"118.725340","lat":"29.373390"},{"id":197139,"parent_id":197130,"level":4,"area_code":"330127111265","zip_code":"311717","city_code":"0571","name":"\u6e90\u5858\u6751\u6751\u6c11\u59d4\u5458\u4f1a","short_name":"\u6e90\u5858\u6751","merger_name":"\u6d59\u6c5f,\u676d\u5dde,\u6df3\u5b89,\u67ab\u6811,\u6e90\u5858\u6751","pinyin":"YuanTangCun","lng":"118.725340","lat":"29.373390"},{"id":197140,"parent_id":197130,"level":4,"area_code":"330127111266","zip_code":"311717","city_code":"0571","name":"\u7a84\u5751\u6751\u6751\u6c11\u59d4\u5458\u4f1a","short_name":"\u7a84\u5751\u6751","merger_name":"\u6d59\u6c5f,\u676d\u5dde,\u6df3\u5b89,\u67ab\u6811,\u7a84\u5751\u6751","pinyin":"ZhaiKengCun","lng":"120.191757","lat":"29.940301"},{"id":197141,"parent_id":197130,"level":4,"area_code":"330127111267","zip_code":"311717","city_code":"0571","name":"\u94dc\u5c71\u6751\u6751\u6c11\u59d4\u5458\u4f1a","short_name":"\u94dc\u5c71\u6751","merger_name":"\u6d59\u6c5f,\u676d\u5dde,\u6df3\u5b89,\u67ab\u6811,\u94dc\u5c71\u6751","pinyin":"TongShanCun","lng":"120.166579","lat":"29.935490"},{"id":197142,"parent_id":197130,"level":4,"area_code":"330127111268","zip_code":"311717","city_code":"0571","name":"\u9c81\u5bb6\u7530\u6751\u6751\u6c11\u59d4\u5458\u4f1a","short_name":"\u9c81\u5bb6\u7530\u6751","merger_name":"\u6d59\u6c5f,\u676d\u5dde,\u6df3\u5b89,\u67ab\u6811,\u9c81\u5bb6\u7530\u6751","pinyin":"LuJiaTianCun","lng":"120.023498","lat":"30.031966"},{"id":197143,"parent_id":197130,"level":4,"area_code":"330127111269","zip_code":"311717","city_code":"0571","name":"\u5927\u6e90\u6751\u6751\u6c11\u59d4\u5458\u4f1a","short_name":"\u5927\u6e90\u6751","merger_name":"\u6d59\u6c5f,\u676d\u5dde,\u6df3\u5b89,\u67ab\u6811,\u5927\u6e90\u6751","pinyin":"DaYuanCun","lng":"120.162490","lat":"29.945492"},{"id":197144,"parent_id":197130,"level":4,"area_code":"330127111270","zip_code":"311717","city_code":"0571","name":"\u859b\u5bb6\u6e90\u6751\u6751\u6c11\u59d4\u5458\u4f1a","short_name":"\u859b\u5bb6\u6e90\u6751","merger_name":"\u6d59\u6c5f,\u676d\u5dde,\u6df3\u5b89,\u67ab\u6811,\u859b\u5bb6\u6e90\u6751","pinyin":"XueJiaYuanCun","lng":"118.692440","lat":"29.377160"},{"id":197145,"parent_id":197130,"level":4,"area_code":"330127111271","zip_code":"311717","city_code":"0571","name":"\u4e0a\u6c5f\u6751\u6751\u6c11\u59d4\u5458\u4f1a","short_name":"\u4e0a\u6c5f\u6751","merger_name":"\u6d59\u6c5f,\u676d\u5dde,\u6df3\u5b89,\u67ab\u6811,\u4e0a\u6c5f\u6751","pinyin":"ShangJiangCun","lng":"118.672220","lat":"29.364340"},{"id":197146,"parent_id":197130,"level":4,"area_code":"330127111272","zip_code":"311717","city_code":"0571","name":"\u590f\u5cf0\u6751\u6751\u6c11\u59d4\u5458\u4f1a","short_name":"\u590f\u5cf0\u6751","merger_name":"\u6d59\u6c5f,\u676d\u5dde,\u6df3\u5b89,\u67ab\u6811,\u590f\u5cf0\u6751","pinyin":"XiaFengCun","lng":"120.166579","lat":"29.935490"},{"id":197147,"parent_id":197130,"level":4,"area_code":"330127111273","zip_code":"311717","city_code":"0571","name":"\u590f\u6751\u6751\u6751\u6c11\u59d4\u5458\u4f1a","short_name":"\u590f\u6751\u6751","merger_name":"\u6d59\u6c5f,\u676d\u5dde,\u6df3\u5b89,\u67ab\u6811,\u590f\u6751\u6751","pinyin":"XiaCunCun","lng":"120.162490","lat":"29.945492"},{"id":197148,"parent_id":197130,"level":4,"area_code":"330127111274","zip_code":"311717","city_code":"0571","name":"\u6c6a\u6751\u6751\u6751\u6c11\u59d4\u5458\u4f1a","short_name":"\u6c6a\u6751\u6751","merger_name":"\u6d59\u6c5f,\u676d\u5dde,\u6df3\u5b89,\u67ab\u6811,\u6c6a\u6751\u6751","pinyin":"WangCunCun","lng":"120.150838","lat":"29.913076"},{"id":197149,"parent_id":197130,"level":4,"area_code":"330127111275","zip_code":"311717","city_code":"0571","name":"\u884d\u660c\u6751\u6751\u6c11\u59d4\u5458\u4f1a","short_name":"\u884d\u660c\u6751","merger_name":"\u6d59\u6c5f,\u676d\u5dde,\u6df3\u5b89,\u67ab\u6811,\u884d\u660c\u6751","pinyin":"YanChangCun","lng":"118.728980","lat":"29.287790"},{"id":197150,"parent_id":197130,"level":4,"area_code":"330127111276","zip_code":"311717","city_code":"0571","name":"\u6a2a\u5c71\u6751\u6751\u6c11\u59d4\u5458\u4f1a","short_name":"\u6a2a\u5c71\u6751","merger_name":"\u6d59\u6c5f,\u676d\u5dde,\u6df3\u5b89,\u67ab\u6811,\u6a2a\u5c71\u6751","pinyin":"HengShanCun","lng":"120.166579","lat":"29.935490"},{"id":197151,"parent_id":197130,"level":4,"area_code":"330127111277","zip_code":"311717","city_code":"0571","name":"\u77e5\u5fc3\u5751\u6751\u6751\u6c11\u59d4\u5458\u4f1a","short_name":"\u77e5\u5fc3\u5751\u6751","merger_name":"\u6d59\u6c5f,\u676d\u5dde,\u6df3\u5b89,\u67ab\u6811,\u77e5\u5fc3\u5751\u6751","pinyin":"ZhiXinKengCun","lng":"120.166579","lat":"29.935490"},{"id":197152,"parent_id":197130,"level":4,"area_code":"330127111278","zip_code":"311717","city_code":"0571","name":"\u767d\u9a6c\u6751\u6751\u6c11\u59d4\u5458\u4f1a","short_name":"\u767d\u9a6c\u6751","merger_name":"\u6d59\u6c5f,\u676d\u5dde,\u6df3\u5b89,\u67ab\u6811,\u767d\u9a6c\u6751","pinyin":"BaiMaCun","lng":"118.718520","lat":"29.242530"},{"id":197153,"parent_id":197130,"level":4,"area_code":"330127111279","zip_code":"311717","city_code":"0571","name":"\u5927\u6865\u5934\u6751\u6751\u6c11\u59d4\u5458\u4f1a","short_name":"\u5927\u6865\u5934\u6751","merger_name":"\u6d59\u6c5f,\u676d\u5dde,\u6df3\u5b89,\u67ab\u6811,\u5927\u6865\u5934\u6751","pinyin":"DaQiaoTouCun","lng":"118.716790","lat":"29.234100"},{"id":197154,"parent_id":197130,"level":4,"area_code":"330127111280","zip_code":"311717","city_code":"0571","name":"\u5468\u5bb6\u6865\u6751\u6751\u6c11\u59d4\u5458\u4f1a","short_name":"\u5468\u5bb6\u6865\u6751","merger_name":"\u6d59\u6c5f,\u676d\u5dde,\u6df3\u5b89,\u67ab\u6811,\u5468\u5bb6\u6865\u6751","pinyin":"ZhouJiaQiaoCun","lng":"120.172410","lat":"29.939680"},{"id":197155,"parent_id":197130,"level":4,"area_code":"330127111281","zip_code":"311717","city_code":"0571","name":"\u9648\u6751\u6751\u6751\u6c11\u59d4\u5458\u4f1a","short_name":"\u9648\u6751\u6751","merger_name":"\u6d59\u6c5f,\u676d\u5dde,\u6df3\u5b89,\u67ab\u6811,\u9648\u6751\u6751","pinyin":"ChenCunCun","lng":"120.166579","lat":"29.935490"},{"id":197156,"parent_id":197130,"level":4,"area_code":"330127111282","zip_code":"311717","city_code":"0571","name":"\u5b98\u5ddd\u6751\u6751\u6c11\u59d4\u5458\u4f1a","short_name":"\u5b98\u5ddd\u6751","merger_name":"\u6d59\u6c5f,\u676d\u5dde,\u6df3\u5b89,\u67ab\u6811,\u5b98\u5ddd\u6751","pinyin":"GuanChuanCun","lng":"120.162490","lat":"29.945492"},{"id":197157,"parent_id":197130,"level":4,"area_code":"330127111283","zip_code":"311717","city_code":"0571","name":"\u67ab\u6811\u5cad\u6751\u6751\u6c11\u59d4\u5458\u4f1a","short_name":"\u67ab\u6811\u5cad\u6751","merger_name":"\u6d59\u6c5f,\u676d\u5dde,\u6df3\u5b89,\u67ab\u6811,\u67ab\u6811\u5cad\u6751","pinyin":"FengShuLingCun","lng":"118.710980","lat":"29.365180"},{"id":197158,"parent_id":197130,"level":4,"area_code":"330127111284","zip_code":"311717","city_code":"0571","name":"\u9648\u5bb6\u6e90\u6751\u6751\u6c11\u59d4\u5458\u4f1a","short_name":"\u9648\u5bb6\u6e90\u6751","merger_name":"\u6d59\u6c5f,\u676d\u5dde,\u6df3\u5b89,\u67ab\u6811,\u9648\u5bb6\u6e90\u6751","pinyin":"ChenJiaYuanCun","lng":"120.166579","lat":"29.935490"},{"id":197159,"parent_id":196864,"level":3,"area_code":"330127200000","zip_code":"311708","city_code":"0571","name":"\u91cc\u5546\u4e61","short_name":"\u91cc\u5546","merger_name":"\u6d59\u6c5f,\u676d\u5dde,\u6df3\u5b89,\u91cc\u5546","pinyin":"LiShang","lng":"119.001670","lat":"29.489580"},{"id":197160,"parent_id":197159,"level":4,"area_code":"330127200201","zip_code":"311708","city_code":"0571","name":"\u9c7c\u6cc9\u6751\u6751\u6c11\u59d4\u5458\u4f1a","short_name":"\u9c7c\u6cc9\u6751","merger_name":"\u6d59\u6c5f,\u676d\u5dde,\u6df3\u5b89,\u91cc\u5546,\u9c7c\u6cc9\u6751","pinyin":"YuQuanCun","lng":"118.983130","lat":"29.428500"},{"id":197161,"parent_id":197159,"level":4,"area_code":"330127200204","zip_code":"311708","city_code":"0571","name":"\u5411\u9633\u6751\u6751\u6c11\u59d4\u5458\u4f1a","short_name":"\u5411\u9633\u6751","merger_name":"\u6d59\u6c5f,\u676d\u5dde,\u6df3\u5b89,\u91cc\u5546,\u5411\u9633\u6751","pinyin":"XiangYangCun","lng":"119.025160","lat":"29.467810"},{"id":197162,"parent_id":197159,"level":4,"area_code":"330127200217","zip_code":"311708","city_code":"0571","name":"\u5927\u53f6\u6751\u6751\u6c11\u59d4\u5458\u4f1a","short_name":"\u5927\u53f6\u6751","merger_name":"\u6d59\u6c5f,\u676d\u5dde,\u6df3\u5b89,\u91cc\u5546,\u5927\u53f6\u6751","pinyin":"DaYeCun","lng":"118.983130","lat":"29.428500"},{"id":197163,"parent_id":197159,"level":4,"area_code":"330127200218","zip_code":"311708","city_code":"0571","name":"\u6d1e\u5751\u53e3\u6751\u6751\u6c11\u59d4\u5458\u4f1a","short_name":"\u6d1e\u5751\u53e3\u6751","merger_name":"\u6d59\u6c5f,\u676d\u5dde,\u6df3\u5b89,\u91cc\u5546,\u6d1e\u5751\u53e3\u6751","pinyin":"DongKengKouCun","lng":"118.951240","lat":"29.400760"},{"id":197164,"parent_id":197159,"level":4,"area_code":"330127200219","zip_code":"311708","city_code":"0571","name":"\u77f3\u95e8\u6751\u6751\u6c11\u59d4\u5458\u4f1a","short_name":"\u77f3\u95e8\u6751","merger_name":"\u6d59\u6c5f,\u676d\u5dde,\u6df3\u5b89,\u91cc\u5546,\u77f3\u95e8\u6751","pinyin":"ShiMenCun","lng":"118.944150","lat":"29.389270"},{"id":197165,"parent_id":197159,"level":4,"area_code":"330127200220","zip_code":"311708","city_code":"0571","name":"\u77f3\u6e7e\u6751\u6751\u6c11\u59d4\u5458\u4f1a","short_name":"\u77f3\u6e7e\u6751","merger_name":"\u6d59\u6c5f,\u676d\u5dde,\u6df3\u5b89,\u91cc\u5546,\u77f3\u6e7e\u6751","pinyin":"ShiWanCun","lng":"118.983130","lat":"29.428500"},{"id":197166,"parent_id":197159,"level":4,"area_code":"330127200231","zip_code":"311708","city_code":"0571","name":"\u91cc\u9633\u6751\u6751\u6c11\u59d4\u5458\u4f1a","short_name":"\u91cc\u9633\u6751","merger_name":"\u6d59\u6c5f,\u676d\u5dde,\u6df3\u5b89,\u91cc\u5546,\u91cc\u9633\u6751","pinyin":"LiYangCun","lng":"119.030130","lat":"29.451600"},{"id":197167,"parent_id":197159,"level":4,"area_code":"330127200232","zip_code":"311708","city_code":"0571","name":"\u67b6\u5b50\u5cad\u6751\u6751\u6c11\u59d4\u5458\u4f1a","short_name":"\u67b6\u5b50\u5cad\u6751","merger_name":"\u6d59\u6c5f,\u676d\u5dde,\u6df3\u5b89,\u91cc\u5546,\u67b6\u5b50\u5cad\u6751","pinyin":"JiaZiLingCun","lng":"119.018430","lat":"29.496570"},{"id":197168,"parent_id":197159,"level":4,"area_code":"330127200233","zip_code":"311708","city_code":"0571","name":"\u91cc\u5546\u6751\u6751\u6c11\u59d4\u5458\u4f1a","short_name":"\u91cc\u5546\u6751","merger_name":"\u6d59\u6c5f,\u676d\u5dde,\u6df3\u5b89,\u91cc\u5546,\u91cc\u5546\u6751","pinyin":"LiShangCun","lng":"119.018430","lat":"29.496570"},{"id":197169,"parent_id":197159,"level":4,"area_code":"330127200234","zip_code":"311701","city_code":"0571","name":"\u5854\u5c71\u6751\u6751\u6c11\u59d4\u5458\u4f1a","short_name":"\u5854\u5c71\u6751","merger_name":"\u6d59\u6c5f,\u676d\u5dde,\u6df3\u5b89,\u91cc\u5546,\u5854\u5c71\u6751","pinyin":"TaShanCun","lng":"118.896580","lat":"29.463960"},{"id":197170,"parent_id":197159,"level":4,"area_code":"330127200235","zip_code":"311701","city_code":"0571","name":"\u71d5\u7a9d\u6751\u6751\u6c11\u59d4\u5458\u4f1a","short_name":"\u71d5\u7a9d\u6751","merger_name":"\u6d59\u6c5f,\u676d\u5dde,\u6df3\u5b89,\u91cc\u5546,\u71d5\u7a9d\u6751","pinyin":"YanWoCun","lng":"118.901990","lat":"29.441740"},{"id":197171,"parent_id":197159,"level":4,"area_code":"330127200236","zip_code":"311701","city_code":"0571","name":"\u6751\u5751\u6751\u6751\u6c11\u59d4\u5458\u4f1a","short_name":"\u6751\u5751\u6751","merger_name":"\u6d59\u6c5f,\u676d\u5dde,\u6df3\u5b89,\u91cc\u5546,\u6751\u5751\u6751","pinyin":"CunKengCun","lng":"118.864470","lat":"29.454650"},{"id":197172,"parent_id":197159,"level":4,"area_code":"330127200237","zip_code":"311701","city_code":"0571","name":"\u6c5f\u6751\u6751\u6751\u6c11\u59d4\u5458\u4f1a","short_name":"\u6c5f\u6751\u6751","merger_name":"\u6d59\u6c5f,\u676d\u5dde,\u6df3\u5b89,\u91cc\u5546,\u6c5f\u6751\u6751","pinyin":"JiangCunCun","lng":"118.945270","lat":"29.461640"},{"id":197173,"parent_id":197159,"level":4,"area_code":"330127200238","zip_code":"311708","city_code":"0571","name":"\u6b66\u6e90\u6751\u6751\u6c11\u59d4\u5458\u4f1a","short_name":"\u6b66\u6e90\u6751","merger_name":"\u6d59\u6c5f,\u676d\u5dde,\u6df3\u5b89,\u91cc\u5546,\u6b66\u6e90\u6751","pinyin":"WuYuanCun","lng":"119.030130","lat":"29.451600"},{"id":197174,"parent_id":197159,"level":4,"area_code":"330127200239","zip_code":"311708","city_code":"0571","name":"\u4e94\u5174\u6751\u6751\u6c11\u59d4\u5458\u4f1a","short_name":"\u4e94\u5174\u6751","merger_name":"\u6d59\u6c5f,\u676d\u5dde,\u6df3\u5b89,\u91cc\u5546,\u4e94\u5174\u6751","pinyin":"WuXingCun","lng":"118.991570","lat":"29.449090"},{"id":197175,"parent_id":197159,"level":4,"area_code":"330127200240","zip_code":"311708","city_code":"0571","name":"\u90ce\u8303\u6751\u6751\u6c11\u59d4\u5458\u4f1a","short_name":"\u90ce\u8303\u6751","merger_name":"\u6d59\u6c5f,\u676d\u5dde,\u6df3\u5b89,\u91cc\u5546,\u90ce\u8303\u6751","pinyin":"LangFanCun","lng":"118.983130","lat":"29.428500"},{"id":197176,"parent_id":196864,"level":3,"area_code":"330127201000","zip_code":"311701","city_code":"0571","name":"\u91d1\u5cf0\u4e61","short_name":"\u91d1\u5cf0","merger_name":"\u6d59\u6c5f,\u676d\u5dde,\u6df3\u5b89,\u91d1\u5cf0","pinyin":"JinFeng","lng":"119.042070","lat":"29.608860"},{"id":197177,"parent_id":197176,"level":4,"area_code":"330127201208","zip_code":"311701","city_code":"0571","name":"\u5c71\u540e\u6751\u6751\u6c11\u59d4\u5458\u4f1a","short_name":"\u5c71\u540e\u6751","merger_name":"\u6d59\u6c5f,\u676d\u5dde,\u6df3\u5b89,\u91d1\u5cf0,\u5c71\u540e\u6751","pinyin":"ShanHouCun","lng":"118.965200","lat":"29.708290"},{"id":197178,"parent_id":197176,"level":4,"area_code":"330127201210","zip_code":"311701","city_code":"0571","name":"\u5b89\u4e0a\u6751\u6751\u6c11\u59d4\u5458\u4f1a","short_name":"\u5b89\u4e0a\u6751","merger_name":"\u6d59\u6c5f,\u676d\u5dde,\u6df3\u5b89,\u91d1\u5cf0,\u5b89\u4e0a\u6751","pinyin":"AnShangCun","lng":"118.962580","lat":"29.712820"},{"id":197179,"parent_id":197176,"level":4,"area_code":"330127201211","zip_code":"311701","city_code":"0571","name":"\u6731\u5bb6\u6751\u6751\u6c11\u59d4\u5458\u4f1a","short_name":"\u6731\u5bb6\u6751","merger_name":"\u6d59\u6c5f,\u676d\u5dde,\u6df3\u5b89,\u91d1\u5cf0,\u6731\u5bb6\u6751","pinyin":"ZhuJiaCun","lng":"118.965200","lat":"29.708290"},{"id":197180,"parent_id":197176,"level":4,"area_code":"330127201221","zip_code":"311701","city_code":"0571","name":"\u848b\u5cad\u4e0a\u6751\u6751\u6c11\u59d4\u5458\u4f1a","short_name":"\u848b\u5cad\u4e0a\u6751","merger_name":"\u6d59\u6c5f,\u676d\u5dde,\u6df3\u5b89,\u91d1\u5cf0,\u848b\u5cad\u4e0a\u6751","pinyin":"JiangLingShangCun","lng":"118.983470","lat":"29.675780"},{"id":197181,"parent_id":197176,"level":4,"area_code":"330127201223","zip_code":"311701","city_code":"0571","name":"\u6bbf\u5cf0\u6751\u6751\u6c11\u59d4\u5458\u4f1a","short_name":"\u6bbf\u5cf0\u6751","merger_name":"\u6d59\u6c5f,\u676d\u5dde,\u6df3\u5b89,\u91d1\u5cf0,\u6bbf\u5cf0\u6751","pinyin":"DianFengCun","lng":"118.934720","lat":"29.701030"},{"id":197182,"parent_id":197176,"level":4,"area_code":"330127201224","zip_code":"311701","city_code":"0571","name":"\u91d1\u6e90\u6751\u6751\u6c11\u59d4\u5458\u4f1a","short_name":"\u91d1\u6e90\u6751","merger_name":"\u6d59\u6c5f,\u676d\u5dde,\u6df3\u5b89,\u91d1\u5cf0,\u91d1\u6e90\u6751","pinyin":"JinYuanCun","lng":"118.917820","lat":"29.678070"},{"id":197183,"parent_id":197176,"level":4,"area_code":"330127201225","zip_code":"311701","city_code":"0571","name":"\u666f\u5c71\u6751\u6751\u6c11\u59d4\u5458\u4f1a","short_name":"\u666f\u5c71\u6751","merger_name":"\u6d59\u6c5f,\u676d\u5dde,\u6df3\u5b89,\u91d1\u5cf0,\u666f\u5c71\u6751","pinyin":"JingShanCun","lng":"118.922610","lat":"29.661680"},{"id":197184,"parent_id":197176,"level":4,"area_code":"330127201226","zip_code":"311701","city_code":"0571","name":"\u91d1\u5cf0\u6751\u6751\u6c11\u59d4\u5458\u4f1a","short_name":"\u91d1\u5cf0\u6751","merger_name":"\u6d59\u6c5f,\u676d\u5dde,\u6df3\u5b89,\u91d1\u5cf0,\u91d1\u5cf0\u6751","pinyin":"JinFengCun","lng":"118.922610","lat":"29.661680"},{"id":197185,"parent_id":197176,"level":4,"area_code":"330127201227","zip_code":"311701","city_code":"0571","name":"\u9526\u6eaa\u6751\u6751\u6c11\u59d4\u5458\u4f1a","short_name":"\u9526\u6eaa\u6751","merger_name":"\u6d59\u6c5f,\u676d\u5dde,\u6df3\u5b89,\u91d1\u5cf0,\u9526\u6eaa\u6751","pinyin":"JinXiCun","lng":"118.980360","lat":"29.683120"},{"id":197186,"parent_id":197176,"level":4,"area_code":"330127201228","zip_code":"311701","city_code":"0571","name":"\u767e\u7167\u6751\u6751\u6c11\u59d4\u5458\u4f1a","short_name":"\u767e\u7167\u6751","merger_name":"\u6d59\u6c5f,\u676d\u5dde,\u6df3\u5b89,\u91d1\u5cf0,\u767e\u7167\u6751","pinyin":"BaiZhaoCun","lng":"118.934720","lat":"29.701030"},{"id":197187,"parent_id":197176,"level":4,"area_code":"330127201229","zip_code":"311701","city_code":"0571","name":"\u4e94\u9f99\u6751\u6751\u6c11\u59d4\u5458\u4f1a","short_name":"\u4e94\u9f99\u6751","merger_name":"\u6d59\u6c5f,\u676d\u5dde,\u6df3\u5b89,\u91d1\u5cf0,\u4e94\u9f99\u6751","pinyin":"WuLongCun","lng":"118.965200","lat":"29.708290"},{"id":197188,"parent_id":196864,"level":3,"area_code":"330127202000","zip_code":"311707","city_code":"0571","name":"\u5bcc\u6587\u4e61","short_name":"\u5bcc\u6587","merger_name":"\u6d59\u6c5f,\u676d\u5dde,\u6df3\u5b89,\u5bcc\u6587","pinyin":"FuWen","lng":"119.215350","lat":"29.647050"},{"id":197189,"parent_id":197188,"level":4,"area_code":"330127202206","zip_code":"311707","city_code":"0571","name":"\u6f20\u5ddd\u6751\u6751\u6c11\u59d4\u5458\u4f1a","short_name":"\u6f20\u5ddd\u6751","merger_name":"\u6d59\u6c5f,\u676d\u5dde,\u6df3\u5b89,\u5bcc\u6587,\u6f20\u5ddd\u6751","pinyin":"MoChuanCun","lng":"119.220250","lat":"29.648940"},{"id":197190,"parent_id":197188,"level":4,"area_code":"330127202208","zip_code":"311707","city_code":"0571","name":"\u805a\u58c1\u6751\u6751\u6c11\u59d4\u5458\u4f1a","short_name":"\u805a\u58c1\u6751","merger_name":"\u6d59\u6c5f,\u676d\u5dde,\u6df3\u5b89,\u5bcc\u6587,\u805a\u58c1\u6751","pinyin":"JuBiCun","lng":"119.182930","lat":"29.732130"},{"id":197191,"parent_id":197188,"level":4,"area_code":"330127202209","zip_code":"311707","city_code":"0571","name":"\u71d5\u5751\u6751\u6751\u6c11\u59d4\u5458\u4f1a","short_name":"\u71d5\u5751\u6751","merger_name":"\u6d59\u6c5f,\u676d\u5dde,\u6df3\u5b89,\u5bcc\u6587,\u71d5\u5751\u6751","pinyin":"YanKengCun","lng":"119.209810","lat":"29.687860"},{"id":197192,"parent_id":197188,"level":4,"area_code":"330127202217","zip_code":"311707","city_code":"0571","name":"\u516d\u8054\u6751\u6751\u6c11\u59d4\u5458\u4f1a","short_name":"\u516d\u8054\u6751","merger_name":"\u6d59\u6c5f,\u676d\u5dde,\u6df3\u5b89,\u5bcc\u6587,\u516d\u8054\u6751","pinyin":"LiuLianCun","lng":"119.193600","lat":"29.733020"},{"id":197193,"parent_id":197188,"level":4,"area_code":"330127202218","zip_code":"311707","city_code":"0571","name":"\u9752\u7530\u6751\u6751\u6c11\u59d4\u5458\u4f1a","short_name":"\u9752\u7530\u6751","merger_name":"\u6d59\u6c5f,\u676d\u5dde,\u6df3\u5b89,\u5bcc\u6587,\u9752\u7530\u6751","pinyin":"QingTianCun","lng":"119.193600","lat":"29.733020"},{"id":197194,"parent_id":197188,"level":4,"area_code":"330127202219","zip_code":"311707","city_code":"0571","name":"\u5bcc\u6587\u6751\u6751\u6c11\u59d4\u5458\u4f1a","short_name":"\u5bcc\u6587\u6751","merger_name":"\u6d59\u6c5f,\u676d\u5dde,\u6df3\u5b89,\u5bcc\u6587,\u5bcc\u6587\u6751","pinyin":"FuWenCun","lng":"119.220250","lat":"29.648940"},{"id":197195,"parent_id":197188,"level":4,"area_code":"330127202220","zip_code":"311707","city_code":"0571","name":"\u65b9\u5bb6\u7548\u6751\u6751\u6c11\u59d4\u5458\u4f1a","short_name":"\u65b9\u5bb6\u7548\u6751","merger_name":"\u6d59\u6c5f,\u676d\u5dde,\u6df3\u5b89,\u5bcc\u6587,\u65b9\u5bb6\u7548\u6751","pinyin":"FangJiaFanCun","lng":"119.182930","lat":"29.732130"},{"id":197196,"parent_id":197188,"level":4,"area_code":"330127202221","zip_code":"311707","city_code":"0571","name":"\u67e5\u6797\u6751\u6751\u6c11\u59d4\u5458\u4f1a","short_name":"\u67e5\u6797\u6751","merger_name":"\u6d59\u6c5f,\u676d\u5dde,\u6df3\u5b89,\u5bcc\u6587,\u67e5\u6797\u6751","pinyin":"ChaLinCun","lng":"119.266210","lat":"29.663850"},{"id":197197,"parent_id":197188,"level":4,"area_code":"330127202222","zip_code":"311707","city_code":"0571","name":"\u91cd\u5751\u6751\u6751\u6c11\u59d4\u5458\u4f1a","short_name":"\u91cd\u5751\u6751","merger_name":"\u6d59\u6c5f,\u676d\u5dde,\u6df3\u5b89,\u5bcc\u6587,\u91cd\u5751\u6751","pinyin":"ZhongKengCun","lng":"119.266210","lat":"29.663850"},{"id":197198,"parent_id":197188,"level":4,"area_code":"330127202223","zip_code":"311707","city_code":"0571","name":"\u7ae0\u5751\u6751\u6751\u6c11\u59d4\u5458\u4f1a","short_name":"\u7ae0\u5751\u6751","merger_name":"\u6d59\u6c5f,\u676d\u5dde,\u6df3\u5b89,\u5bcc\u6587,\u7ae0\u5751\u6751","pinyin":"ZhangKengCun","lng":"119.193600","lat":"29.733020"},{"id":197199,"parent_id":196864,"level":3,"area_code":"330127203000","zip_code":"311701","city_code":"0571","name":"\u5de6\u53e3\u4e61","short_name":"\u5de6\u53e3","merger_name":"\u6d59\u6c5f,\u676d\u5dde,\u6df3\u5b89,\u5de6\u53e3","pinyin":"ZuoKou","lng":"119.076140","lat":"29.697610"},{"id":197200,"parent_id":197199,"level":4,"area_code":"330127203204","zip_code":"311701","city_code":"0571","name":"\u663e\u540e\u6751\u6751\u6c11\u59d4\u5458\u4f1a","short_name":"\u663e\u540e\u6751","merger_name":"\u6d59\u6c5f,\u676d\u5dde,\u6df3\u5b89,\u5de6\u53e3,\u663e\u540e\u6751","pinyin":"XianHouCun","lng":"119.050370","lat":"29.726740"},{"id":197201,"parent_id":197199,"level":4,"area_code":"330127203215","zip_code":"311701","city_code":"0571","name":"\u65b9\u5bb6\u6751\u6751\u6c11\u59d4\u5458\u4f1a","short_name":"\u65b9\u5bb6\u6751","merger_name":"\u6d59\u6c5f,\u676d\u5dde,\u6df3\u5b89,\u5de6\u53e3,\u65b9\u5bb6\u6751","pinyin":"FangJiaCun","lng":"119.026180","lat":"29.755720"},{"id":197202,"parent_id":197199,"level":4,"area_code":"330127203216","zip_code":"311701","city_code":"0571","name":"\u77f3\u5cad\u540e\u6751\u6751\u6c11\u59d4\u5458\u4f1a","short_name":"\u77f3\u5cad\u540e\u6751","merger_name":"\u6d59\u6c5f,\u676d\u5dde,\u6df3\u5b89,\u5de6\u53e3,\u77f3\u5cad\u540e\u6751","pinyin":"ShiLingHouCun","lng":"119.090500","lat":"29.797860"},{"id":197203,"parent_id":197199,"level":4,"area_code":"330127203217","zip_code":"311701","city_code":"0571","name":"\u96cc\u9f99\u6e90\u6751\u6751\u6c11\u59d4\u5458\u4f1a","short_name":"\u96cc\u9f99\u6e90\u6751","merger_name":"\u6d59\u6c5f,\u676d\u5dde,\u6df3\u5b89,\u5de6\u53e3,\u96cc\u9f99\u6e90\u6751","pinyin":"CiLongYuanCun","lng":"119.065980","lat":"29.817590"},{"id":197204,"parent_id":197199,"level":4,"area_code":"330127203220","zip_code":"311701","city_code":"0571","name":"\u9f99\u6e90\u5e84\u6751\u6751\u6c11\u59d4\u5458\u4f1a","short_name":"\u9f99\u6e90\u5e84\u6751","merger_name":"\u6d59\u6c5f,\u676d\u5dde,\u6df3\u5b89,\u5de6\u53e3,\u9f99\u6e90\u5e84\u6751","pinyin":"LongYuanZhuangCun","lng":"119.069090","lat":"29.753210"},{"id":197205,"parent_id":197199,"level":4,"area_code":"330127203221","zip_code":"311701","city_code":"0571","name":"\u7476\u6751\u6751\u6751\u6c11\u59d4\u5458\u4f1a","short_name":"\u7476\u6751\u6751","merger_name":"\u6d59\u6c5f,\u676d\u5dde,\u6df3\u5b89,\u5de6\u53e3,\u7476\u6751\u6751","pinyin":"YaoCunCun","lng":"119.073460","lat":"29.702030"},{"id":197206,"parent_id":197199,"level":4,"area_code":"330127203222","zip_code":"311701","city_code":"0571","name":"\u5de6\u53e3\u6751\u6751\u6c11\u59d4\u5458\u4f1a","short_name":"\u5de6\u53e3\u6751","merger_name":"\u6d59\u6c5f,\u676d\u5dde,\u6df3\u5b89,\u5de6\u53e3,\u5de6\u53e3\u6751","pinyin":"ZuoKouCun","lng":"119.026180","lat":"29.755720"},{"id":197207,"parent_id":197199,"level":4,"area_code":"330127203223","zip_code":"311701","city_code":"0571","name":"\u82b3\u6865\u6751\u6751\u6c11\u59d4\u5458\u4f1a","short_name":"\u82b3\u6865\u6751","merger_name":"\u6d59\u6c5f,\u676d\u5dde,\u6df3\u5b89,\u5de6\u53e3,\u82b3\u6865\u6751","pinyin":"FangQiaoCun","lng":"118.995110","lat":"29.778010"},{"id":197208,"parent_id":197199,"level":4,"area_code":"330127203224","zip_code":"311701","city_code":"0571","name":"\u7530\u91cc\u6751\u6751\u6c11\u59d4\u5458\u4f1a","short_name":"\u7530\u91cc\u6751","merger_name":"\u6d59\u6c5f,\u676d\u5dde,\u6df3\u5b89,\u5de6\u53e3,\u7530\u91cc\u6751","pinyin":"TianLiCun","lng":"119.018282","lat":"29.794690"},{"id":197209,"parent_id":197199,"level":4,"area_code":"330127203225","zip_code":"311701","city_code":"0571","name":"\u5858\u8fb9\u6751\u6751\u6c11\u59d4\u5458\u4f1a","short_name":"\u5858\u8fb9\u6751","merger_name":"\u6d59\u6c5f,\u676d\u5dde,\u6df3\u5b89,\u5de6\u53e3,\u5858\u8fb9\u6751","pinyin":"TangBianCun","lng":"119.069090","lat":"29.753210"},{"id":197210,"parent_id":197199,"level":4,"area_code":"330127203226","zip_code":"311701","city_code":"0571","name":"\u6865\u897f\u6751\u6751\u6c11\u59d4\u5458\u4f1a","short_name":"\u6865\u897f\u6751","merger_name":"\u6d59\u6c5f,\u676d\u5dde,\u6df3\u5b89,\u5de6\u53e3,\u6865\u897f\u6751","pinyin":"QiaoXiCun","lng":"119.073460","lat":"29.702030"},{"id":197211,"parent_id":196864,"level":3,"area_code":"330127205000","zip_code":"311703","city_code":"0571","name":"\u5c4f\u95e8\u4e61","short_name":"\u5c4f\u95e8","merger_name":"\u6d59\u6c5f,\u676d\u5dde,\u6df3\u5b89,\u5c4f\u95e8","pinyin":"PingMen","lng":"119.038880","lat":"29.865040"},{"id":197212,"parent_id":197211,"level":4,"area_code":"330127205204","zip_code":"311703","city_code":"0571","name":"\u79cb\u53e3\u6751\u6751\u6c11\u59d4\u5458\u4f1a","short_name":"\u79cb\u53e3\u6751","merger_name":"\u6d59\u6c5f,\u676d\u5dde,\u6df3\u5b89,\u5c4f\u95e8,\u79cb\u53e3\u6751","pinyin":"QiuKouCun","lng":"119.033400","lat":"29.888340"},{"id":197213,"parent_id":197211,"level":4,"area_code":"330127205209","zip_code":"311703","city_code":"0571","name":"\u582a\u5934\u6751\u6751\u6c11\u59d4\u5458\u4f1a","short_name":"\u582a\u5934\u6751","merger_name":"\u6d59\u6c5f,\u676d\u5dde,\u6df3\u5b89,\u5c4f\u95e8,\u582a\u5934\u6751","pinyin":"KanTouCun","lng":"118.990740","lat":"29.897280"},{"id":197214,"parent_id":197211,"level":4,"area_code":"330127205210","zip_code":"311703","city_code":"0571","name":"\u9879\u5bb6\u6751\u6751\u6c11\u59d4\u5458\u4f1a","short_name":"\u9879\u5bb6\u6751","merger_name":"\u6d59\u6c5f,\u676d\u5dde,\u6df3\u5b89,\u5c4f\u95e8,\u9879\u5bb6\u6751","pinyin":"XiangJiaCun","lng":"118.970860","lat":"29.906170"},{"id":197215,"parent_id":197211,"level":4,"area_code":"330127205211","zip_code":"311703","city_code":"0571","name":"\u4e01\u5bb6\u7548\u6751\u6751\u6c11\u59d4\u5458\u4f1a","short_name":"\u4e01\u5bb6\u7548\u6751","merger_name":"\u6d59\u6c5f,\u676d\u5dde,\u6df3\u5b89,\u5c4f\u95e8,\u4e01\u5bb6\u7548\u6751","pinyin":"DingJiaFanCun","lng":"118.970860","lat":"29.906170"},{"id":197216,"parent_id":197211,"level":4,"area_code":"330127205212","zip_code":"311703","city_code":"0571","name":"\u9f50\u5751\u6751\u6751\u6c11\u59d4\u5458\u4f1a","short_name":"\u9f50\u5751\u6751","merger_name":"\u6d59\u6c5f,\u676d\u5dde,\u6df3\u5b89,\u5c4f\u95e8,\u9f50\u5751\u6751","pinyin":"QiKengCun","lng":"118.970860","lat":"29.906170"},{"id":197217,"parent_id":197211,"level":4,"area_code":"330127205221","zip_code":"311703","city_code":"0571","name":"\u4e0a\u4e2d\u6751\u6751\u6c11\u59d4\u5458\u4f1a","short_name":"\u4e0a\u4e2d\u6751","merger_name":"\u6d59\u6c5f,\u676d\u5dde,\u6df3\u5b89,\u5c4f\u95e8,\u4e0a\u4e2d\u6751","pinyin":"ShangZhongCun","lng":"119.022240","lat":"29.925120"},{"id":197218,"parent_id":197211,"level":4,"area_code":"330127205232","zip_code":"311703","city_code":"0571","name":"\u5c06\u5751\u6751\u6751\u6c11\u59d4\u5458\u4f1a","short_name":"\u5c06\u5751\u6751","merger_name":"\u6d59\u6c5f,\u676d\u5dde,\u6df3\u5b89,\u5c4f\u95e8,\u5c06\u5751\u6751","pinyin":"JiangKengCun","lng":"119.060250","lat":"29.868590"},{"id":197219,"parent_id":197211,"level":4,"area_code":"330127205233","zip_code":"311703","city_code":"0571","name":"\u5c4f\u95e8\u6751\u6751\u6c11\u59d4\u5458\u4f1a","short_name":"\u5c4f\u95e8\u6751","merger_name":"\u6d59\u6c5f,\u676d\u5dde,\u6df3\u5b89,\u5c4f\u95e8,\u5c4f\u95e8\u6751","pinyin":"PingMenCun","lng":"119.037920","lat":"29.867080"},{"id":197220,"parent_id":197211,"level":4,"area_code":"330127205234","zip_code":"311703","city_code":"0571","name":"\u4f5b\u5cad\u540e\u6751\u6751\u6c11\u59d4\u5458\u4f1a","short_name":"\u4f5b\u5cad\u540e\u6751","merger_name":"\u6d59\u6c5f,\u676d\u5dde,\u6df3\u5b89,\u5c4f\u95e8,\u4f5b\u5cad\u540e\u6751","pinyin":"FuLingHouCun","lng":"118.990380","lat":"29.878680"},{"id":197221,"parent_id":197211,"level":4,"area_code":"330127205235","zip_code":"311703","city_code":"0571","name":"\u7ae5\u5bb6\u576a\u6751\u6751\u6c11\u59d4\u5458\u4f1a","short_name":"\u7ae5\u5bb6\u576a\u6751","merger_name":"\u6d59\u6c5f,\u676d\u5dde,\u6df3\u5b89,\u5c4f\u95e8,\u7ae5\u5bb6\u576a\u6751","pinyin":"TongJiaPingCun","lng":"119.063550","lat":"29.858690"},{"id":197222,"parent_id":197211,"level":4,"area_code":"330127205236","zip_code":"311703","city_code":"0571","name":"\u91d1\u9675\u6751\u6751\u6c11\u59d4\u5458\u4f1a","short_name":"\u91d1\u9675\u6751","merger_name":"\u6d59\u6c5f,\u676d\u5dde,\u6df3\u5b89,\u5c4f\u95e8,\u91d1\u9675\u6751","pinyin":"JinLingCun","lng":"119.037920","lat":"29.867080"},{"id":197223,"parent_id":197211,"level":4,"area_code":"330127205237","zip_code":"311703","city_code":"0571","name":"\u5c4f\u524d\u6751\u6751\u6c11\u59d4\u5458\u4f1a","short_name":"\u5c4f\u524d\u6751","merger_name":"\u6d59\u6c5f,\u676d\u5dde,\u6df3\u5b89,\u5c4f\u95e8,\u5c4f\u524d\u6751","pinyin":"PingQianCun","lng":"118.970860","lat":"29.906170"},{"id":197224,"parent_id":197211,"level":4,"area_code":"330127205238","zip_code":"311703","city_code":"0571","name":"\u79cb\u6e90\u6751\u6751\u6c11\u59d4\u5458\u4f1a","short_name":"\u79cb\u6e90\u6751","merger_name":"\u6d59\u6c5f,\u676d\u5dde,\u6df3\u5b89,\u5c4f\u95e8,\u79cb\u6e90\u6751","pinyin":"QiuYuanCun","lng":"119.022810","lat":"29.925230"},{"id":197225,"parent_id":197211,"level":4,"area_code":"330127205239","zip_code":"311703","city_code":"0571","name":"\u5c0f\u9675\u6751\u6751\u6c11\u59d4\u5458\u4f1a","short_name":"\u5c0f\u9675\u6751","merger_name":"\u6d59\u6c5f,\u676d\u5dde,\u6df3\u5b89,\u5c4f\u95e8,\u5c0f\u9675\u6751","pinyin":"XiaoLingCun","lng":"119.004160","lat":"29.919230"},{"id":197226,"parent_id":197211,"level":4,"area_code":"330127205240","zip_code":"311703","city_code":"0571","name":"\u9690\u5c06\u6751\u6751\u6c11\u59d4\u5458\u4f1a","short_name":"\u9690\u5c06\u6751","merger_name":"\u6d59\u6c5f,\u676d\u5dde,\u6df3\u5b89,\u5c4f\u95e8,\u9690\u5c06\u6751","pinyin":"YinJiangCun","lng":"119.063550","lat":"29.858690"},{"id":197227,"parent_id":196864,"level":3,"area_code":"330127206000","zip_code":"311703","city_code":"0571","name":"\u7476\u5c71\u4e61","short_name":"\u7476\u5c71","merger_name":"\u6d59\u6c5f,\u676d\u5dde,\u6df3\u5b89,\u7476\u5c71","pinyin":"YaoShan","lng":"119.075230","lat":"29.961360"},{"id":197228,"parent_id":197227,"level":4,"area_code":"330127206203","zip_code":"311703","city_code":"0571","name":"\u7231\u56fd\u6751\u6751\u6c11\u59d4\u5458\u4f1a","short_name":"\u7231\u56fd\u6751","merger_name":"\u6d59\u6c5f,\u676d\u5dde,\u6df3\u5b89,\u7476\u5c71,\u7231\u56fd\u6751","pinyin":"AiGuoCun","lng":"119.083560","lat":"29.916940"},{"id":197229,"parent_id":197227,"level":4,"area_code":"330127206204","zip_code":"311703","city_code":"0571","name":"\u5f20\u5bb6\u6751\u6751\u6c11\u59d4\u5458\u4f1a","short_name":"\u5f20\u5bb6\u6751","merger_name":"\u6d59\u6c5f,\u676d\u5dde,\u6df3\u5b89,\u7476\u5c71,\u5f20\u5bb6\u6751","pinyin":"ZhangJiaCun","lng":"119.096240","lat":"29.914370"},{"id":197230,"parent_id":197227,"level":4,"area_code":"330127206205","zip_code":"311703","city_code":"0571","name":"\u7405\u6d1e\u6751\u6751\u6c11\u59d4\u5458\u4f1a","short_name":"\u7405\u6d1e\u6751","merger_name":"\u6d59\u6c5f,\u676d\u5dde,\u6df3\u5b89,\u7476\u5c71,\u7405\u6d1e\u6751","pinyin":"LangDongCun","lng":"119.083840","lat":"29.931340"},{"id":197231,"parent_id":197227,"level":4,"area_code":"330127206206","zip_code":"311703","city_code":"0571","name":"\u5e78\u798f\u6751\u6751\u6c11\u59d4\u5458\u4f1a","short_name":"\u5e78\u798f\u6751","merger_name":"\u6d59\u6c5f,\u676d\u5dde,\u6df3\u5b89,\u7476\u5c71,\u5e78\u798f\u6751","pinyin":"XingFuCun","lng":"119.081680","lat":"29.952810"},{"id":197232,"parent_id":197227,"level":4,"area_code":"330127206207","zip_code":"311703","city_code":"0571","name":"\u8d21\u5751\u6751\u6751\u6c11\u59d4\u5458\u4f1a","short_name":"\u8d21\u5751\u6751","merger_name":"\u6d59\u6c5f,\u676d\u5dde,\u6df3\u5b89,\u7476\u5c71,\u8d21\u5751\u6751","pinyin":"GongKengCun","lng":"119.081680","lat":"29.952810"},{"id":197233,"parent_id":197227,"level":4,"area_code":"330127206214","zip_code":"311703","city_code":"0571","name":"\u53cc\u5171\u6751\u6751\u6c11\u59d4\u5458\u4f1a","short_name":"\u53cc\u5171\u6751","merger_name":"\u6d59\u6c5f,\u676d\u5dde,\u6df3\u5b89,\u7476\u5c71,\u53cc\u5171\u6751","pinyin":"ShuangGongCun","lng":"119.081680","lat":"29.952810"},{"id":197234,"parent_id":197227,"level":4,"area_code":"330127206215","zip_code":"311703","city_code":"0571","name":"\u5929\u576a\u6751\u6751\u6c11\u59d4\u5458\u4f1a","short_name":"\u5929\u576a\u6751","merger_name":"\u6d59\u6c5f,\u676d\u5dde,\u6df3\u5b89,\u7476\u5c71,\u5929\u576a\u6751","pinyin":"TianPingCun","lng":"119.012680","lat":"29.991310"},{"id":197235,"parent_id":197227,"level":4,"area_code":"330127206220","zip_code":"311703","city_code":"0571","name":"\u4f55\u5bb6\u6751\u6751\u6c11\u59d4\u5458\u4f1a","short_name":"\u4f55\u5bb6\u6751","merger_name":"\u6d59\u6c5f,\u676d\u5dde,\u6df3\u5b89,\u7476\u5c71,\u4f55\u5bb6\u6751","pinyin":"HeJiaCun","lng":"119.073910","lat":"29.962190"},{"id":197236,"parent_id":197227,"level":4,"area_code":"330127206221","zip_code":"311703","city_code":"0571","name":"\u5bcc\u5ca9\u6751\u6751\u6c11\u59d4\u5458\u4f1a","short_name":"\u5bcc\u5ca9\u6751","merger_name":"\u6d59\u6c5f,\u676d\u5dde,\u6df3\u5b89,\u7476\u5c71,\u5bcc\u5ca9\u6751","pinyin":"FuYanCun","lng":"119.052990","lat":"29.976330"},{"id":197237,"parent_id":197227,"level":4,"area_code":"330127206222","zip_code":"311703","city_code":"0571","name":"\u6d6a\u5751\u6e90\u6751\u6751\u6c11\u59d4\u5458\u4f1a","short_name":"\u6d6a\u5751\u6e90\u6751","merger_name":"\u6d59\u6c5f,\u676d\u5dde,\u6df3\u5b89,\u7476\u5c71,\u6d6a\u5751\u6e90\u6751","pinyin":"LangKengYuanCun","lng":"119.058270","lat":"29.938850"},{"id":197238,"parent_id":197227,"level":4,"area_code":"330127206223","zip_code":"311703","city_code":"0571","name":"\u5cad\u540e\u6e90\u6751\u6751\u6c11\u59d4\u5458\u4f1a","short_name":"\u5cad\u540e\u6e90\u6751","merger_name":"\u6d59\u6c5f,\u676d\u5dde,\u6df3\u5b89,\u7476\u5c71,\u5cad\u540e\u6e90\u6751","pinyin":"LingHouYuanCun","lng":"119.100550","lat":"29.992730"},{"id":197239,"parent_id":196864,"level":3,"area_code":"330127208000","zip_code":"311715","city_code":"0571","name":"\u738b\u961c\u4e61","short_name":"\u738b\u961c","merger_name":"\u6d59\u6c5f,\u676d\u5dde,\u6df3\u5b89,\u738b\u961c","pinyin":"WangFu","lng":"118.919330","lat":"29.835350"},{"id":197240,"parent_id":197239,"level":4,"area_code":"330127208210","zip_code":"311715","city_code":"0571","name":"\u90d1\u4e2d\u6751\u6751\u6c11\u59d4\u5458\u4f1a","short_name":"\u90d1\u4e2d\u6751","merger_name":"\u6d59\u6c5f,\u676d\u5dde,\u6df3\u5b89,\u738b\u961c,\u90d1\u4e2d\u6751","pinyin":"ZhengZhongCun","lng":"118.919420","lat":"29.834510"},{"id":197241,"parent_id":197239,"level":4,"area_code":"330127208244","zip_code":"311715","city_code":"0571","name":"\u7ba1\u5bb6\u6751\u6751\u6c11\u59d4\u5458\u4f1a","short_name":"\u7ba1\u5bb6\u6751","merger_name":"\u6d59\u6c5f,\u676d\u5dde,\u6df3\u5b89,\u738b\u961c,\u7ba1\u5bb6\u6751","pinyin":"GuanJiaCun","lng":"118.909950","lat":"29.816080"},{"id":197242,"parent_id":197239,"level":4,"area_code":"330127208245","zip_code":"311715","city_code":"0571","name":"\u957f\u5ddd\u6751\u6751\u6c11\u59d4\u5458\u4f1a","short_name":"\u957f\u5ddd\u6751","merger_name":"\u6d59\u6c5f,\u676d\u5dde,\u6df3\u5b89,\u738b\u961c,\u957f\u5ddd\u6751","pinyin":"ChangChuanCun","lng":"118.919420","lat":"29.834510"},{"id":197243,"parent_id":197239,"level":4,"area_code":"330127208246","zip_code":"311715","city_code":"0571","name":"\u65b0\u7548\u6751\u6751\u6c11\u59d4\u5458\u4f1a","short_name":"\u65b0\u7548\u6751","merger_name":"\u6d59\u6c5f,\u676d\u5dde,\u6df3\u5b89,\u738b\u961c,\u65b0\u7548\u6751","pinyin":"XinFanCun","lng":"118.919420","lat":"29.834510"},{"id":197244,"parent_id":197239,"level":4,"area_code":"330127208247","zip_code":"311715","city_code":"0571","name":"\u67f3\u5858\u6751\u6751\u6c11\u59d4\u5458\u4f1a","short_name":"\u67f3\u5858\u6751","merger_name":"\u6d59\u6c5f,\u676d\u5dde,\u6df3\u5b89,\u738b\u961c,\u67f3\u5858\u6751","pinyin":"LiuTangCun","lng":"118.919420","lat":"29.834510"},{"id":197245,"parent_id":197239,"level":4,"area_code":"330127208248","zip_code":"311715","city_code":"0571","name":"\u534e\u576a\u6751\u6751\u6c11\u59d4\u5458\u4f1a","short_name":"\u534e\u576a\u6751","merger_name":"\u6d59\u6c5f,\u676d\u5dde,\u6df3\u5b89,\u738b\u961c,\u534e\u576a\u6751","pinyin":"HuaPingCun","lng":"118.919420","lat":"29.834510"},{"id":197246,"parent_id":197239,"level":4,"area_code":"330127208249","zip_code":"311715","city_code":"0571","name":"\u738b\u961c\u6751\u6751\u6c11\u59d4\u5458\u4f1a","short_name":"\u738b\u961c\u6751","merger_name":"\u6d59\u6c5f,\u676d\u5dde,\u6df3\u5b89,\u738b\u961c,\u738b\u961c\u6751","pinyin":"WangFuCun","lng":"118.919420","lat":"29.834510"},{"id":197247,"parent_id":197239,"level":4,"area_code":"330127208250","zip_code":"311715","city_code":"0571","name":"\u9a6c\u5c71\u6751\u6751\u6c11\u59d4\u5458\u4f1a","short_name":"\u9a6c\u5c71\u6751","merger_name":"\u6d59\u6c5f,\u676d\u5dde,\u6df3\u5b89,\u738b\u961c,\u9a6c\u5c71\u6751","pinyin":"MaShanCun","lng":"118.864180","lat":"29.847580"},{"id":197248,"parent_id":197239,"level":4,"area_code":"330127208251","zip_code":"311715","city_code":"0571","name":"\u8377\u82b1\u576a\u6751\u6751\u6c11\u59d4\u5458\u4f1a","short_name":"\u8377\u82b1\u576a\u6751","merger_name":"\u6d59\u6c5f,\u676d\u5dde,\u6df3\u5b89,\u738b\u961c,\u8377\u82b1\u576a\u6751","pinyin":"HeHuaPingCun","lng":"118.922360","lat":"29.909690"},{"id":197249,"parent_id":197239,"level":4,"area_code":"330127208252","zip_code":"311715","city_code":"0571","name":"\u80e1\u5bb6\u576a\u6751\u6751\u6c11\u59d4\u5458\u4f1a","short_name":"\u80e1\u5bb6\u576a\u6751","merger_name":"\u6d59\u6c5f,\u676d\u5dde,\u6df3\u5b89,\u738b\u961c,\u80e1\u5bb6\u576a\u6751","pinyin":"HuJiaPingCun","lng":"118.919860","lat":"29.947940"},{"id":197250,"parent_id":197239,"level":4,"area_code":"330127208253","zip_code":"311715","city_code":"0571","name":"\u91d1\u5bb6\u5c99\u6751\u6751\u6c11\u59d4\u5458\u4f1a","short_name":"\u91d1\u5bb6\u5c99\u6751","merger_name":"\u6d59\u6c5f,\u676d\u5dde,\u6df3\u5b89,\u738b\u961c,\u91d1\u5bb6\u5c99\u6751","pinyin":"JinJiaAoCun","lng":"118.904710","lat":"29.951650"},{"id":197251,"parent_id":197239,"level":4,"area_code":"330127208254","zip_code":"311715","city_code":"0571","name":"\u95fb\u5bb6\u6751\u6751\u6c11\u59d4\u5458\u4f1a","short_name":"\u95fb\u5bb6\u6751","merger_name":"\u6d59\u6c5f,\u676d\u5dde,\u6df3\u5b89,\u738b\u961c,\u95fb\u5bb6\u6751","pinyin":"WenJiaCun","lng":"118.905000","lat":"29.970180"},{"id":197252,"parent_id":197239,"level":4,"area_code":"330127208255","zip_code":"311715","city_code":"0571","name":"\u91d1\u7d2b\u6751\u6751\u6c11\u59d4\u5458\u4f1a","short_name":"\u91d1\u7d2b\u6751","merger_name":"\u6d59\u6c5f,\u676d\u5dde,\u6df3\u5b89,\u738b\u961c,\u91d1\u7d2b\u6751","pinyin":"JinZiCun","lng":"118.912820","lat":"29.791100"},{"id":197253,"parent_id":197239,"level":4,"area_code":"330127208256","zip_code":"311715","city_code":"0571","name":"\u9f99\u5934\u6751\u6751\u6c11\u59d4\u5458\u4f1a","short_name":"\u9f99\u5934\u6751","merger_name":"\u6d59\u6c5f,\u676d\u5dde,\u6df3\u5b89,\u738b\u961c,\u9f99\u5934\u6751","pinyin":"LongTouCun","lng":"118.912820","lat":"29.791100"},{"id":197254,"parent_id":197239,"level":4,"area_code":"330127208257","zip_code":"311715","city_code":"0571","name":"\u4f55\u576a\u6751\u6751\u6c11\u59d4\u5458\u4f1a","short_name":"\u4f55\u576a\u6751","merger_name":"\u6d59\u6c5f,\u676d\u5dde,\u6df3\u5b89,\u738b\u961c,\u4f55\u576a\u6751","pinyin":"HePingCun","lng":"119.012680","lat":"29.991310"},{"id":197255,"parent_id":197239,"level":4,"area_code":"330127208258","zip_code":"311715","city_code":"0571","name":"\u5c71\u5ddd\u6751\u6751\u6c11\u59d4\u5458\u4f1a","short_name":"\u5c71\u5ddd\u6751","merger_name":"\u6d59\u6c5f,\u676d\u5dde,\u6df3\u5b89,\u738b\u961c,\u5c71\u5ddd\u6751","pinyin":"ShanChuanCun","lng":"118.919420","lat":"29.834510"},{"id":197256,"parent_id":197239,"level":4,"area_code":"330127208259","zip_code":"311715","city_code":"0571","name":"\u65b0\u5408\u6751\u6751\u6c11\u59d4\u5458\u4f1a","short_name":"\u65b0\u5408\u6751","merger_name":"\u6d59\u6c5f,\u676d\u5dde,\u6df3\u5b89,\u738b\u961c,\u65b0\u5408\u6751","pinyin":"XinHeCun","lng":"118.922360","lat":"29.909690"},{"id":197257,"parent_id":197239,"level":4,"area_code":"330127208260","zip_code":"311715","city_code":"0571","name":"\u6a2a\u8def\u6751\u6751\u6c11\u59d4\u5458\u4f1a","short_name":"\u6a2a\u8def\u6751","merger_name":"\u6d59\u6c5f,\u676d\u5dde,\u6df3\u5b89,\u738b\u961c,\u6a2a\u8def\u6751","pinyin":"HengLuCun","lng":"120.293624","lat":"30.074365"},{"id":197258,"parent_id":196864,"level":3,"area_code":"330127210000","zip_code":"311701","city_code":"0571","name":"\u5b8b\u6751\u4e61","short_name":"\u5b8b\u6751","merger_name":"\u6d59\u6c5f,\u676d\u5dde,\u6df3\u5b89,\u5b8b\u6751","pinyin":"SongCun","lng":"118.862080","lat":"29.684040"},{"id":197259,"parent_id":197258,"level":4,"area_code":"330127210215","zip_code":"311701","city_code":"0571","name":"\u5e38\u9526\u91cc\u6751\u6751\u6c11\u59d4\u5458\u4f1a","short_name":"\u5e38\u9526\u91cc\u6751","merger_name":"\u6d59\u6c5f,\u676d\u5dde,\u6df3\u5b89,\u5b8b\u6751,\u5e38\u9526\u91cc\u6751","pinyin":"ChangJinLiCun","lng":"118.877210","lat":"29.693930"},{"id":197260,"parent_id":197258,"level":4,"area_code":"330127210221","zip_code":"311701","city_code":"0571","name":"\u7856\u77f3\u6751\u6751\u6c11\u59d4\u5458\u4f1a","short_name":"\u7856\u77f3\u6751","merger_name":"\u6d59\u6c5f,\u676d\u5dde,\u6df3\u5b89,\u5b8b\u6751,\u7856\u77f3\u6751","pinyin":"XiaShiCun","lng":"118.902980","lat":"29.720610"},{"id":197261,"parent_id":197258,"level":4,"area_code":"330127210222","zip_code":"311701","city_code":"0571","name":"\u9752\u5c71\u53e3\u6751\u6751\u6c11\u59d4\u5458\u4f1a","short_name":"\u9752\u5c71\u53e3\u6751","merger_name":"\u6d59\u6c5f,\u676d\u5dde,\u6df3\u5b89,\u5b8b\u6751,\u9752\u5c71\u53e3\u6751","pinyin":"QingShanKouCun","lng":"118.902980","lat":"29.720610"},{"id":197262,"parent_id":197258,"level":4,"area_code":"330127210223","zip_code":"311701","city_code":"0571","name":"\u80e1\u5bb6\u7548\u6751\u6751\u6c11\u59d4\u5458\u4f1a","short_name":"\u80e1\u5bb6\u7548\u6751","merger_name":"\u6d59\u6c5f,\u676d\u5dde,\u6df3\u5b89,\u5b8b\u6751,\u80e1\u5bb6\u7548\u6751","pinyin":"HuJiaFanCun","lng":"118.927710","lat":"29.734200"},{"id":197263,"parent_id":197258,"level":4,"area_code":"330127210224","zip_code":"311701","city_code":"0571","name":"\u5b8b\u6751\u6751\u6751\u6c11\u59d4\u5458\u4f1a","short_name":"\u5b8b\u6751\u6751","merger_name":"\u6d59\u6c5f,\u676d\u5dde,\u6df3\u5b89,\u5b8b\u6751,\u5b8b\u6751\u6751","pinyin":"SongCunCun","lng":"118.902980","lat":"29.720610"},{"id":197264,"parent_id":197258,"level":4,"area_code":"330127210225","zip_code":"311701","city_code":"0571","name":"\u955c\u6d2a\u6751\u6751\u6c11\u59d4\u5458\u4f1a","short_name":"\u955c\u6d2a\u6751","merger_name":"\u6d59\u6c5f,\u676d\u5dde,\u6df3\u5b89,\u5b8b\u6751,\u955c\u6d2a\u6751","pinyin":"JingHongCun","lng":"118.913370","lat":"29.726665"},{"id":197265,"parent_id":197258,"level":4,"area_code":"330127210226","zip_code":"311701","city_code":"0571","name":"\u767d\u4e91\u6eaa\u6751\u6751\u6c11\u59d4\u5458\u4f1a","short_name":"\u767d\u4e91\u6eaa\u6751","merger_name":"\u6d59\u6c5f,\u676d\u5dde,\u6df3\u5b89,\u5b8b\u6751,\u767d\u4e91\u6eaa\u6751","pinyin":"BaiYunXiCun","lng":"118.902980","lat":"29.720610"},{"id":197266,"parent_id":197258,"level":4,"area_code":"330127210227","zip_code":"311701","city_code":"0571","name":"\u4e91\u6e2f\u53e3\u6751\u6751\u6c11\u59d4\u5458\u4f1a","short_name":"\u4e91\u6e2f\u53e3\u6751","merger_name":"\u6d59\u6c5f,\u676d\u5dde,\u6df3\u5b89,\u5b8b\u6751,\u4e91\u6e2f\u53e3\u6751","pinyin":"YunGangKouCun","lng":"118.856710","lat":"29.685360"},{"id":197267,"parent_id":196864,"level":3,"area_code":"330127211000","zip_code":"311701","city_code":"0571","name":"\u9e20\u5751\u4e61","short_name":"\u9e20\u5751","merger_name":"\u6d59\u6c5f,\u676d\u5dde,\u6df3\u5b89,\u9e20\u5751","pinyin":"JiuKeng","lng":"118.774350","lat":"29.670280"},{"id":197268,"parent_id":197267,"level":4,"area_code":"330127211223","zip_code":"311701","city_code":"0571","name":"\u9752\u82d7\u6751\u6751\u6c11\u59d4\u5458\u4f1a","short_name":"\u9752\u82d7\u6751","merger_name":"\u6d59\u6c5f,\u676d\u5dde,\u6df3\u5b89,\u9e20\u5751,\u9752\u82d7\u6751","pinyin":"QingMiaoCun","lng":"118.785403","lat":"29.614447"},{"id":197269,"parent_id":197267,"level":4,"area_code":"330127211224","zip_code":"311701","city_code":"0571","name":"\u91d1\u5854\u6751\u6751\u6c11\u59d4\u5458\u4f1a","short_name":"\u91d1\u5854\u6751","merger_name":"\u6d59\u6c5f,\u676d\u5dde,\u6df3\u5b89,\u9e20\u5751,\u91d1\u5854\u6751","pinyin":"JinTaCun","lng":"118.720930","lat":"29.680170"},{"id":197270,"parent_id":197267,"level":4,"area_code":"330127211225","zip_code":"311701","city_code":"0571","name":"\u7fe0\u5cf0\u6751\u6751\u6c11\u59d4\u5458\u4f1a","short_name":"\u7fe0\u5cf0\u6751","merger_name":"\u6d59\u6c5f,\u676d\u5dde,\u6df3\u5b89,\u9e20\u5751,\u7fe0\u5cf0\u6751","pinyin":"CuiFengCun","lng":"118.785403","lat":"29.614447"},{"id":197271,"parent_id":197267,"level":4,"area_code":"330127211226","zip_code":"311701","city_code":"0571","name":"\u4e2d\u8054\u6751\u6751\u6c11\u59d4\u5458\u4f1a","short_name":"\u4e2d\u8054\u6751","merger_name":"\u6d59\u6c5f,\u676d\u5dde,\u6df3\u5b89,\u9e20\u5751,\u4e2d\u8054\u6751","pinyin":"ZhongLianCun","lng":"118.774210","lat":"29.670770"},{"id":197272,"parent_id":197267,"level":4,"area_code":"330127211227","zip_code":"311701","city_code":"0571","name":"\u4e73\u6d1e\u6751\u6751\u6c11\u59d4\u5458\u4f1a","short_name":"\u4e73\u6d1e\u6751","merger_name":"\u6d59\u6c5f,\u676d\u5dde,\u6df3\u5b89,\u9e20\u5751,\u4e73\u6d1e\u6751","pinyin":"RuDongCun","lng":"118.774210","lat":"29.670770"},{"id":197273,"parent_id":197267,"level":4,"area_code":"330127211228","zip_code":"311701","city_code":"0571","name":"\u4e25\u6751\u6751\u6751\u6c11\u59d4\u5458\u4f1a","short_name":"\u4e25\u6751\u6751","merger_name":"\u6d59\u6c5f,\u676d\u5dde,\u6df3\u5b89,\u9e20\u5751,\u4e25\u6751\u6751","pinyin":"YanCunCun","lng":"118.796780","lat":"29.621590"},{"id":197274,"parent_id":197267,"level":4,"area_code":"330127211229","zip_code":"311701","city_code":"0571","name":"\u5e38\u9752\u6751\u6751\u6c11\u59d4\u5458\u4f1a","short_name":"\u5e38\u9752\u6751","merger_name":"\u6d59\u6c5f,\u676d\u5dde,\u6df3\u5b89,\u9e20\u5751,\u5e38\u9752\u6751","pinyin":"ChangQingCun","lng":"118.709150","lat":"29.665030"},{"id":197275,"parent_id":197267,"level":4,"area_code":"330127211230","zip_code":"311701","city_code":"0571","name":"\u661f\u5149\u6751\u6751\u6c11\u59d4\u5458\u4f1a","short_name":"\u661f\u5149\u6751","merger_name":"\u6d59\u6c5f,\u676d\u5dde,\u6df3\u5b89,\u9e20\u5751,\u661f\u5149\u6751","pinyin":"XingGuangCun","lng":"118.720930","lat":"29.680170"},{"id":197276,"parent_id":197267,"level":4,"area_code":"330127211231","zip_code":"311701","city_code":"0571","name":"\u8d4b\u7f6e\u6751\u6751\u6c11\u59d4\u5458\u4f1a","short_name":"\u8d4b\u7f6e\u6751","merger_name":"\u6d59\u6c5f,\u676d\u5dde,\u6df3\u5b89,\u9e20\u5751,\u8d4b\u7f6e\u6751","pinyin":"FuZhiCun","lng":"118.796780","lat":"29.621590"},{"id":197277,"parent_id":196864,"level":3,"area_code":"330127212000","zip_code":"311722","city_code":"0571","name":"\u6d6a\u5ddd\u4e61","short_name":"\u6d6a\u5ddd","merger_name":"\u6d59\u6c5f,\u676d\u5dde,\u6df3\u5b89,\u6d6a\u5ddd","pinyin":"LangChuan","lng":"118.605100","lat":"29.492160"},{"id":197278,"parent_id":197277,"level":4,"area_code":"330127212200","zip_code":"311722","city_code":"0571","name":"\u6843\u6e90\u6751\u6751\u6c11\u59d4\u5458\u4f1a","short_name":"\u6843\u6e90\u6751","merger_name":"\u6d59\u6c5f,\u676d\u5dde,\u6df3\u5b89,\u6d6a\u5ddd,\u6843\u6e90\u6751","pinyin":"TaoYuanCun","lng":"118.605665","lat":"29.448622"},{"id":197279,"parent_id":197277,"level":4,"area_code":"330127212201","zip_code":"311722","city_code":"0571","name":"\u5360\u5bb6\u6751\u6751\u6c11\u59d4\u5458\u4f1a","short_name":"\u5360\u5bb6\u6751","merger_name":"\u6d59\u6c5f,\u676d\u5dde,\u6df3\u5b89,\u6d6a\u5ddd,\u5360\u5bb6\u6751","pinyin":"ZhanJiaCun","lng":"118.570390","lat":"29.435340"},{"id":197280,"parent_id":197277,"level":4,"area_code":"330127212206","zip_code":"311722","city_code":"0571","name":"\u6d2a\u5bb6\u6751\u6751\u6c11\u59d4\u5458\u4f1a","short_name":"\u6d2a\u5bb6\u6751","merger_name":"\u6d59\u6c5f,\u676d\u5dde,\u6df3\u5b89,\u6d6a\u5ddd,\u6d2a\u5bb6\u6751","pinyin":"HongJiaCun","lng":"118.570390","lat":"29.435340"},{"id":197281,"parent_id":197277,"level":4,"area_code":"330127212214","zip_code":"311722","city_code":"0571","name":"\u9a6c\u77f3\u6751\u6751\u6c11\u59d4\u5458\u4f1a","short_name":"\u9a6c\u77f3\u6751","merger_name":"\u6d59\u6c5f,\u676d\u5dde,\u6df3\u5b89,\u6d6a\u5ddd,\u9a6c\u77f3\u6751","pinyin":"MaShiCun","lng":"118.598870","lat":"29.507800"},{"id":197282,"parent_id":197277,"level":4,"area_code":"330127212215","zip_code":"311722","city_code":"0571","name":"\u82b9\u5ddd\u6751\u6751\u6c11\u59d4\u5458\u4f1a","short_name":"\u82b9\u5ddd\u6751","merger_name":"\u6d59\u6c5f,\u676d\u5dde,\u6df3\u5b89,\u6d6a\u5ddd,\u82b9\u5ddd\u6751","pinyin":"QinChuanCun","lng":"118.609660","lat":"29.513830"},{"id":197283,"parent_id":197277,"level":4,"area_code":"330127212216","zip_code":"311722","city_code":"0571","name":"\u65b0\u6865\u6751\u6751\u6c11\u59d4\u5458\u4f1a","short_name":"\u65b0\u6865\u6751","merger_name":"\u6d59\u6c5f,\u676d\u5dde,\u6df3\u5b89,\u6d6a\u5ddd,\u65b0\u6865\u6751","pinyin":"XinQiaoCun","lng":"118.619420","lat":"29.502320"},{"id":197284,"parent_id":197277,"level":4,"area_code":"330127212220","zip_code":"311722","city_code":"0571","name":"\u5168\u6734\u6751\u6751\u6c11\u59d4\u5458\u4f1a","short_name":"\u5168\u6734\u6751","merger_name":"\u6d59\u6c5f,\u676d\u5dde,\u6df3\u5b89,\u6d6a\u5ddd,\u5168\u6734\u6751","pinyin":"QuanPuCun","lng":"118.586480","lat":"29.518260"},{"id":197285,"parent_id":197277,"level":4,"area_code":"330127212235","zip_code":"311722","city_code":"0571","name":"\u82b3\u68a7\u6751\u6751\u6c11\u59d4\u5458\u4f1a","short_name":"\u82b3\u68a7\u6751","merger_name":"\u6d59\u6c5f,\u676d\u5dde,\u6df3\u5b89,\u6d6a\u5ddd,\u82b3\u68a7\u6751","pinyin":"FangWuCun","lng":"118.586480","lat":"29.518260"},{"id":197286,"parent_id":197277,"level":4,"area_code":"330127212236","zip_code":"311722","city_code":"0571","name":"\u5927\u8054\u6751\u6751\u6c11\u59d4\u5458\u4f1a","short_name":"\u5927\u8054\u6751","merger_name":"\u6d59\u6c5f,\u676d\u5dde,\u6df3\u5b89,\u6d6a\u5ddd,\u5927\u8054\u6751","pinyin":"DaLianCun","lng":"118.603620","lat":"29.485260"},{"id":197287,"parent_id":197277,"level":4,"area_code":"330127212237","zip_code":"311722","city_code":"0571","name":"\u8054\u6b22\u6751\u6751\u6c11\u59d4\u5458\u4f1a","short_name":"\u8054\u6b22\u6751","merger_name":"\u6d59\u6c5f,\u676d\u5dde,\u6df3\u5b89,\u6d6a\u5ddd,\u8054\u6b22\u6751","pinyin":"LianHuanCun","lng":"118.603620","lat":"29.485260"},