[{"id":308001,"parent_id":307942,"level":4,"area_code":"370481114257","zip_code":"277531","city_code":"0632","name":"\u897f\u5b5f\u6751\u59d4\u4f1a","short_name":"\u897f\u5b5f","merger_name":"\u5c71\u4e1c,\u67a3\u5e84,\u6ed5\u5dde,\u754c\u6cb3,\u897f\u5b5f","pinyin":"XiMeng","lng":"117.067960","lat":"35.167640"},{"id":308002,"parent_id":307942,"level":4,"area_code":"370481114258","zip_code":"277531","city_code":"0632","name":"\u4e1c\u5b5f\u6751\u59d4\u4f1a","short_name":"\u4e1c\u5b5f","merger_name":"\u5c71\u4e1c,\u67a3\u5e84,\u6ed5\u5dde,\u754c\u6cb3,\u4e1c\u5b5f","pinyin":"DongMeng","lng":"117.071229","lat":"35.167592"},{"id":308003,"parent_id":307942,"level":4,"area_code":"370481114259","zip_code":"277531","city_code":"0632","name":"\u5b59\u9a6c\u5382\u6751\u59d4\u4f1a","short_name":"\u5b59\u9a6c\u5382","merger_name":"\u5c71\u4e1c,\u67a3\u5e84,\u6ed5\u5dde,\u754c\u6cb3,\u5b59\u9a6c\u5382","pinyin":"SunMaChang","lng":"117.088190","lat":"35.169210"},{"id":308004,"parent_id":307942,"level":4,"area_code":"370481114260","zip_code":"277531","city_code":"0632","name":"\u738b\u9a6c\u5382\u6751\u59d4\u4f1a","short_name":"\u738b\u9a6c\u5382","merger_name":"\u5c71\u4e1c,\u67a3\u5e84,\u6ed5\u5dde,\u754c\u6cb3,\u738b\u9a6c\u5382","pinyin":"WangMaChang","lng":"117.092660","lat":"35.166780"},{"id":308005,"parent_id":307942,"level":4,"area_code":"370481114261","zip_code":"277531","city_code":"0632","name":"\u897f\u67f3\u6cc9\u6751\u59d4\u4f1a","short_name":"\u897f\u67f3\u6cc9","merger_name":"\u5c71\u4e1c,\u67a3\u5e84,\u6ed5\u5dde,\u754c\u6cb3,\u897f\u67f3\u6cc9","pinyin":"XiLiuQuan","lng":"117.320828","lat":"35.144918"},{"id":308006,"parent_id":307942,"level":4,"area_code":"370481114262","zip_code":"277531","city_code":"0632","name":"\u4e1c\u67f3\u6cc9\u6751\u59d4\u4f1a","short_name":"\u4e1c\u67f3\u6cc9","merger_name":"\u5c71\u4e1c,\u67a3\u5e84,\u6ed5\u5dde,\u754c\u6cb3,\u4e1c\u67f3\u6cc9","pinyin":"DongLiuQuan","lng":"117.612968","lat":"34.879114"},{"id":308007,"parent_id":306882,"level":3,"area_code":"370481115000","zip_code":"277532","city_code":"0632","name":"\u9f99\u9633\u9547","short_name":"\u9f99\u9633","merger_name":"\u5c71\u4e1c,\u67a3\u5e84,\u6ed5\u5dde,\u9f99\u9633","pinyin":"LongYang","lng":"117.172340","lat":"35.166080"},{"id":308008,"parent_id":308007,"level":4,"area_code":"370481115200","zip_code":"277532","city_code":"0632","name":"\u9f99\u9633\u6751\u59d4\u4f1a","short_name":"\u9f99\u9633","merger_name":"\u5c71\u4e1c,\u67a3\u5e84,\u6ed5\u5dde,\u9f99\u9633,\u9f99\u9633","pinyin":"LongYang","lng":"117.170570","lat":"35.162780"},{"id":308009,"parent_id":308007,"level":4,"area_code":"370481115201","zip_code":"277532","city_code":"0632","name":"\u95eb\u5e84\u6751\u59d4\u4f1a","short_name":"\u95eb\u5e84","merger_name":"\u5c71\u4e1c,\u67a3\u5e84,\u6ed5\u5dde,\u9f99\u9633,\u95eb\u5e84","pinyin":"YanZhuang","lng":"117.170570","lat":"35.162780"},{"id":308010,"parent_id":308007,"level":4,"area_code":"370481115202","zip_code":"277532","city_code":"0632","name":"\u5927\u5be8\u6751\u59d4\u4f1a","short_name":"\u5927\u5be8","merger_name":"\u5c71\u4e1c,\u67a3\u5e84,\u6ed5\u5dde,\u9f99\u9633,\u5927\u5be8","pinyin":"DaZhai","lng":"117.173269","lat":"35.157441"},{"id":308011,"parent_id":308007,"level":4,"area_code":"370481115203","zip_code":"277532","city_code":"0632","name":"\u5c0f\u5be8\u6751\u59d4\u4f1a","short_name":"\u5c0f\u5be8","merger_name":"\u5c71\u4e1c,\u67a3\u5e84,\u6ed5\u5dde,\u9f99\u9633,\u5c0f\u5be8","pinyin":"XiaoZhai","lng":"117.170570","lat":"35.162780"},{"id":308012,"parent_id":308007,"level":4,"area_code":"370481115204","zip_code":"277532","city_code":"0632","name":"\u5201\u6c99\u571f\u6751\u59d4\u4f1a","short_name":"\u5201\u6c99\u571f","merger_name":"\u5c71\u4e1c,\u67a3\u5e84,\u6ed5\u5dde,\u9f99\u9633,\u5201\u6c99\u571f","pinyin":"DiaoShaTu","lng":"117.187034","lat":"35.156023"},{"id":308013,"parent_id":308007,"level":4,"area_code":"370481115205","zip_code":"277532","city_code":"0632","name":"\u8463\u6c99\u571f\u6751\u59d4\u4f1a","short_name":"\u8463\u6c99\u571f","merger_name":"\u5c71\u4e1c,\u67a3\u5e84,\u6ed5\u5dde,\u9f99\u9633,\u8463\u6c99\u571f","pinyin":"DongShaTu","lng":"117.187034","lat":"35.156023"},{"id":308014,"parent_id":308007,"level":4,"area_code":"370481115206","zip_code":"277532","city_code":"0632","name":"\u675c\u6c99\u571f\u6751\u59d4\u4f1a","short_name":"\u675c\u6c99\u571f","merger_name":"\u5c71\u4e1c,\u67a3\u5e84,\u6ed5\u5dde,\u9f99\u9633,\u675c\u6c99\u571f","pinyin":"DuShaTu","lng":"117.187034","lat":"35.156023"},{"id":308015,"parent_id":308007,"level":4,"area_code":"370481115207","zip_code":"277532","city_code":"0632","name":"\u5f20\u6c99\u571f\u6751\u59d4\u4f1a","short_name":"\u5f20\u6c99\u571f","merger_name":"\u5c71\u4e1c,\u67a3\u5e84,\u6ed5\u5dde,\u9f99\u9633,\u5f20\u6c99\u571f","pinyin":"ZhangShaTu","lng":"117.187034","lat":"35.156023"},{"id":308016,"parent_id":308007,"level":4,"area_code":"370481115208","zip_code":"277532","city_code":"0632","name":"\u674e\u6c99\u571f\u6751\u59d4\u4f1a","short_name":"\u674e\u6c99\u571f","merger_name":"\u5c71\u4e1c,\u67a3\u5e84,\u6ed5\u5dde,\u9f99\u9633,\u674e\u6c99\u571f","pinyin":"LiShaTu","lng":"117.190330","lat":"35.148080"},{"id":308017,"parent_id":308007,"level":4,"area_code":"370481115209","zip_code":"277532","city_code":"0632","name":"\u5c1a\u6cb3\u5708\u6751\u59d4\u4f1a","short_name":"\u5c1a\u6cb3\u5708","merger_name":"\u5c71\u4e1c,\u67a3\u5e84,\u6ed5\u5dde,\u9f99\u9633,\u5c1a\u6cb3\u5708","pinyin":"ShangHeQuan","lng":"117.195800","lat":"35.138850"},{"id":308018,"parent_id":308007,"level":4,"area_code":"370481115210","zip_code":"277532","city_code":"0632","name":"\u53f2\u6751\u6751\u59d4\u4f1a","short_name":"\u53f2\u6751","merger_name":"\u5c71\u4e1c,\u67a3\u5e84,\u6ed5\u5dde,\u9f99\u9633,\u53f2\u6751","pinyin":"ShiCun","lng":"117.170570","lat":"35.162780"},{"id":308019,"parent_id":308007,"level":4,"area_code":"370481115211","zip_code":"277532","city_code":"0632","name":"\u4ece\u6761\u6751\u59d4\u4f1a","short_name":"\u4ece\u6761","merger_name":"\u5c71\u4e1c,\u67a3\u5e84,\u6ed5\u5dde,\u9f99\u9633,\u4ece\u6761","pinyin":"CongTiao","lng":"117.158770","lat":"35.153120"},{"id":308020,"parent_id":308007,"level":4,"area_code":"370481115212","zip_code":"277532","city_code":"0632","name":"\u5f20\u5802\u6751\u59d4\u4f1a","short_name":"\u5f20\u5802","merger_name":"\u5c71\u4e1c,\u67a3\u5e84,\u6ed5\u5dde,\u9f99\u9633,\u5f20\u5802","pinyin":"ZhangTang","lng":"117.170570","lat":"35.162780"},{"id":308021,"parent_id":308007,"level":4,"area_code":"370481115213","zip_code":"277532","city_code":"0632","name":"\u82d7\u5802\u6751\u59d4\u4f1a","short_name":"\u82d7\u5802","merger_name":"\u5c71\u4e1c,\u67a3\u5e84,\u6ed5\u5dde,\u9f99\u9633,\u82d7\u5802","pinyin":"MiaoTang","lng":"117.170570","lat":"35.162780"},{"id":308022,"parent_id":308007,"level":4,"area_code":"370481115214","zip_code":"277532","city_code":"0632","name":"\u524d\u53f8\u5802\u6751\u59d4\u4f1a","short_name":"\u524d\u53f8\u5802","merger_name":"\u5c71\u4e1c,\u67a3\u5e84,\u6ed5\u5dde,\u9f99\u9633,\u524d\u53f8\u5802","pinyin":"QianSiTang","lng":"117.426677","lat":"35.071436"},{"id":308023,"parent_id":308007,"level":4,"area_code":"370481115215","zip_code":"277532","city_code":"0632","name":"\u540e\u53f8\u5802\u6751\u59d4\u4f1a","short_name":"\u540e\u53f8\u5802","merger_name":"\u5c71\u4e1c,\u67a3\u5e84,\u6ed5\u5dde,\u9f99\u9633,\u540e\u53f8\u5802","pinyin":"HouSiTang","lng":"117.585420","lat":"34.888040"},{"id":308024,"parent_id":308007,"level":4,"area_code":"370481115216","zip_code":"277532","city_code":"0632","name":"\u5e84\u5934\u6751\u59d4\u4f1a","short_name":"\u5e84\u5934","merger_name":"\u5c71\u4e1c,\u67a3\u5e84,\u6ed5\u5dde,\u9f99\u9633,\u5e84\u5934","pinyin":"ZhuangTou","lng":"117.170570","lat":"35.162780"},{"id":308025,"parent_id":308007,"level":4,"area_code":"370481115217","zip_code":"277532","city_code":"0632","name":"\u66fe\u697c\u6751\u59d4\u4f1a","short_name":"\u66fe\u697c","merger_name":"\u5c71\u4e1c,\u67a3\u5e84,\u6ed5\u5dde,\u9f99\u9633,\u66fe\u697c","pinyin":"CengLou","lng":"117.170570","lat":"35.162780"},{"id":308026,"parent_id":308007,"level":4,"area_code":"370481115218","zip_code":"277532","city_code":"0632","name":"\u6cb3\u5357\u5f20\u5e84\u6751\u59d4\u4f1a","short_name":"\u6cb3\u5357\u5f20\u5e84","merger_name":"\u5c71\u4e1c,\u67a3\u5e84,\u6ed5\u5dde,\u9f99\u9633,\u6cb3\u5357\u5f20\u5e84","pinyin":"HeNanZhangZhuang","lng":"117.473540","lat":"34.992120"},{"id":308027,"parent_id":308007,"level":4,"area_code":"370481115219","zip_code":"277532","city_code":"0632","name":"\u4e0a\u53f8\u5802\u6751\u59d4\u4f1a","short_name":"\u4e0a\u53f8\u5802","merger_name":"\u5c71\u4e1c,\u67a3\u5e84,\u6ed5\u5dde,\u9f99\u9633,\u4e0a\u53f8\u5802","pinyin":"ShangSiTang","lng":"117.170570","lat":"35.162780"},{"id":308028,"parent_id":308007,"level":4,"area_code":"370481115220","zip_code":"277532","city_code":"0632","name":"\u7530\u4faf\u5e84\u6751\u59d4\u4f1a","short_name":"\u7530\u4faf\u5e84","merger_name":"\u5c71\u4e1c,\u67a3\u5e84,\u6ed5\u5dde,\u9f99\u9633,\u7530\u4faf\u5e84","pinyin":"TianHouZhuang","lng":"117.635607","lat":"34.893638"},{"id":308029,"parent_id":308007,"level":4,"area_code":"370481115221","zip_code":"277532","city_code":"0632","name":"\u803f\u5e84\u6751\u59d4\u4f1a","short_name":"\u803f\u5e84","merger_name":"\u5c71\u4e1c,\u67a3\u5e84,\u6ed5\u5dde,\u9f99\u9633,\u803f\u5e84","pinyin":"GengZhuang","lng":"117.170570","lat":"35.162780"},{"id":308030,"parent_id":308007,"level":4,"area_code":"370481115222","zip_code":"277532","city_code":"0632","name":"\u9f99\u5c71\u6751\u59d4\u4f1a","short_name":"\u9f99\u5c71","merger_name":"\u5c71\u4e1c,\u67a3\u5e84,\u6ed5\u5dde,\u9f99\u9633,\u9f99\u5c71","pinyin":"LongShan","lng":"117.131055","lat":"35.194485"},{"id":308031,"parent_id":308007,"level":4,"area_code":"370481115223","zip_code":"277532","city_code":"0632","name":"\u671b\u9f99\u5e84\u6751\u59d4\u4f1a","short_name":"\u671b\u9f99\u5e84","merger_name":"\u5c71\u4e1c,\u67a3\u5e84,\u6ed5\u5dde,\u9f99\u9633,\u671b\u9f99\u5e84","pinyin":"WangLongZhuang","lng":"117.137619","lat":"35.118264"},{"id":308032,"parent_id":308007,"level":4,"area_code":"370481115224","zip_code":"277532","city_code":"0632","name":"\u7cdc\u5e84\u6751\u59d4\u4f1a","short_name":"\u7cdc\u5e84","merger_name":"\u5c71\u4e1c,\u67a3\u5e84,\u6ed5\u5dde,\u9f99\u9633,\u7cdc\u5e84","pinyin":"MiZhuang","lng":"117.017050","lat":"35.081710"},{"id":308033,"parent_id":308007,"level":4,"area_code":"370481115225","zip_code":"277532","city_code":"0632","name":"\u51af\u8425\u6751\u59d4\u4f1a","short_name":"\u51af\u8425","merger_name":"\u5c71\u4e1c,\u67a3\u5e84,\u6ed5\u5dde,\u9f99\u9633,\u51af\u8425","pinyin":"FengYing","lng":"117.170570","lat":"35.162780"},{"id":308034,"parent_id":308007,"level":4,"area_code":"370481115226","zip_code":"277532","city_code":"0632","name":"\u9b4f\u5bfa\u6751\u59d4\u4f1a","short_name":"\u9b4f\u5bfa","merger_name":"\u5c71\u4e1c,\u67a3\u5e84,\u6ed5\u5dde,\u9f99\u9633,\u9b4f\u5bfa","pinyin":"WeiSi","lng":"117.170570","lat":"35.162780"},{"id":308035,"parent_id":308007,"level":4,"area_code":"370481115227","zip_code":"277532","city_code":"0632","name":"\u6797\u6751\u6751\u59d4\u4f1a","short_name":"\u6797\u6751","merger_name":"\u5c71\u4e1c,\u67a3\u5e84,\u6ed5\u5dde,\u9f99\u9633,\u6797\u6751","pinyin":"LinCun","lng":"117.173269","lat":"35.157441"},{"id":308036,"parent_id":308007,"level":4,"area_code":"370481115228","zip_code":"277532","city_code":"0632","name":"\u9f99\u5c71\u5c6f\u6751\u59d4\u4f1a","short_name":"\u9f99\u5c71\u5c6f","merger_name":"\u5c71\u4e1c,\u67a3\u5e84,\u6ed5\u5dde,\u9f99\u9633,\u9f99\u5c71\u5c6f","pinyin":"LongShanTun","lng":"117.131055","lat":"35.194485"},{"id":308037,"parent_id":308007,"level":4,"area_code":"370481115229","zip_code":"277532","city_code":"0632","name":"\u6cb3\u5317\u674e\u5e84\u6751\u59d4\u4f1a","short_name":"\u6cb3\u5317\u674e\u5e84","merger_name":"\u5c71\u4e1c,\u67a3\u5e84,\u6ed5\u5dde,\u9f99\u9633,\u6cb3\u5317\u674e\u5e84","pinyin":"HeBeiLiZhuang","lng":"117.296530","lat":"35.034980"},{"id":308038,"parent_id":308007,"level":4,"area_code":"370481115230","zip_code":"277532","city_code":"0632","name":"\u53cc\u6cb3\u6751\u59d4\u4f1a","short_name":"\u53cc\u6cb3","merger_name":"\u5c71\u4e1c,\u67a3\u5e84,\u6ed5\u5dde,\u9f99\u9633,\u53cc\u6cb3","pinyin":"ShuangHe","lng":"117.170570","lat":"35.162780"},{"id":308039,"parent_id":308007,"level":4,"area_code":"370481115231","zip_code":"277532","city_code":"0632","name":"\u5c0f\u848b\u5e84\u6751\u59d4\u4f1a","short_name":"\u5c0f\u848b\u5e84","merger_name":"\u5c71\u4e1c,\u67a3\u5e84,\u6ed5\u5dde,\u9f99\u9633,\u5c0f\u848b\u5e84","pinyin":"XiaoJiangZhuang","lng":"117.170570","lat":"35.162780"},{"id":308040,"parent_id":308007,"level":4,"area_code":"370481115232","zip_code":"277532","city_code":"0632","name":"\u5927\u9648\u5e84\u6751\u59d4\u4f1a","short_name":"\u5927\u9648\u5e84","merger_name":"\u5c71\u4e1c,\u67a3\u5e84,\u6ed5\u5dde,\u9f99\u9633,\u5927\u9648\u5e84","pinyin":"DaChenZhuang","lng":"117.170570","lat":"35.162780"},{"id":308041,"parent_id":308007,"level":4,"area_code":"370481115233","zip_code":"277532","city_code":"0632","name":"\u5367\u9f99\u5e84\u6751\u59d4\u4f1a","short_name":"\u5367\u9f99\u5e84","merger_name":"\u5c71\u4e1c,\u67a3\u5e84,\u6ed5\u5dde,\u9f99\u9633,\u5367\u9f99\u5e84","pinyin":"WoLongZhuang","lng":"117.162987","lat":"35.206684"},{"id":308042,"parent_id":308007,"level":4,"area_code":"370481115234","zip_code":"277532","city_code":"0632","name":"\u9ad8\u5cad\u6751\u59d4\u4f1a","short_name":"\u9ad8\u5cad","merger_name":"\u5c71\u4e1c,\u67a3\u5e84,\u6ed5\u5dde,\u9f99\u9633,\u9ad8\u5cad","pinyin":"GaoLing","lng":"117.170570","lat":"35.162780"},{"id":308043,"parent_id":308007,"level":4,"area_code":"370481115235","zip_code":"277532","city_code":"0632","name":"\u65b0\u5b81\u6751\u59d4\u4f1a","short_name":"\u65b0\u5b81","merger_name":"\u5c71\u4e1c,\u67a3\u5e84,\u6ed5\u5dde,\u9f99\u9633,\u65b0\u5b81","pinyin":"XinNing","lng":"117.214100","lat":"35.102170"},{"id":308044,"parent_id":308007,"level":4,"area_code":"370481115236","zip_code":"277532","city_code":"0632","name":"\u51af\u5e84\u6751\u59d4\u4f1a","short_name":"\u51af\u5e84","merger_name":"\u5c71\u4e1c,\u67a3\u5e84,\u6ed5\u5dde,\u9f99\u9633,\u51af\u5e84","pinyin":"FengZhuang","lng":"117.296530","lat":"35.034980"},{"id":308045,"parent_id":308007,"level":4,"area_code":"370481115237","zip_code":"277532","city_code":"0632","name":"\u8c37\u5806\u77f3\u6751\u59d4\u4f1a","short_name":"\u8c37\u5806\u77f3","merger_name":"\u5c71\u4e1c,\u67a3\u5e84,\u6ed5\u5dde,\u9f99\u9633,\u8c37\u5806\u77f3","pinyin":"GuDuiShi","lng":"117.170570","lat":"35.162780"},{"id":308046,"parent_id":308007,"level":4,"area_code":"370481115238","zip_code":"277532","city_code":"0632","name":"\u5f20\u5c71\u53e3\u6751\u59d4\u4f1a","short_name":"\u5f20\u5c71\u53e3","merger_name":"\u5c71\u4e1c,\u67a3\u5e84,\u6ed5\u5dde,\u9f99\u9633,\u5f20\u5c71\u53e3","pinyin":"ZhangShanKou","lng":"117.426677","lat":"35.071436"},{"id":308047,"parent_id":308007,"level":4,"area_code":"370481115239","zip_code":"277532","city_code":"0632","name":"\u897f\u5357\u5cad\u6751\u59d4\u4f1a","short_name":"\u897f\u5357\u5cad","merger_name":"\u5c71\u4e1c,\u67a3\u5e84,\u6ed5\u5dde,\u9f99\u9633,\u897f\u5357\u5cad","pinyin":"XiNanLing","lng":"117.296530","lat":"35.034980"},{"id":308048,"parent_id":308007,"level":4,"area_code":"370481115240","zip_code":"277532","city_code":"0632","name":"\u5c0f\u6cb3\u5b50\u6751\u59d4\u4f1a","short_name":"\u5c0f\u6cb3\u5b50","merger_name":"\u5c71\u4e1c,\u67a3\u5e84,\u6ed5\u5dde,\u9f99\u9633,\u5c0f\u6cb3\u5b50","pinyin":"XiaoHeZi","lng":"117.296530","lat":"35.034980"},{"id":308049,"parent_id":308007,"level":4,"area_code":"370481115241","zip_code":"277532","city_code":"0632","name":"\u7126\u5e84\u6751\u59d4\u4f1a","short_name":"\u7126\u5e84","merger_name":"\u5c71\u4e1c,\u67a3\u5e84,\u6ed5\u5dde,\u9f99\u9633,\u7126\u5e84","pinyin":"JiaoZhuang","lng":"117.170570","lat":"35.162780"},{"id":308050,"parent_id":308007,"level":4,"area_code":"370481115242","zip_code":"277532","city_code":"0632","name":"\u987e\u5e99\u6751\u59d4\u4f1a","short_name":"\u987e\u5e99","merger_name":"\u5c71\u4e1c,\u67a3\u5e84,\u6ed5\u5dde,\u9f99\u9633,\u987e\u5e99","pinyin":"GuMiao","lng":"117.296530","lat":"35.034980"},{"id":308051,"parent_id":308007,"level":4,"area_code":"370481115243","zip_code":"277532","city_code":"0632","name":"\u5317\u738b\u5e84\u6751\u59d4\u4f1a","short_name":"\u5317\u738b\u5e84","merger_name":"\u5c71\u4e1c,\u67a3\u5e84,\u6ed5\u5dde,\u9f99\u9633,\u5317\u738b\u5e84","pinyin":"BeiWangZhuang","lng":"117.178608","lat":"35.190307"},{"id":308052,"parent_id":308007,"level":4,"area_code":"370481115244","zip_code":"277532","city_code":"0632","name":"\u67f3\u6c9f\u6751\u59d4\u4f1a","short_name":"\u67f3\u6c9f","merger_name":"\u5c71\u4e1c,\u67a3\u5e84,\u6ed5\u5dde,\u9f99\u9633,\u67f3\u6c9f","pinyin":"LiuGou","lng":"117.178608","lat":"35.190307"},{"id":308053,"parent_id":308007,"level":4,"area_code":"370481115245","zip_code":"277532","city_code":"0632","name":"\u6731\u4e8c\u5e84\u6751\u59d4\u4f1a","short_name":"\u6731\u4e8c\u5e84","merger_name":"\u5c71\u4e1c,\u67a3\u5e84,\u6ed5\u5dde,\u9f99\u9633,\u6731\u4e8c\u5e84","pinyin":"ZhuErZhuang","lng":"117.254608","lat":"34.773509"},{"id":308054,"parent_id":308007,"level":4,"area_code":"370481115246","zip_code":"277532","city_code":"0632","name":"\u6731\u4e09\u5e84\u6751\u59d4\u4f1a","short_name":"\u6731\u4e09\u5e84","merger_name":"\u5c71\u4e1c,\u67a3\u5e84,\u6ed5\u5dde,\u9f99\u9633,\u6731\u4e09\u5e84","pinyin":"ZhuSanZhuang","lng":"117.170570","lat":"35.162780"},{"id":308055,"parent_id":308007,"level":4,"area_code":"370481115247","zip_code":"277532","city_code":"0632","name":"\u5f90\u5cad\u6751\u59d4\u4f1a","short_name":"\u5f90\u5cad","merger_name":"\u5c71\u4e1c,\u67a3\u5e84,\u6ed5\u5dde,\u9f99\u9633,\u5f90\u5cad","pinyin":"XuLing","lng":"117.170570","lat":"35.162780"},{"id":308056,"parent_id":308007,"level":4,"area_code":"370481115248","zip_code":"277532","city_code":"0632","name":"\u9ec4\u5cad\u6751\u59d4\u4f1a","short_name":"\u9ec4\u5cad","merger_name":"\u5c71\u4e1c,\u67a3\u5e84,\u6ed5\u5dde,\u9f99\u9633,\u9ec4\u5cad","pinyin":"HuangLing","lng":"117.170570","lat":"35.162780"},{"id":308057,"parent_id":308007,"level":4,"area_code":"370481115249","zip_code":"277532","city_code":"0632","name":"\u4f55\u5cad\u6751\u59d4\u4f1a","short_name":"\u4f55\u5cad","merger_name":"\u5c71\u4e1c,\u67a3\u5e84,\u6ed5\u5dde,\u9f99\u9633,\u4f55\u5cad","pinyin":"HeLing","lng":"117.170570","lat":"35.162780"},{"id":308058,"parent_id":308007,"level":4,"area_code":"370481115250","zip_code":"277532","city_code":"0632","name":"\u5f6d\u6cb3\u6751\u59d4\u4f1a","short_name":"\u5f6d\u6cb3","merger_name":"\u5c71\u4e1c,\u67a3\u5e84,\u6ed5\u5dde,\u9f99\u9633,\u5f6d\u6cb3","pinyin":"PengHe","lng":"117.306042","lat":"35.171732"},{"id":308059,"parent_id":308007,"level":4,"area_code":"370481115251","zip_code":"277521","city_code":"0632","name":"\u4e1c\u6768\u5e84\u6751\u59d4\u4f1a","short_name":"\u4e1c\u6768\u5e84","merger_name":"\u5c71\u4e1c,\u67a3\u5e84,\u6ed5\u5dde,\u9f99\u9633,\u4e1c\u6768\u5e84","pinyin":"DongYangZhuang","lng":"117.327385","lat":"34.713939"},{"id":308060,"parent_id":308007,"level":4,"area_code":"370481115252","zip_code":"277532","city_code":"0632","name":"\u897f\u6731\u4ec7\u6751\u59d4\u4f1a","short_name":"\u897f\u6731\u4ec7","merger_name":"\u5c71\u4e1c,\u67a3\u5e84,\u6ed5\u5dde,\u9f99\u9633,\u897f\u6731\u4ec7","pinyin":"XiZhuChou","lng":"117.198960","lat":"35.179150"},{"id":308061,"parent_id":308007,"level":4,"area_code":"370481115253","zip_code":"277532","city_code":"0632","name":"\u8de8\u6cb3\u6751\u59d4\u4f1a","short_name":"\u8de8\u6cb3","merger_name":"\u5c71\u4e1c,\u67a3\u5e84,\u6ed5\u5dde,\u9f99\u9633,\u8de8\u6cb3","pinyin":"KuaHe","lng":"117.170570","lat":"35.162780"},{"id":308062,"parent_id":308007,"level":4,"area_code":"370481115254","zip_code":"277532","city_code":"0632","name":"\u5357\u738b\u5e84\u6751\u59d4\u4f1a","short_name":"\u5357\u738b\u5e84","merger_name":"\u5c71\u4e1c,\u67a3\u5e84,\u6ed5\u5dde,\u9f99\u9633,\u5357\u738b\u5e84","pinyin":"NanWangZhuang","lng":"117.170570","lat":"35.162780"},{"id":308063,"parent_id":308007,"level":4,"area_code":"370481115255","zip_code":"277532","city_code":"0632","name":"\u90b1\u77f3\u6751","short_name":"\u90b1\u77f3\u6751","merger_name":"\u5c71\u4e1c,\u67a3\u5e84,\u6ed5\u5dde,\u9f99\u9633,\u90b1\u77f3\u6751","pinyin":"QiuShiCun","lng":"117.170570","lat":"35.162780"},{"id":308064,"parent_id":306882,"level":3,"area_code":"370481116000","zip_code":"277533","city_code":"0632","name":"\u4e1c\u90ed\u9547","short_name":"\u4e1c\u90ed","merger_name":"\u5c71\u4e1c,\u67a3\u5e84,\u6ed5\u5dde,\u4e1c\u90ed","pinyin":"DongGuo","lng":"117.261600","lat":"35.186150"},{"id":308065,"parent_id":308064,"level":4,"area_code":"370481116200","zip_code":"277533","city_code":"0632","name":"\u867a\u57ce\u5e97\u6751\u59d4\u4f1a","short_name":"\u867a\u57ce\u5e97","merger_name":"\u5c71\u4e1c,\u67a3\u5e84,\u6ed5\u5dde,\u4e1c\u90ed,\u867a\u57ce\u5e97","pinyin":"HuiChengDian","lng":"117.272810","lat":"35.143760"},{"id":308066,"parent_id":308064,"level":4,"area_code":"370481116201","zip_code":"277533","city_code":"0632","name":"\u4e1c\u575e\u6c9f\u6751\u59d4\u4f1a","short_name":"\u4e1c\u575e\u6c9f","merger_name":"\u5c71\u4e1c,\u67a3\u5e84,\u6ed5\u5dde,\u4e1c\u90ed,\u4e1c\u575e\u6c9f","pinyin":"DongWuGou","lng":"117.249520","lat":"35.142810"},{"id":308067,"parent_id":308064,"level":4,"area_code":"370481116202","zip_code":"277533","city_code":"0632","name":"\u897f\u575e\u6c9f\u6751\u59d4\u4f1a","short_name":"\u897f\u575e\u6c9f","merger_name":"\u5c71\u4e1c,\u67a3\u5e84,\u6ed5\u5dde,\u4e1c\u90ed,\u897f\u575e\u6c9f","pinyin":"XiWuGou","lng":"117.237142","lat":"35.125942"},{"id":308068,"parent_id":308064,"level":4,"area_code":"370481116203","zip_code":"277533","city_code":"0632","name":"\u524d\u575e\u6c9f\u6751\u59d4\u4f1a","short_name":"\u524d\u575e\u6c9f","merger_name":"\u5c71\u4e1c,\u67a3\u5e84,\u6ed5\u5dde,\u4e1c\u90ed,\u524d\u575e\u6c9f","pinyin":"QianWuGou","lng":"117.241340","lat":"35.136690"},{"id":308069,"parent_id":308064,"level":4,"area_code":"370481116204","zip_code":"277533","city_code":"0632","name":"\u540e\u6881\u6751\u59d4\u4f1a","short_name":"\u540e\u6881","merger_name":"\u5c71\u4e1c,\u67a3\u5e84,\u6ed5\u5dde,\u4e1c\u90ed,\u540e\u6881","pinyin":"HouLiang","lng":"117.232420","lat":"35.134800"},{"id":308070,"parent_id":308064,"level":4,"area_code":"370481116205","zip_code":"277533","city_code":"0632","name":"\u540e\u575e\u6c9f\u6751\u59d4\u4f1a","short_name":"\u540e\u575e\u6c9f","merger_name":"\u5c71\u4e1c,\u67a3\u5e84,\u6ed5\u5dde,\u4e1c\u90ed,\u540e\u575e\u6c9f","pinyin":"HouWuGou","lng":"117.243730","lat":"35.144120"},{"id":308071,"parent_id":308064,"level":4,"area_code":"370481116206","zip_code":"277533","city_code":"0632","name":"\u82cf\u697c\u6751\u59d4\u4f1a","short_name":"\u82cf\u697c","merger_name":"\u5c71\u4e1c,\u67a3\u5e84,\u6ed5\u5dde,\u4e1c\u90ed,\u82cf\u697c","pinyin":"SuLou","lng":"117.266150","lat":"35.148480"},{"id":308072,"parent_id":308064,"level":4,"area_code":"370481116207","zip_code":"277533","city_code":"0632","name":"\u6768\u660e\u5e84\u6751\u59d4\u4f1a","short_name":"\u6768\u660e\u5e84","merger_name":"\u5c71\u4e1c,\u67a3\u5e84,\u6ed5\u5dde,\u4e1c\u90ed,\u6768\u660e\u5e84","pinyin":"YangMingZhuang","lng":"117.261117","lat":"35.188655"},{"id":308073,"parent_id":308064,"level":4,"area_code":"370481116208","zip_code":"277533","city_code":"0632","name":"\u5927\u575e\u6c9f\u6751\u59d4\u4f1a","short_name":"\u5927\u575e\u6c9f","merger_name":"\u5c71\u4e1c,\u67a3\u5e84,\u6ed5\u5dde,\u4e1c\u90ed,\u5927\u575e\u6c9f","pinyin":"DaWuGou","lng":"117.243730","lat":"35.191800"},{"id":308074,"parent_id":308064,"level":4,"area_code":"370481116209","zip_code":"277533","city_code":"0632","name":"\u90b5\u7583\u6751\u59d4\u4f1a","short_name":"\u90b5\u7583","merger_name":"\u5c71\u4e1c,\u67a3\u5e84,\u6ed5\u5dde,\u4e1c\u90ed,\u90b5\u7583","pinyin":"ShaoTuan","lng":"117.283410","lat":"35.150270"},{"id":308075,"parent_id":308064,"level":4,"area_code":"370481116210","zip_code":"277533","city_code":"0632","name":"\u8f9b\u7eea\u6751\u59d4\u4f1a","short_name":"\u8f9b\u7eea","merger_name":"\u5c71\u4e1c,\u67a3\u5e84,\u6ed5\u5dde,\u4e1c\u90ed,\u8f9b\u7eea","pinyin":"XinXu","lng":"117.299450","lat":"35.153730"},{"id":308076,"parent_id":308064,"level":4,"area_code":"370481116211","zip_code":"277533","city_code":"0632","name":"\u9676\u5e84\u6751\u59d4\u4f1a","short_name":"\u9676\u5e84","merger_name":"\u5c71\u4e1c,\u67a3\u5e84,\u6ed5\u5dde,\u4e1c\u90ed,\u9676\u5e84","pinyin":"TaoZhuang","lng":"117.261600","lat":"35.186150"},{"id":308077,"parent_id":308064,"level":4,"area_code":"370481116212","zip_code":"277533","city_code":"0632","name":"\u9a6c\u5e84\u6751\u59d4\u4f1a","short_name":"\u9a6c\u5e84","merger_name":"\u5c71\u4e1c,\u67a3\u5e84,\u6ed5\u5dde,\u4e1c\u90ed,\u9a6c\u5e84","pinyin":"MaZhuang","lng":"117.782941","lat":"34.636835"},{"id":308078,"parent_id":308064,"level":4,"area_code":"370481116213","zip_code":"277533","city_code":"0632","name":"\u4e1c\u51af\u5e84\u6751\u59d4\u4f1a","short_name":"\u4e1c\u51af\u5e84","merger_name":"\u5c71\u4e1c,\u67a3\u5e84,\u6ed5\u5dde,\u4e1c\u90ed,\u4e1c\u51af\u5e84","pinyin":"DongFengZhuang","lng":"117.612968","lat":"34.879114"},{"id":308079,"parent_id":308064,"level":4,"area_code":"370481116214","zip_code":"277533","city_code":"0632","name":"\u5218\u5e84\u6751\u59d4\u4f1a","short_name":"\u5218\u5e84","merger_name":"\u5c71\u4e1c,\u67a3\u5e84,\u6ed5\u5dde,\u4e1c\u90ed,\u5218\u5e84","pinyin":"LiuZhuang","lng":"117.261600","lat":"35.186150"},{"id":308080,"parent_id":308064,"level":4,"area_code":"370481116215","zip_code":"277533","city_code":"0632","name":"\u51af\u6c9f\u6751\u59d4\u4f1a","short_name":"\u51af\u6c9f","merger_name":"\u5c71\u4e1c,\u67a3\u5e84,\u6ed5\u5dde,\u4e1c\u90ed,\u51af\u6c9f","pinyin":"FengGou","lng":"117.306042","lat":"35.171732"},{"id":308081,"parent_id":308064,"level":4,"area_code":"370481116216","zip_code":"277533","city_code":"0632","name":"\u5317\u5f90\u5e84\u6751\u59d4\u4f1a","short_name":"\u5317\u5f90\u5e84","merger_name":"\u5c71\u4e1c,\u67a3\u5e84,\u6ed5\u5dde,\u4e1c\u90ed,\u5317\u5f90\u5e84","pinyin":"BeiXuZhuang","lng":"117.227460","lat":"34.974290"},{"id":308082,"parent_id":308064,"level":4,"area_code":"370481116217","zip_code":"277533","city_code":"0632","name":"\u674e\u6c9f\u6751\u59d4\u4f1a","short_name":"\u674e\u6c9f","merger_name":"\u5c71\u4e1c,\u67a3\u5e84,\u6ed5\u5dde,\u4e1c\u90ed,\u674e\u6c9f","pinyin":"LiGou","lng":"117.291060","lat":"35.222450"},{"id":308083,"parent_id":308064,"level":4,"area_code":"370481116218","zip_code":"277533","city_code":"0632","name":"\u9ed1\u77f3\u5cad\u6751\u59d4\u4f1a","short_name":"\u9ed1\u77f3\u5cad","merger_name":"\u5c71\u4e1c,\u67a3\u5e84,\u6ed5\u5dde,\u4e1c\u90ed,\u9ed1\u77f3\u5cad","pinyin":"HeiShiLing","lng":"117.475580","lat":"34.841930"},{"id":308084,"parent_id":308064,"level":4,"area_code":"370481116219","zip_code":"277533","city_code":"0632","name":"\u4e0a\u6237\u4e3b\u6751\u59d4\u4f1a","short_name":"\u4e0a\u6237\u4e3b","merger_name":"\u5c71\u4e1c,\u67a3\u5e84,\u6ed5\u5dde,\u4e1c\u90ed,\u4e0a\u6237\u4e3b","pinyin":"ShangHuZhu","lng":"117.320828","lat":"35.144918"},{"id":308085,"parent_id":308064,"level":4,"area_code":"370481116220","zip_code":"277533","city_code":"0632","name":"\u4e0b\u6237\u4e3b\u6751\u59d4\u4f1a","short_name":"\u4e0b\u6237\u4e3b","merger_name":"\u5c71\u4e1c,\u67a3\u5e84,\u6ed5\u5dde,\u4e1c\u90ed,\u4e0b\u6237\u4e3b","pinyin":"XiaHuZhu","lng":"117.280820","lat":"35.203300"},{"id":308086,"parent_id":308064,"level":4,"area_code":"370481116221","zip_code":"277533","city_code":"0632","name":"\u6e29\u5e84\u6751\u59d4\u4f1a","short_name":"\u6e29\u5e84","merger_name":"\u5c71\u4e1c,\u67a3\u5e84,\u6ed5\u5dde,\u4e1c\u90ed,\u6e29\u5e84","pinyin":"WenZhuang","lng":"117.261600","lat":"35.186150"},{"id":308087,"parent_id":308064,"level":4,"area_code":"370481116222","zip_code":"277533","city_code":"0632","name":"\u5c71\u524d\u6751\u59d4\u4f1a","short_name":"\u5c71\u524d","merger_name":"\u5c71\u4e1c,\u67a3\u5e84,\u6ed5\u5dde,\u4e1c\u90ed,\u5c71\u524d","pinyin":"ShanQian","lng":"117.261600","lat":"35.186150"},{"id":308088,"parent_id":308064,"level":4,"area_code":"370481116223","zip_code":"277533","city_code":"0632","name":"\u540e\u4efb\u5382\u6751\u59d4\u4f1a","short_name":"\u540e\u4efb\u5382","merger_name":"\u5c71\u4e1c,\u67a3\u5e84,\u6ed5\u5dde,\u4e1c\u90ed,\u540e\u4efb\u5382","pinyin":"HouRenChang","lng":"117.275130","lat":"35.220010"},{"id":308089,"parent_id":308064,"level":4,"area_code":"370481116224","zip_code":"277533","city_code":"0632","name":"\u524d\u4efb\u5382\u6751\u59d4\u4f1a","short_name":"\u524d\u4efb\u5382","merger_name":"\u5c71\u4e1c,\u67a3\u5e84,\u6ed5\u5dde,\u4e1c\u90ed,\u524d\u4efb\u5382","pinyin":"QianRenChang","lng":"117.320828","lat":"35.144918"},{"id":308090,"parent_id":308064,"level":4,"area_code":"370481116225","zip_code":"277533","city_code":"0632","name":"\u5cad\u5934\u6751\u59d4\u4f1a","short_name":"\u5cad\u5934","merger_name":"\u5c71\u4e1c,\u67a3\u5e84,\u6ed5\u5dde,\u4e1c\u90ed,\u5cad\u5934","pinyin":"LingTou","lng":"117.261117","lat":"35.188655"},{"id":308091,"parent_id":308064,"level":4,"area_code":"370481116226","zip_code":"277533","city_code":"0632","name":"\u9b4f\u6c9f\u6751\u59d4\u4f1a","short_name":"\u9b4f\u6c9f","merger_name":"\u5c71\u4e1c,\u67a3\u5e84,\u6ed5\u5dde,\u4e1c\u90ed,\u9b4f\u6c9f","pinyin":"WeiGou","lng":"117.484318","lat":"35.169139"},{"id":308092,"parent_id":308064,"level":4,"area_code":"370481116227","zip_code":"277533","city_code":"0632","name":"\u6731\u6d3c\u6751\u59d4\u4f1a","short_name":"\u6731\u6d3c","merger_name":"\u5c71\u4e1c,\u67a3\u5e84,\u6ed5\u5dde,\u4e1c\u90ed,\u6731\u6d3c","pinyin":"ZhuWa","lng":"117.280820","lat":"35.203300"},{"id":308093,"parent_id":308064,"level":4,"area_code":"370481116228","zip_code":"277533","city_code":"0632","name":"\u9999\u53f0\u6751\u59d4\u4f1a","short_name":"\u9999\u53f0","merger_name":"\u5c71\u4e1c,\u67a3\u5e84,\u6ed5\u5dde,\u4e1c\u90ed,\u9999\u53f0","pinyin":"XiangTai","lng":"117.258660","lat":"35.202800"},{"id":308094,"parent_id":308064,"level":4,"area_code":"370481116229","zip_code":"277533","city_code":"0632","name":"\u767d\u6cb3\u6751\u59d4\u4f1a","short_name":"\u767d\u6cb3","merger_name":"\u5c71\u4e1c,\u67a3\u5e84,\u6ed5\u5dde,\u4e1c\u90ed,\u767d\u6cb3","pinyin":"BaiHe","lng":"117.121206","lat":"35.048193"},{"id":308095,"parent_id":308064,"level":4,"area_code":"370481116230","zip_code":"277533","city_code":"0632","name":"\u725b\u76ae\u5cad\u6751\u59d4\u4f1a","short_name":"\u725b\u76ae\u5cad","merger_name":"\u5c71\u4e1c,\u67a3\u5e84,\u6ed5\u5dde,\u4e1c\u90ed,\u725b\u76ae\u5cad","pinyin":"NiuPiLing","lng":"117.320828","lat":"35.144918"},{"id":308096,"parent_id":308064,"level":4,"area_code":"370481116231","zip_code":"277533","city_code":"0632","name":"\u4eac\u53f0\u6751\u59d4\u4f1a","short_name":"\u4eac\u53f0","merger_name":"\u5c71\u4e1c,\u67a3\u5e84,\u6ed5\u5dde,\u4e1c\u90ed,\u4eac\u53f0","pinyin":"JingTai","lng":"117.261600","lat":"35.186150"},{"id":308097,"parent_id":308064,"level":4,"area_code":"370481116232","zip_code":"277533","city_code":"0632","name":"\u897f\u90ed\u6751\u59d4\u4f1a","short_name":"\u897f\u90ed","merger_name":"\u5c71\u4e1c,\u67a3\u5e84,\u6ed5\u5dde,\u4e1c\u90ed,\u897f\u90ed","pinyin":"XiGuo","lng":"117.049533","lat":"35.210568"},{"id":308098,"parent_id":308064,"level":4,"area_code":"370481116233","zip_code":"277533","city_code":"0632","name":"\u6b66\u697c\u6751\u59d4\u4f1a","short_name":"\u6b66\u697c","merger_name":"\u5c71\u4e1c,\u67a3\u5e84,\u6ed5\u5dde,\u4e1c\u90ed,\u6b66\u697c","pinyin":"WuLou","lng":"117.261117","lat":"35.188655"},{"id":308099,"parent_id":308064,"level":4,"area_code":"370481116234","zip_code":"277533","city_code":"0632","name":"\u4e1c\u90ed\u524d\u6751\u6751\u59d4\u4f1a","short_name":"\u4e1c\u90ed\u524d\u6751","merger_name":"\u5c71\u4e1c,\u67a3\u5e84,\u6ed5\u5dde,\u4e1c\u90ed,\u4e1c\u90ed\u524d\u6751","pinyin":"DongGuoQianCun","lng":"117.261117","lat":"35.188655"},{"id":308100,"parent_id":308064,"level":4,"area_code":"370481116235","zip_code":"277533","city_code":"0632","name":"\u4e1c\u90ed\u4e2d\u6751\u6751\u59d4\u4f1a","short_name":"\u4e1c\u90ed\u4e2d\u6751","merger_name":"\u5c71\u4e1c,\u67a3\u5e84,\u6ed5\u5dde,\u4e1c\u90ed,\u4e1c\u90ed\u4e2d\u6751","pinyin":"DongGuoZhongCun","lng":"117.262680","lat":"35.185580"},{"id":308101,"parent_id":308064,"level":4,"area_code":"370481116236","zip_code":"277533","city_code":"0632","name":"\u4e1c\u90ed\u540e\u6751\u6751\u59d4\u4f1a","short_name":"\u4e1c\u90ed\u540e\u6751","merger_name":"\u5c71\u4e1c,\u67a3\u5e84,\u6ed5\u5dde,\u4e1c\u90ed,\u4e1c\u90ed\u540e\u6751","pinyin":"DongGuoHouCun","lng":"117.261117","lat":"35.188655"},{"id":308102,"parent_id":308064,"level":4,"area_code":"370481116237","zip_code":"277533","city_code":"0632","name":"\u9ec4\u56ed\u6751\u59d4\u4f1a","short_name":"\u9ec4\u56ed","merger_name":"\u5c71\u4e1c,\u67a3\u5e84,\u6ed5\u5dde,\u4e1c\u90ed,\u9ec4\u56ed","pinyin":"HuangYuan","lng":"117.207259","lat":"35.180748"},{"id":308103,"parent_id":308064,"level":4,"area_code":"370481116238","zip_code":"277533","city_code":"0632","name":"\u4e1c\u6731\u4ec7\u6751\u59d4\u4f1a","short_name":"\u4e1c\u6731\u4ec7","merger_name":"\u5c71\u4e1c,\u67a3\u5e84,\u6ed5\u5dde,\u4e1c\u90ed,\u4e1c\u6731\u4ec7","pinyin":"DongZhuChou","lng":"117.207030","lat":"35.177350"},{"id":308104,"parent_id":308064,"level":4,"area_code":"370481116239","zip_code":"277533","city_code":"0632","name":"\u5927\u7eea\u5e84\u6751\u59d4\u4f1a","short_name":"\u5927\u7eea\u5e84","merger_name":"\u5c71\u4e1c,\u67a3\u5e84,\u6ed5\u5dde,\u4e1c\u90ed,\u5927\u7eea\u5e84","pinyin":"DaXuZhuang","lng":"117.218633","lat":"35.154260"},{"id":308105,"parent_id":308064,"level":4,"area_code":"370481116240","zip_code":"277533","city_code":"0632","name":"\u524d\u660e\u6751\u59d4\u4f1a","short_name":"\u524d\u660e","merger_name":"\u5c71\u4e1c,\u67a3\u5e84,\u6ed5\u5dde,\u4e1c\u90ed,\u524d\u660e","pinyin":"QianMing","lng":"117.299450","lat":"35.153730"},{"id":308106,"parent_id":308064,"level":4,"area_code":"370481116241","zip_code":"277533","city_code":"0632","name":"\u4e2d\u660e\u6751\u59d4\u4f1a","short_name":"\u4e2d\u660e","merger_name":"\u5c71\u4e1c,\u67a3\u5e84,\u6ed5\u5dde,\u4e1c\u90ed,\u4e2d\u660e","pinyin":"ZhongMing","lng":"117.232280","lat":"35.183540"},{"id":308107,"parent_id":308064,"level":4,"area_code":"370481116242","zip_code":"277533","city_code":"0632","name":"\u540e\u660e\u6751\u59d4\u4f1a","short_name":"\u540e\u660e","merger_name":"\u5c71\u4e1c,\u67a3\u5e84,\u6ed5\u5dde,\u4e1c\u90ed,\u540e\u660e","pinyin":"HouMing","lng":"117.261117","lat":"35.188655"},{"id":308108,"parent_id":308064,"level":4,"area_code":"370481116243","zip_code":"277533","city_code":"0632","name":"\u897f\u660e\u6751\u59d4\u4f1a","short_name":"\u897f\u660e","merger_name":"\u5c71\u4e1c,\u67a3\u5e84,\u6ed5\u5dde,\u4e1c\u90ed,\u897f\u660e","pinyin":"XiMing","lng":"117.217720","lat":"35.189560"},{"id":308109,"parent_id":308064,"level":4,"area_code":"370481116244","zip_code":"277533","city_code":"0632","name":"\u4e1c\u660e\u6751\u59d4\u4f1a","short_name":"\u4e1c\u660e","merger_name":"\u5c71\u4e1c,\u67a3\u5e84,\u6ed5\u5dde,\u4e1c\u90ed,\u4e1c\u660e","pinyin":"DongMing","lng":"117.261600","lat":"35.186150"},{"id":308110,"parent_id":308064,"level":4,"area_code":"370481116245","zip_code":"277533","city_code":"0632","name":"\u7530\u5e84\u6751\u59d4\u4f1a","short_name":"\u7530\u5e84","merger_name":"\u5c71\u4e1c,\u67a3\u5e84,\u6ed5\u5dde,\u4e1c\u90ed,\u7530\u5e84","pinyin":"TianZhuang","lng":"117.261600","lat":"35.186150"},{"id":308111,"parent_id":308064,"level":4,"area_code":"370481116246","zip_code":"277533","city_code":"0632","name":"\u697c\u91cc\u6751\u59d4\u4f1a","short_name":"\u697c\u91cc","merger_name":"\u5c71\u4e1c,\u67a3\u5e84,\u6ed5\u5dde,\u4e1c\u90ed,\u697c\u91cc","pinyin":"LouLi","lng":"117.243730","lat":"35.191800"},{"id":308112,"parent_id":308064,"level":4,"area_code":"370481116247","zip_code":"277533","city_code":"0632","name":"\u5c0f\u5802\u95e8\u6751\u59d4\u4f1a","short_name":"\u5c0f\u5802\u95e8","merger_name":"\u5c71\u4e1c,\u67a3\u5e84,\u6ed5\u5dde,\u4e1c\u90ed,\u5c0f\u5802\u95e8","pinyin":"XiaoTangMen","lng":"117.243730","lat":"35.191800"},{"id":308113,"parent_id":308064,"level":4,"area_code":"370481116248","zip_code":"277533","city_code":"0632","name":"\u5927\u5802\u95e8\u6751\u59d4\u4f1a","short_name":"\u5927\u5802\u95e8","merger_name":"\u5c71\u4e1c,\u67a3\u5e84,\u6ed5\u5dde,\u4e1c\u90ed,\u5927\u5802\u95e8","pinyin":"DaTangMen","lng":"117.243730","lat":"35.191800"},{"id":308114,"parent_id":308064,"level":4,"area_code":"370481116249","zip_code":"277533","city_code":"0632","name":"\u5e38\u5e84\u6751\u59d4\u4f1a","short_name":"\u5e38\u5e84","merger_name":"\u5c71\u4e1c,\u67a3\u5e84,\u6ed5\u5dde,\u4e1c\u90ed,\u5e38\u5e84","pinyin":"ChangZhuang","lng":"117.261600","lat":"35.186150"},{"id":308115,"parent_id":308064,"level":4,"area_code":"370481116250","zip_code":"277533","city_code":"0632","name":"\u540e\u5f20\u5761\u6751\u59d4\u4f1a","short_name":"\u540e\u5f20\u5761","merger_name":"\u5c71\u4e1c,\u67a3\u5e84,\u6ed5\u5dde,\u4e1c\u90ed,\u540e\u5f20\u5761","pinyin":"HouZhangPo","lng":"117.261117","lat":"35.188655"},{"id":308116,"parent_id":308064,"level":4,"area_code":"370481116251","zip_code":"277533","city_code":"0632","name":"\u524d\u5f20\u5761\u6751\u59d4\u4f1a","short_name":"\u524d\u5f20\u5761","merger_name":"\u5c71\u4e1c,\u67a3\u5e84,\u6ed5\u5dde,\u4e1c\u90ed,\u524d\u5f20\u5761","pinyin":"QianZhangPo","lng":"117.261117","lat":"35.188655"},{"id":308117,"parent_id":308064,"level":4,"area_code":"370481116252","zip_code":"277533","city_code":"0632","name":"\u79e6\u6797\u6751\u59d4\u4f1a","short_name":"\u79e6\u6797","merger_name":"\u5c71\u4e1c,\u67a3\u5e84,\u6ed5\u5dde,\u4e1c\u90ed,\u79e6\u6797","pinyin":"QinLin","lng":"117.121206","lat":"35.048193"},{"id":308118,"parent_id":308064,"level":4,"area_code":"370481116253","zip_code":"277533","city_code":"0632","name":"\u4e1c\u8d75\u5761\u6751\u59d4\u4f1a","short_name":"\u4e1c\u8d75\u5761","merger_name":"\u5c71\u4e1c,\u67a3\u5e84,\u6ed5\u5dde,\u4e1c\u90ed,\u4e1c\u8d75\u5761","pinyin":"DongZhaoPo","lng":"117.280820","lat":"35.203300"},{"id":308119,"parent_id":308064,"level":4,"area_code":"370481116254","zip_code":"277533","city_code":"0632","name":"\u9ec4\u91d1\u5761\u6751\u59d4\u4f1a","short_name":"\u9ec4\u91d1\u5761","merger_name":"\u5c71\u4e1c,\u67a3\u5e84,\u6ed5\u5dde,\u4e1c\u90ed,\u9ec4\u91d1\u5761","pinyin":"HuangJinPo","lng":"117.218633","lat":"35.154260"},{"id":308120,"parent_id":308064,"level":4,"area_code":"370481116255","zip_code":"277533","city_code":"0632","name":"\u5357\u5f90\u6751\u59d4\u4f1a","short_name":"\u5357\u5f90","merger_name":"\u5c71\u4e1c,\u67a3\u5e84,\u6ed5\u5dde,\u4e1c\u90ed,\u5357\u5f90","pinyin":"NanXu","lng":"117.225380","lat":"35.137600"},{"id":308121,"parent_id":308064,"level":4,"area_code":"370481116256","zip_code":"277533","city_code":"0632","name":"\u7f57\u5e84\u6751\u59d4\u4f1a","short_name":"\u7f57\u5e84","merger_name":"\u5c71\u4e1c,\u67a3\u5e84,\u6ed5\u5dde,\u4e1c\u90ed,\u7f57\u5e84","pinyin":"LuoZhuang","lng":"117.261600","lat":"35.186150"},{"id":308122,"parent_id":308064,"level":4,"area_code":"370481116257","zip_code":"277533","city_code":"0632","name":"\u5357\u5510\u6797\u6751\u59d4\u4f1a","short_name":"\u5357\u5510\u6797","merger_name":"\u5c71\u4e1c,\u67a3\u5e84,\u6ed5\u5dde,\u4e1c\u90ed,\u5357\u5510\u6797","pinyin":"NanTangLin","lng":"117.280820","lat":"35.203300"},{"id":308123,"parent_id":308064,"level":4,"area_code":"370481116258","zip_code":"277533","city_code":"0632","name":"\u9f99\u738b\u5e84\u6751\u59d4\u4f1a","short_name":"\u9f99\u738b\u5e84","merger_name":"\u5c71\u4e1c,\u67a3\u5e84,\u6ed5\u5dde,\u4e1c\u90ed,\u9f99\u738b\u5e84","pinyin":"LongWangZhuang","lng":"117.261600","lat":"35.186150"},{"id":308124,"parent_id":308064,"level":4,"area_code":"370481116259","zip_code":"277533","city_code":"0632","name":"\u5df4\u5e84\u6751\u59d4\u4f1a","short_name":"\u5df4\u5e84","merger_name":"\u5c71\u4e1c,\u67a3\u5e84,\u6ed5\u5dde,\u4e1c\u90ed,\u5df4\u5e84","pinyin":"BaZhuang","lng":"117.306042","lat":"35.171732"},{"id":308125,"parent_id":308064,"level":4,"area_code":"370481116260","zip_code":"277533","city_code":"0632","name":"\u5c6f\u91cc\u6751\u59d4\u4f1a","short_name":"\u5c6f\u91cc","merger_name":"\u5c71\u4e1c,\u67a3\u5e84,\u6ed5\u5dde,\u4e1c\u90ed,\u5c6f\u91cc","pinyin":"TunLi","lng":"117.218633","lat":"35.154260"},{"id":308126,"parent_id":308064,"level":4,"area_code":"370481116261","zip_code":"277533","city_code":"0632","name":"\u7389\u6cc9\u6751\u59d4\u4f1a","short_name":"\u7389\u6cc9","merger_name":"\u5c71\u4e1c,\u67a3\u5e84,\u6ed5\u5dde,\u4e1c\u90ed,\u7389\u6cc9","pinyin":"YuQuan","lng":"117.218633","lat":"35.154260"},{"id":308127,"parent_id":308064,"level":4,"area_code":"370481116262","zip_code":"277533","city_code":"0632","name":"\u74e6\u5cea\u4e1c\u6751\u59d4\u4f1a","short_name":"\u74e6\u5cea\u4e1c","merger_name":"\u5c71\u4e1c,\u67a3\u5e84,\u6ed5\u5dde,\u4e1c\u90ed,\u74e6\u5cea\u4e1c","pinyin":"WaYuDong","lng":"117.276900","lat":"35.275760"},{"id":308128,"parent_id":308064,"level":4,"area_code":"370481116263","zip_code":"277534","city_code":"0632","name":"\u74e6\u5cea\u897f\u6751\u59d4\u4f1a","short_name":"\u74e6\u5cea\u897f","merger_name":"\u5c71\u4e1c,\u67a3\u5e84,\u6ed5\u5dde,\u4e1c\u90ed,\u74e6\u5cea\u897f","pinyin":"WaYuXi","lng":"117.276900","lat":"35.275760"},{"id":308129,"parent_id":308064,"level":4,"area_code":"370481116264","zip_code":"277534","city_code":"0632","name":"\u4e0a\u9ec4\u5e84\u6751\u59d4\u4f1a","short_name":"\u4e0a\u9ec4\u5e84","merger_name":"\u5c71\u4e1c,\u67a3\u5e84,\u6ed5\u5dde,\u4e1c\u90ed,\u4e0a\u9ec4\u5e84","pinyin":"ShangHuangZhuang","lng":"117.280820","lat":"35.203300"},{"id":308130,"parent_id":308064,"level":4,"area_code":"370481116265","zip_code":"277534","city_code":"0632","name":"\u738b\u674e\u5e84\u6751\u59d4\u4f1a","short_name":"\u738b\u674e\u5e84","merger_name":"\u5c71\u4e1c,\u67a3\u5e84,\u6ed5\u5dde,\u4e1c\u90ed,\u738b\u674e\u5e84","pinyin":"WangLiZhuang","lng":"117.280820","lat":"35.203300"},{"id":308131,"parent_id":308064,"level":4,"area_code":"370481116266","zip_code":"277533","city_code":"0632","name":"\u5317\u9a6c\u5e84\u6751\u59d4\u4f1a","short_name":"\u5317\u9a6c\u5e84","merger_name":"\u5c71\u4e1c,\u67a3\u5e84,\u6ed5\u5dde,\u4e1c\u90ed,\u5317\u9a6c\u5e84","pinyin":"BeiMaZhuang","lng":"117.261600","lat":"35.186150"},{"id":308132,"parent_id":308064,"level":4,"area_code":"370481116267","zip_code":"277534","city_code":"0632","name":"\u5317\u4e01\u5e84\u6751\u59d4\u4f1a","short_name":"\u5317\u4e01\u5e84","merger_name":"\u5c71\u4e1c,\u67a3\u5e84,\u6ed5\u5dde,\u4e1c\u90ed,\u5317\u4e01\u5e84","pinyin":"BeiDingZhuang","lng":"117.261600","lat":"35.186150"},{"id":308133,"parent_id":308064,"level":4,"area_code":"370481116268","zip_code":"277534","city_code":"0632","name":"\u5434\u54e8\u6751\u59d4\u4f1a","short_name":"\u5434\u54e8","merger_name":"\u5c71\u4e1c,\u67a3\u5e84,\u6ed5\u5dde,\u4e1c\u90ed,\u5434\u54e8","pinyin":"WuShao","lng":"117.288190","lat":"35.248060"},{"id":308134,"parent_id":308064,"level":4,"area_code":"370481116269","zip_code":"277534","city_code":"0632","name":"\u4e1b\u5e84\u6751\u59d4\u4f1a","short_name":"\u4e1b\u5e84","merger_name":"\u5c71\u4e1c,\u67a3\u5e84,\u6ed5\u5dde,\u4e1c\u90ed,\u4e1b\u5e84","pinyin":"CongZhuang","lng":"117.261600","lat":"35.186150"},{"id":308135,"parent_id":308064,"level":4,"area_code":"370481116270","zip_code":"277534","city_code":"0632","name":"\u77f3\u7f8a\u5c71\u6751\u59d4\u4f1a","short_name":"\u77f3\u7f8a\u5c71","merger_name":"\u5c71\u4e1c,\u67a3\u5e84,\u6ed5\u5dde,\u4e1c\u90ed,\u77f3\u7f8a\u5c71","pinyin":"ShiYangShan","lng":"117.280820","lat":"35.203300"},{"id":308136,"parent_id":308064,"level":4,"area_code":"370481116271","zip_code":"277533","city_code":"0632","name":"\u5b89\u4e0a\u6751\u59d4\u4f1a","short_name":"\u5b89\u4e0a","merger_name":"\u5c71\u4e1c,\u67a3\u5e84,\u6ed5\u5dde,\u4e1c\u90ed,\u5b89\u4e0a","pinyin":"AnShang","lng":"117.236988","lat":"34.892540"},{"id":308137,"parent_id":308064,"level":4,"area_code":"370481116272","zip_code":"277500","city_code":"0632","name":"\u6797\u5cad\u6751\u59d4\u4f1a","short_name":"\u6797\u5cad","merger_name":"\u5c71\u4e1c,\u67a3\u5e84,\u6ed5\u5dde,\u4e1c\u90ed,\u6797\u5cad","pinyin":"LinLing","lng":"117.239280","lat":"35.240030"},{"id":308138,"parent_id":308064,"level":4,"area_code":"370481116273","zip_code":"277534","city_code":"0632","name":"\u5927\u515a\u5c71\u6751\u59d4\u4f1a","short_name":"\u5927\u515a\u5c71","merger_name":"\u5c71\u4e1c,\u67a3\u5e84,\u6ed5\u5dde,\u4e1c\u90ed,\u5927\u515a\u5c71","pinyin":"DaDangShan","lng":"117.280820","lat":"35.203300"},{"id":308139,"parent_id":308064,"level":4,"area_code":"370481116274","zip_code":"277534","city_code":"0632","name":"\u5317\u848b\u5e84\u6751\u59d4\u4f1a","short_name":"\u5317\u848b\u5e84","merger_name":"\u5c71\u4e1c,\u67a3\u5e84,\u6ed5\u5dde,\u4e1c\u90ed,\u5317\u848b\u5e84","pinyin":"BeiJiangZhuang","lng":"117.227460","lat":"34.974290"},{"id":308140,"parent_id":308064,"level":4,"area_code":"370481116275","zip_code":"277534","city_code":"0632","name":"\u65b0\u7530\u6751\u59d4\u4f1a","short_name":"\u65b0\u7530","merger_name":"\u5c71\u4e1c,\u67a3\u5e84,\u6ed5\u5dde,\u4e1c\u90ed,\u65b0\u7530","pinyin":"XinTian","lng":"117.261600","lat":"35.186150"},{"id":308141,"parent_id":308064,"level":4,"area_code":"370481116276","zip_code":"277534","city_code":"0632","name":"\u5c0f\u515a\u5c71\u6751\u59d4\u4f1a","short_name":"\u5c0f\u515a\u5c71","merger_name":"\u5c71\u4e1c,\u67a3\u5e84,\u6ed5\u5dde,\u4e1c\u90ed,\u5c0f\u515a\u5c71","pinyin":"XiaoDangShan","lng":"117.280820","lat":"35.203300"},{"id":308142,"parent_id":308064,"level":4,"area_code":"370481116277","zip_code":"277500","city_code":"0632","name":"\u8c37\u5c71\u6751\u59d4\u4f1a","short_name":"\u8c37\u5c71","merger_name":"\u5c71\u4e1c,\u67a3\u5e84,\u6ed5\u5dde,\u4e1c\u90ed,\u8c37\u5c71","pinyin":"GuShan","lng":"117.261117","lat":"35.188655"},{"id":308143,"parent_id":308064,"level":4,"area_code":"370481116278","zip_code":"277534","city_code":"0632","name":"\u590f\u5e84\u6751\u59d4\u4f1a","short_name":"\u590f\u5e84","merger_name":"\u5c71\u4e1c,\u67a3\u5e84,\u6ed5\u5dde,\u4e1c\u90ed,\u590f\u5e84","pinyin":"XiaZhuang","lng":"117.295452","lat":"34.859768"},{"id":308144,"parent_id":308064,"level":4,"area_code":"370481116279","zip_code":"277534","city_code":"0632","name":"\u76f8\u5cad\u6751\u59d4\u4f1a","short_name":"\u76f8\u5cad","merger_name":"\u5c71\u4e1c,\u67a3\u5e84,\u6ed5\u5dde,\u4e1c\u90ed,\u76f8\u5cad","pinyin":"XiangLing","lng":"117.210890","lat":"35.256640"},{"id":308145,"parent_id":308064,"level":4,"area_code":"370481116280","zip_code":"277534","city_code":"0632","name":"\u5c0f\u4efb\u5e84\u6751\u59d4\u4f1a","short_name":"\u5c0f\u4efb\u5e84","merger_name":"\u5c71\u4e1c,\u67a3\u5e84,\u6ed5\u5dde,\u4e1c\u90ed,\u5c0f\u4efb\u5e84","pinyin":"XiaoRenZhuang","lng":"117.280867","lat":"35.203536"},{"id":308146,"parent_id":308064,"level":4,"area_code":"370481116281","zip_code":"277534","city_code":"0632","name":"\u5f20\u4efb\u5e84\u6751\u59d4\u4f1a","short_name":"\u5f20\u4efb\u5e84","merger_name":"\u5c71\u4e1c,\u67a3\u5e84,\u6ed5\u5dde,\u4e1c\u90ed,\u5f20\u4efb\u5e84","pinyin":"ZhangRenZhuang","lng":"117.280820","lat":"35.203300"},{"id":308147,"parent_id":308064,"level":4,"area_code":"370481116282","zip_code":"277534","city_code":"0632","name":"\u524d\u674e\u5cad\u6751\u59d4\u4f1a","short_name":"\u524d\u674e\u5cad","merger_name":"\u5c71\u4e1c,\u67a3\u5e84,\u6ed5\u5dde,\u4e1c\u90ed,\u524d\u674e\u5cad","pinyin":"QianLiLing","lng":"117.216240","lat":"35.242500"},{"id":308148,"parent_id":308064,"level":4,"area_code":"370481116283","zip_code":"277534","city_code":"0632","name":"\u78e8\u77f3\u5c71\u6751\u59d4\u4f1a","short_name":"\u78e8\u77f3\u5c71","merger_name":"\u5c71\u4e1c,\u67a3\u5e84,\u6ed5\u5dde,\u4e1c\u90ed,\u78e8\u77f3\u5c71","pinyin":"MoShiShan","lng":"117.225660","lat":"35.243250"},{"id":308149,"parent_id":308064,"level":4,"area_code":"370481116284","zip_code":"277533","city_code":"0632","name":"\u5510\u6797\u6751\u59d4\u4f1a","short_name":"\u5510\u6797","merger_name":"\u5c71\u4e1c,\u67a3\u5e84,\u6ed5\u5dde,\u4e1c\u90ed,\u5510\u6797","pinyin":"TangLin","lng":"117.049533","lat":"35.210568"},{"id":308150,"parent_id":308064,"level":4,"area_code":"370481116285","zip_code":"277533","city_code":"0632","name":"\u6b23\u9633\u6751\u59d4\u4f1a","short_name":"\u6b23\u9633","merger_name":"\u5c71\u4e1c,\u67a3\u5e84,\u6ed5\u5dde,\u4e1c\u90ed,\u6b23\u9633","pinyin":"XinYang","lng":"117.280820","lat":"35.203300"},{"id":308151,"parent_id":308064,"level":4,"area_code":"370481116286","zip_code":"277533","city_code":"0632","name":"\u5317\u9ad8\u5e84\u6751\u59d4\u4f1a","short_name":"\u5317\u9ad8\u5e84","merger_name":"\u5c71\u4e1c,\u67a3\u5e84,\u6ed5\u5dde,\u4e1c\u90ed,\u5317\u9ad8\u5e84","pinyin":"BeiGaoZhuang","lng":"117.227460","lat":"34.974290"},{"id":308152,"parent_id":308064,"level":4,"area_code":"370481116287","zip_code":"277533","city_code":"0632","name":"\u8bb8\u6c83\u65b0\u6751\u6751\u59d4\u4f1a","short_name":"\u8bb8\u6c83\u65b0\u6751","merger_name":"\u5c71\u4e1c,\u67a3\u5e84,\u6ed5\u5dde,\u4e1c\u90ed,\u8bb8\u6c83\u65b0\u6751","pinyin":"XuWoXinCun","lng":"116.927699","lat":"35.069481"},{"id":308153,"parent_id":308064,"level":4,"area_code":"370481116288","zip_code":"277533","city_code":"0632","name":"\u9a6c\u6cb3\u6751\u59d4\u4f1a","short_name":"\u9a6c\u6cb3","merger_name":"\u5c71\u4e1c,\u67a3\u5e84,\u6ed5\u5dde,\u4e1c\u90ed,\u9a6c\u6cb3","pinyin":"MaHe","lng":"117.230360","lat":"35.207320"},{"id":308154,"parent_id":289611,"level":1,"area_code":"370500000000","zip_code":"257000","city_code":"0546","name":"\u4e1c\u8425\u5e02","short_name":"\u4e1c\u8425","merger_name":"\u5c71\u4e1c,\u4e1c\u8425","pinyin":"DongYing","lng":"118.674767","lat":"37.434751"},{"id":308155,"parent_id":308154,"level":2,"area_code":"370501000000","zip_code":"257000","city_code":"0546","name":"\u5e02\u8f96\u533a","short_name":"\u4e1c\u8425","merger_name":"\u5c71\u4e1c,\u4e1c\u8425","pinyin":"DongYing","lng":"118.674767","lat":"37.434751"},{"id":308156,"parent_id":308154,"level":2,"area_code":"370502000000","zip_code":"257100","city_code":"0546","name":"\u4e1c\u8425\u533a","short_name":"\u4e1c\u8425","merger_name":"\u5c71\u4e1c,\u4e1c\u8425,\u4e1c\u8425","pinyin":"DongYing","lng":"118.582184","lat":"37.448963"},{"id":308157,"parent_id":308156,"level":3,"area_code":"370502001000","zip_code":"257045","city_code":"0546","name":"\u6587\u6c47\u8857\u9053\u529e\u4e8b\u5904","short_name":"\u6587\u6c47","merger_name":"\u5c71\u4e1c,\u4e1c\u8425,\u4e1c\u8425,\u6587\u6c47","pinyin":"WenHui","lng":"118.508880","lat":"37.469570"},{"id":308158,"parent_id":308157,"level":4,"area_code":"370502001011","zip_code":"257045","city_code":"0546","name":"\u4e1c\u8425\u793e\u533a\u5c45\u59d4\u4f1a","short_name":"\u4e1c\u8425","merger_name":"\u5c71\u4e1c,\u4e1c\u8425,\u4e1c\u8425,\u6587\u6c47,\u4e1c\u8425","pinyin":"DongYing","lng":"118.521610","lat":"37.472421"},{"id":308159,"parent_id":308157,"level":4,"area_code":"370502001012","zip_code":"257077","city_code":"0546","name":"\u5b98\u5c4b\u793e\u533a\u5c45\u59d4\u4f1a","short_name":"\u5b98\u5c4b","merger_name":"\u5c71\u4e1c,\u4e1c\u8425,\u4e1c\u8425,\u6587\u6c47,\u5b98\u5c4b","pinyin":"GuanWu","lng":"118.524020","lat":"37.515170"},{"id":308160,"parent_id":308157,"level":4,"area_code":"370502001013","zip_code":"257097","city_code":"0546","name":"\u4e2d\u738b\u5c4b\u793e\u533a\u5c45\u59d4\u4f1a","short_name":"\u4e2d\u738b\u5c4b","merger_name":"\u5c71\u4e1c,\u4e1c\u8425,\u4e1c\u8425,\u6587\u6c47,\u4e2d\u738b\u5c4b","pinyin":"ZhongWangWu","lng":"118.529950","lat":"37.463870"},{"id":308161,"parent_id":308157,"level":4,"area_code":"370502001014","zip_code":"257051","city_code":"0546","name":"\u5317\u674e\u5c4b\u793e\u533a\u5c45\u59d4\u4f1a","short_name":"\u5317\u674e\u5c4b","merger_name":"\u5c71\u4e1c,\u4e1c\u8425,\u4e1c\u8425,\u6587\u6c47,\u5317\u674e\u5c4b","pinyin":"BeiLiWu","lng":"118.524910","lat":"37.493940"},{"id":308162,"parent_id":308157,"level":4,"area_code":"370502001015","zip_code":"257045","city_code":"0546","name":"\u94f6\u5ea7\u82b1\u56ed\u5c45\u6c11\u59d4\u5458\u4f1a","short_name":"\u94f6\u5ea7\u82b1\u56ed\u5c45\u6c11\u59d4\u5458\u4f1a","merger_name":"\u5c71\u4e1c,\u4e1c\u8425,\u4e1c\u8425,\u6587\u6c47,\u94f6\u5ea7\u82b1\u56ed\u5c45\u6c11\u59d4\u5458\u4f1a","pinyin":"YinZuoHuaYuanJuMinWeiYuanHui","lng":"118.527220","lat":"37.463630"},{"id":308163,"parent_id":308157,"level":4,"area_code":"370502001016","zip_code":"257045","city_code":"0546","name":"\u80b2\u65b0\u82b1\u56ed\u5c45\u6c11\u59d4\u5458\u4f1a","short_name":"\u80b2\u65b0\u82b1\u56ed\u5c45\u6c11\u59d4\u5458\u4f1a","merger_name":"\u5c71\u4e1c,\u4e1c\u8425,\u4e1c\u8425,\u6587\u6c47,\u80b2\u65b0\u82b1\u56ed\u5c45\u6c11\u59d4\u5458\u4f1a","pinyin":"YuXinHuaYuanJuMinWeiYuanHui","lng":"118.528740","lat":"37.456020"},{"id":308164,"parent_id":308157,"level":4,"area_code":"370502001017","zip_code":"257045","city_code":"0546","name":"\u4e07\u5bb6\u65b0\u57ce\u5c45\u6c11\u59d4\u5458\u4f1a","short_name":"\u4e07\u5bb6\u65b0\u57ce\u5c45\u6c11\u59d4\u5458\u4f1a","merger_name":"\u5c71\u4e1c,\u4e1c\u8425,\u4e1c\u8425,\u6587\u6c47,\u4e07\u5bb6\u65b0\u57ce\u5c45\u6c11\u59d4\u5458\u4f1a","pinyin":"WanJiaXinChengJuMinWeiYuanHui","lng":"118.521250","lat":"37.482440"},{"id":308165,"parent_id":308157,"level":4,"area_code":"370502001018","zip_code":"257045","city_code":"0546","name":"\u80dc\u5b89\u5357\u533a\u5c45\u59d4\u4f1a","short_name":"\u80dc\u5b89\u5357\u533a","merger_name":"\u5c71\u4e1c,\u4e1c\u8425,\u4e1c\u8425,\u6587\u6c47,\u80dc\u5b89\u5357\u533a","pinyin":"ShengAnNanQu","lng":"118.517484","lat":"37.485517"},{"id":308166,"parent_id":308157,"level":4,"area_code":"370502001019","zip_code":"257045","city_code":"0546","name":"\u80dc\u5b89\u5c0f\u533a\u5c45\u6c11\u59d4\u5458\u4f1a","short_name":"\u80dc\u5b89\u5c0f\u533a\u5c45\u6c11\u59d4\u5458\u4f1a","merger_name":"\u5c71\u4e1c,\u4e1c\u8425,\u4e1c\u8425,\u6587\u6c47,\u80dc\u5b89\u5c0f\u533a\u5c45\u6c11\u59d4\u5458\u4f1a","pinyin":"ShengAnXiaoQuJuMinWeiYuanHui","lng":"118.511320","lat":"37.470520"},{"id":308167,"parent_id":308157,"level":4,"area_code":"370502001020","zip_code":"257045","city_code":"0546","name":"\u80dc\u5b89\u5317\u533a\u5c45\u6c11\u59d4\u5458\u4f1a","short_name":"\u80dc\u5b89\u5317\u533a\u5c45\u6c11\u59d4\u5458\u4f1a","merger_name":"\u5c71\u4e1c,\u4e1c\u8425,\u4e1c\u8425,\u6587\u6c47,\u80dc\u5b89\u5317\u533a\u5c45\u6c11\u59d4\u5458\u4f1a","pinyin":"ShengAnBeiQuJuMinWeiYuanHui","lng":"118.508880","lat":"37.469570"},{"id":308168,"parent_id":308157,"level":4,"area_code":"370502001021","zip_code":"257045","city_code":"0546","name":"\u9752\u534e\u5c45\u6c11\u59d4\u5458\u4f1a","short_name":"\u9752\u534e\u5c45\u6c11\u59d4\u5458\u4f1a","merger_name":"\u5c71\u4e1c,\u4e1c\u8425,\u4e1c\u8425,\u6587\u6c47,\u9752\u534e\u5c45\u6c11\u59d4\u5458\u4f1a","pinyin":"QingHuaJuMinWeiYuanHui","lng":"118.535220","lat":"37.459710"},{"id":308169,"parent_id":308157,"level":4,"area_code":"370502001022","zip_code":"257045","city_code":"0546","name":"\u5bcc\u56ed\u5c45\u6c11\u59d4\u5458\u4f1a","short_name":"\u5bcc\u56ed\u5c45\u6c11\u59d4\u5458\u4f1a","merger_name":"\u5c71\u4e1c,\u4e1c\u8425,\u4e1c\u8425,\u6587\u6c47,\u5bcc\u56ed\u5c45\u6c11\u59d4\u5458\u4f1a","pinyin":"FuYuanJuMinWeiYuanHui","lng":"118.508880","lat":"37.469570"},{"id":308170,"parent_id":308157,"level":4,"area_code":"370502001023","zip_code":"257045","city_code":"0546","name":"\u5d69\u4e1c\u5c45\u6c11\u59d4\u5458\u4f1a","short_name":"\u5d69\u4e1c\u5c45\u6c11\u59d4\u5458\u4f1a","merger_name":"\u5c71\u4e1c,\u4e1c\u8425,\u4e1c\u8425,\u6587\u6c47,\u5d69\u4e1c\u5c45\u6c11\u59d4\u5458\u4f1a","pinyin":"SongDongJuMinWeiYuanHui","lng":"118.527220","lat":"37.463630"},{"id":308171,"parent_id":308157,"level":4,"area_code":"370502001024","zip_code":"257045","city_code":"0546","name":"\u5d69\u897f\u5c45\u6c11\u59d4\u5458\u4f1a","short_name":"\u5d69\u897f\u5c45\u6c11\u59d4\u5458\u4f1a","merger_name":"\u5c71\u4e1c,\u4e1c\u8425,\u4e1c\u8425,\u6587\u6c47,\u5d69\u897f\u5c45\u6c11\u59d4\u5458\u4f1a","pinyin":"SongXiJuMinWeiYuanHui","lng":"118.511320","lat":"37.470520"},{"id":308172,"parent_id":308157,"level":4,"area_code":"370502001025","zip_code":"257045","city_code":"0546","name":"\u7f8e\u6ee8\u5c45\u6c11\u59d4\u5458\u4f1a","short_name":"\u7f8e\u6ee8\u5c45\u6c11\u59d4\u5458\u4f1a","merger_name":"\u5c71\u4e1c,\u4e1c\u8425,\u4e1c\u8425,\u6587\u6c47,\u7f8e\u6ee8\u5c45\u6c11\u59d4\u5458\u4f1a","pinyin":"MeiBinJuMinWeiYuanHui","lng":"118.527220","lat":"37.463630"},{"id":308173,"parent_id":308157,"level":4,"area_code":"370502001026","zip_code":"257045","city_code":"0546","name":"\u5929\u7c41\u534e\u90fd\u5c45\u6c11\u59d4\u5458\u4f1a","short_name":"\u5929\u7c41\u534e\u90fd\u5c45\u6c11\u59d4\u5458\u4f1a","merger_name":"\u5c71\u4e1c,\u4e1c\u8425,\u4e1c\u8425,\u6587\u6c47,\u5929\u7c41\u534e\u90fd\u5c45\u6c11\u59d4\u5458\u4f1a","pinyin":"TianLaiHuaDouJuMinWeiYuanHui","lng":"118.693460","lat":"37.419080"},{"id":308174,"parent_id":308157,"level":4,"area_code":"370502001200","zip_code":"257061","city_code":"0546","name":"\u5317\u738b\u5c4b\u6751\u59d4\u4f1a","short_name":"\u5317\u738b\u5c4b","merger_name":"\u5c71\u4e1c,\u4e1c\u8425,\u4e1c\u8425,\u6587\u6c47,\u5317\u738b\u5c4b","pinyin":"BeiWangWu","lng":"118.547837","lat":"37.471395"},{"id":308175,"parent_id":308156,"level":3,"area_code":"370502002000","zip_code":"257067","city_code":"0546","name":"\u9ec4\u6cb3\u8def\u8857\u9053\u529e\u4e8b\u5904","short_name":"\u9ec4\u6cb3\u8def","merger_name":"\u5c71\u4e1c,\u4e1c\u8425,\u4e1c\u8425,\u9ec4\u6cb3\u8def","pinyin":"HuangHeLu","lng":"118.520780","lat":"37.428070"},{"id":308176,"parent_id":308175,"level":4,"area_code":"370502002002","zip_code":"257088","city_code":"0546","name":"\u5357\u738b\u5c4b\u793e\u533a\u5c45\u59d4\u4f1a","short_name":"\u5357\u738b\u5c4b","merger_name":"\u5c71\u4e1c,\u4e1c\u8425,\u4e1c\u8425,\u9ec4\u6cb3\u8def,\u5357\u738b\u5c4b","pinyin":"NanWangWu","lng":"118.519560","lat":"37.449820"},{"id":308177,"parent_id":308175,"level":4,"area_code":"370502002004","zip_code":"257068","city_code":"0546","name":"\u5357\u674e\u793e\u533a\u5c45\u59d4\u4f1a","short_name":"\u5357\u674e","merger_name":"\u5c71\u4e1c,\u4e1c\u8425,\u4e1c\u8425,\u9ec4\u6cb3\u8def,\u5357\u674e","pinyin":"NanLi","lng":"118.512914","lat":"37.431366"},{"id":308178,"parent_id":308175,"level":4,"area_code":"370502002008","zip_code":"257067","city_code":"0546","name":"\u4e30\u6cfd\u5c45\u59d4\u4f1a","short_name":"\u4e30\u6cfd","merger_name":"\u5c71\u4e1c,\u4e1c\u8425,\u4e1c\u8425,\u9ec4\u6cb3\u8def,\u4e30\u6cfd","pinyin":"FengZe","lng":"118.496100","lat":"37.435460"},{"id":308179,"parent_id":308175,"level":4,"area_code":"370502002012","zip_code":"257067","city_code":"0546","name":"\u5e7f\u5229\u6e2f\u5c45\u59d4\u4f1a","short_name":"\u5e7f\u5229\u6e2f","merger_name":"\u5c71\u4e1c,\u4e1c\u8425,\u4e1c\u8425,\u9ec4\u6cb3\u8def,\u5e7f\u5229\u6e2f","pinyin":"GuangLiGang","lng":"118.844040","lat":"37.405680"},{"id":308180,"parent_id":308175,"level":4,"area_code":"370502002013","zip_code":"257081","city_code":"0546","name":"\u4e1c\u5347\u5c45\u59d4\u4f1a","short_name":"\u4e1c\u5347","merger_name":"\u5c71\u4e1c,\u4e1c\u8425,\u4e1c\u8425,\u9ec4\u6cb3\u8def,\u4e1c\u5347","pinyin":"DongSheng","lng":"118.606430","lat":"37.245500"},{"id":308181,"parent_id":308175,"level":4,"area_code":"370502002014","zip_code":"257067","city_code":"0546","name":"\u5efa\u884c\u5c45\u59d4\u4f1a","short_name":"\u5efa\u884c","merger_name":"\u5c71\u4e1c,\u4e1c\u8425,\u4e1c\u8425,\u9ec4\u6cb3\u8def,\u5efa\u884c","pinyin":"JianHang","lng":"118.521010","lat":"37.451500"},{"id":308182,"parent_id":308175,"level":4,"area_code":"370502002015","zip_code":"257067","city_code":"0546","name":"\u94f6\u901a\u5c45\u59d4\u4f1a","short_name":"\u94f6\u901a","merger_name":"\u5c71\u4e1c,\u4e1c\u8425,\u4e1c\u8425,\u9ec4\u6cb3\u8def,\u94f6\u901a","pinyin":"YinTong","lng":"118.606828","lat":"37.245826"},{"id":308183,"parent_id":308175,"level":4,"area_code":"370502002016","zip_code":"257088","city_code":"0546","name":"\u71d5\u5c71\u5c45\u59d4\u4f1a","short_name":"\u71d5\u5c71","merger_name":"\u5c71\u4e1c,\u4e1c\u8425,\u4e1c\u8425,\u9ec4\u6cb3\u8def,\u71d5\u5c71","pinyin":"YanShan","lng":"118.513832","lat":"37.444147"},{"id":308184,"parent_id":308175,"level":4,"area_code":"370502002017","zip_code":"257088","city_code":"0546","name":"\u4e00\u54c1\u82b1\u56ed\u5c45\u59d4\u4f1a","short_name":"\u4e00\u54c1\u82b1\u56ed","merger_name":"\u5c71\u4e1c,\u4e1c\u8425,\u4e1c\u8425,\u9ec4\u6cb3\u8def,\u4e00\u54c1\u82b1\u56ed","pinyin":"YiPinHuaYuan","lng":"118.512380","lat":"37.445400"},{"id":308185,"parent_id":308175,"level":4,"area_code":"370502002018","zip_code":"257088","city_code":"0546","name":"\u91d1\u6cb3\u5c45\u59d4\u4f1a","short_name":"\u91d1\u6cb3","merger_name":"\u5c71\u4e1c,\u4e1c\u8425,\u4e1c\u8425,\u9ec4\u6cb3\u8def,\u91d1\u6cb3","pinyin":"JinHe","lng":"118.513832","lat":"37.444147"},{"id":308186,"parent_id":308175,"level":4,"area_code":"370502002020","zip_code":"257067","city_code":"0546","name":"\u65f6\u4ee3\u5eb7\u6865\u5c45\u59d4\u4f1a","short_name":"\u65f6\u4ee3\u5eb7\u6865","merger_name":"\u5c71\u4e1c,\u4e1c\u8425,\u4e1c\u8425,\u9ec4\u6cb3\u8def,\u65f6\u4ee3\u5eb7\u6865","pinyin":"ShiDaiKangQiao","lng":"118.496020","lat":"37.488560"},{"id":308187,"parent_id":308175,"level":4,"area_code":"370502002021","zip_code":"257067","city_code":"0546","name":"\u60e0\u90fd\u5c45\u59d4\u4f1a","short_name":"\u60e0\u90fd","merger_name":"\u5c71\u4e1c,\u4e1c\u8425,\u4e1c\u8425,\u9ec4\u6cb3\u8def,\u60e0\u90fd","pinyin":"HuiDou","lng":"118.520780","lat":"37.428070"},{"id":308188,"parent_id":308175,"level":4,"area_code":"370502002022","zip_code":"257067","city_code":"0546","name":"\u6d77\u4fe1\u76c8\u57ce\u5c45\u59d4\u4f1a","short_name":"\u6d77\u4fe1\u76c8\u57ce","merger_name":"\u5c71\u4e1c,\u4e1c\u8425,\u4e1c\u8425,\u9ec4\u6cb3\u8def,\u6d77\u4fe1\u76c8\u57ce","pinyin":"HaiXinYingCheng","lng":"118.496020","lat":"37.488560"},{"id":308189,"parent_id":308175,"level":4,"area_code":"370502002023","zip_code":"257067","city_code":"0546","name":"\u683c\u6797\u98ce\u666f\u5c45\u59d4\u4f1a","short_name":"\u683c\u6797\u98ce\u666f","merger_name":"\u5c71\u4e1c,\u4e1c\u8425,\u4e1c\u8425,\u9ec4\u6cb3\u8def,\u683c\u6797\u98ce\u666f","pinyin":"GeLinFengJing","lng":"118.496020","lat":"37.488560"},{"id":308190,"parent_id":308175,"level":4,"area_code":"370502002024","zip_code":"257067","city_code":"0546","name":"\u9ec4\u6cb3\u673a\u5173\u5c45\u59d4\u4f1a","short_name":"\u9ec4\u6cb3\u673a\u5173","merger_name":"\u5c71\u4e1c,\u4e1c\u8425,\u4e1c\u8425,\u9ec4\u6cb3\u8def,\u9ec4\u6cb3\u673a\u5173","pinyin":"HuangHeJiGuan","lng":"118.520199","lat":"37.428212"},{"id":308191,"parent_id":308175,"level":4,"area_code":"370502002026","zip_code":"257061","city_code":"0546","name":"\u4e1c\u8d75\u793e\u533a\u5c45\u6c11\u59d4\u5458\u4f1a","short_name":"\u4e1c\u8d75","merger_name":"\u5c71\u4e1c,\u4e1c\u8425,\u4e1c\u8425,\u9ec4\u6cb3\u8def,\u4e1c\u8d75","pinyin":"DongZhao","lng":"118.528870","lat":"37.456740"},{"id":308192,"parent_id":308175,"level":4,"area_code":"370502002027","zip_code":"257061","city_code":"0546","name":"\u76db\u4e16\u9f99\u57ce\u793e\u533a\u5c45\u6c11\u59d4\u5458\u4f1a","short_name":"\u76db\u4e16\u9f99\u57ce","merger_name":"\u5c71\u4e1c,\u4e1c\u8425,\u4e1c\u8425,\u9ec4\u6cb3\u8def,\u76db\u4e16\u9f99\u57ce","pinyin":"ShengShiLongCheng","lng":"118.488915","lat":"37.179800"},{"id":308193,"parent_id":308175,"level":4,"area_code":"370502002028","zip_code":"257067","city_code":"0546","name":"\u4e07\u5409\u5bb6\u56ed\u793e\u533a\u5c45\u6c11\u59d4\u5458\u4f1a","short_name":"\u4e07\u5409\u5bb6\u56ed","merger_name":"\u5c71\u4e1c,\u4e1c\u8425,\u4e1c\u8425,\u9ec4\u6cb3\u8def,\u4e07\u5409\u5bb6\u56ed","pinyin":"WanJiJiaYuan","lng":"118.497100","lat":"37.444200"},{"id":308194,"parent_id":308175,"level":4,"area_code":"370502002029","zip_code":"257067","city_code":"0546","name":"\u77f3\u5927\u82b1\u56ed\u793e\u533a\u5c45\u6c11\u59d4\u5458\u4f1a","short_name":"\u77f3\u5927\u82b1\u56ed","merger_name":"\u5c71\u4e1c,\u4e1c\u8425,\u4e1c\u8425,\u9ec4\u6cb3\u8def,\u77f3\u5927\u82b1\u56ed","pinyin":"ShiDaHuaYuan","lng":"118.567240","lat":"37.201680"},{"id":308195,"parent_id":308175,"level":4,"area_code":"370502002201","zip_code":"257068","city_code":"0546","name":"\u803f\u4e95\u6751\u59d4\u4f1a","short_name":"\u803f\u4e95","merger_name":"\u5c71\u4e1c,\u4e1c\u8425,\u4e1c\u8425,\u9ec4\u6cb3\u8def,\u803f\u4e95","pinyin":"GengJing","lng":"118.523572","lat":"37.429111"},{"id":308196,"parent_id":308175,"level":4,"area_code":"370502002202","zip_code":"257067","city_code":"0546","name":"\u666f\u5c4b\u6751\u59d4\u4f1a","short_name":"\u666f\u5c4b","merger_name":"\u5c71\u4e1c,\u4e1c\u8425,\u4e1c\u8425,\u9ec4\u6cb3\u8def,\u666f\u5c4b","pinyin":"JingWu","lng":"118.500720","lat":"37.402600"},{"id":308197,"parent_id":308175,"level":4,"area_code":"370502002207","zip_code":"257087","city_code":"0546","name":"\u4e07\u6cc9\u6751\u59d4\u4f1a","short_name":"\u4e07\u6cc9","merger_name":"\u5c71\u4e1c,\u4e1c\u8425,\u4e1c\u8425,\u9ec4\u6cb3\u8def,\u4e07\u6cc9","pinyin":"WanQuan","lng":"118.522610","lat":"37.406390"},{"id":308198,"parent_id":308156,"level":3,"area_code":"370502003000","zip_code":"257091","city_code":"0546","name":"\u4e1c\u57ce\u8857\u9053\u529e\u4e8b\u5904","short_name":"\u4e1c\u57ce","merger_name":"\u5c71\u4e1c,\u4e1c\u8425,\u4e1c\u8425,\u4e1c\u57ce","pinyin":"DongCheng","lng":"118.660170","lat":"37.449980"},{"id":308199,"parent_id":308198,"level":4,"area_code":"370502003001","zip_code":"257091","city_code":"0546","name":"\u5e9c\u524d\u5c45\u59d4\u4f1a","short_name":"\u5e9c\u524d","merger_name":"\u5c71\u4e1c,\u4e1c\u8425,\u4e1c\u8425,\u4e1c\u57ce,\u5e9c\u524d","pinyin":"FuQian","lng":"118.671310","lat":"37.431070"},{"id":308200,"parent_id":308198,"level":4,"area_code":"370502003002","zip_code":"257499","city_code":"0546","name":"\u6e05\u98ce\u5c45\u59d4\u4f1a","short_name":"\u6e05\u98ce","merger_name":"\u5c71\u4e1c,\u4e1c\u8425,\u4e1c\u8425,\u4e1c\u57ce,\u6e05\u98ce","pinyin":"QingFeng","lng":"118.670650","lat":"37.426060"},{"id":308201,"parent_id":308198,"level":4,"area_code":"370502003005","zip_code":"257091","city_code":"0546","name":"\u8fbd\u6cb3\u5c45\u59d4\u4f1a","short_name":"\u8fbd\u6cb3","merger_name":"\u5c71\u4e1c,\u4e1c\u8425,\u4e1c\u8425,\u4e1c\u57ce,\u8fbd\u6cb3","pinyin":"LiaoHe","lng":"118.655757","lat":"37.438876"},{"id":308202,"parent_id":308198,"level":4,"area_code":"370502003006","zip_code":"257399","city_code":"0546","name":"\u660e\u6708\u5c45\u59d4\u4f1a","short_name":"\u660e\u6708","merger_name":"\u5c71\u4e1c,\u4e1c\u8425,\u4e1c\u8425,\u4e1c\u57ce,\u660e\u6708","pinyin":"MingYue","lng":"118.658600","lat":"37.413270"},{"id":308203,"parent_id":308198,"level":4,"area_code":"370502003007","zip_code":"257091","city_code":"0546","name":"\u6c82\u5317\u5c45\u59d4\u4f1a","short_name":"\u6c82\u5317","merger_name":"\u5c71\u4e1c,\u4e1c\u8425,\u4e1c\u8425,\u4e1c\u57ce,\u6c82\u5317","pinyin":"YiBei","lng":"118.658715","lat":"37.418353"},{"id":308204,"parent_id":308198,"level":4,"area_code":"370502003012","zip_code":"257091","city_code":"0546","name":"\u6c99\u8425\u793e\u533a\u5c45\u59d4\u4f1a","short_name":"\u6c99\u8425","merger_name":"\u5c71\u4e1c,\u4e1c\u8425,\u4e1c\u8425,\u4e1c\u57ce,\u6c99\u8425","pinyin":"ShaYing","lng":"118.670650","lat":"37.426060"},{"id":308205,"parent_id":308198,"level":4,"area_code":"370502003016","zip_code":"257091","city_code":"0546","name":"\u5b89\u548c\u5c45\u59d4\u4f1a","short_name":"\u5b89\u548c","merger_name":"\u5c71\u4e1c,\u4e1c\u8425,\u4e1c\u8425,\u4e1c\u57ce,\u5b89\u548c","pinyin":"AnHe","lng":"118.658640","lat":"37.453970"},{"id":308206,"parent_id":308198,"level":4,"area_code":"370502003019","zip_code":"257091","city_code":"0546","name":"\u79d1\u8fbe\u5c45\u59d4\u4f1a","short_name":"\u79d1\u8fbe","merger_name":"\u5c71\u4e1c,\u4e1c\u8425,\u4e1c\u8425,\u4e1c\u57ce,\u79d1\u8fbe","pinyin":"KeDa","lng":"118.682530","lat":"37.452670"},{"id":308207,"parent_id":308198,"level":4,"area_code":"370502003021","zip_code":"257091","city_code":"0546","name":"\u5b89\u5b81\u793e\u533a\u5b89\u5b81\u4e1c\u533a\u5c45\u59d4\u4f1a","short_name":"\u5b89\u5b81\u793e\u533a\u5b89\u5b81\u4e1c\u533a","merger_name":"\u5c71\u4e1c,\u4e1c\u8425,\u4e1c\u8425,\u4e1c\u57ce,\u5b89\u5b81\u793e\u533a\u5b89\u5b81\u4e1c\u533a","pinyin":"AnNingSheQuAnNingDongQu","lng":"118.673610","lat":"37.446050"},{"id":308208,"parent_id":308198,"level":4,"area_code":"370502003022","zip_code":"257091","city_code":"0546","name":"\u5b89\u5b81\u793e\u533a\u5b89\u5b81\u897f\u533a\u5c45\u59d4\u4f1a","short_name":"\u5b89\u5b81\u793e\u533a\u5b89\u5b81\u897f\u533a","merger_name":"\u5c71\u4e1c,\u4e1c\u8425,\u4e1c\u8425,\u4e1c\u57ce,\u5b89\u5b81\u793e\u533a\u5b89\u5b81\u897f\u533a","pinyin":"AnNingSheQuAnNingXiQu","lng":"118.673610","lat":"37.446050"},{"id":308209,"parent_id":308198,"level":4,"area_code":"370502003023","zip_code":"257091","city_code":"0546","name":"\u5b89\u5b81\u793e\u533a\u5b89\u5b81\u5317\u533a\u5c45\u59d4\u4f1a","short_name":"\u5b89\u5b81\u793e\u533a\u5b89\u5b81\u5317\u533a","merger_name":"\u5c71\u4e1c,\u4e1c\u8425,\u4e1c\u8425,\u4e1c\u57ce,\u5b89\u5b81\u793e\u533a\u5b89\u5b81\u5317\u533a","pinyin":"AnNingSheQuAnNingBeiQu","lng":"118.658715","lat":"37.418353"},{"id":308210,"parent_id":308198,"level":4,"area_code":"370502003024","zip_code":"257091","city_code":"0546","name":"\u5b89\u6167\u897f\u533a\u5c45\u59d4\u4f1a","short_name":"\u5b89\u6167\u897f\u533a","merger_name":"\u5c71\u4e1c,\u4e1c\u8425,\u4e1c\u8425,\u4e1c\u57ce,\u5b89\u6167\u897f\u533a","pinyin":"AnHuiXiQu","lng":"118.670650","lat":"37.426060"},{"id":308211,"parent_id":308198,"level":4,"area_code":"370502003025","zip_code":"257091","city_code":"0546","name":"\u5b89\u6167\u5357\u533a\u5c45\u59d4\u4f1a","short_name":"\u5b89\u6167\u5357\u533a","merger_name":"\u5c71\u4e1c,\u4e1c\u8425,\u4e1c\u8425,\u4e1c\u57ce,\u5b89\u6167\u5357\u533a","pinyin":"AnHuiNanQu","lng":"118.670650","lat":"37.426060"},{"id":308212,"parent_id":308198,"level":4,"area_code":"370502003026","zip_code":"257091","city_code":"0546","name":"\u5b89\u6cf0\u5357\u533a\u5c45\u59d4\u4f1a","short_name":"\u5b89\u6cf0\u5357\u533a","merger_name":"\u5c71\u4e1c,\u4e1c\u8425,\u4e1c\u8425,\u4e1c\u57ce,\u5b89\u6cf0\u5357\u533a","pinyin":"AnTaiNanQu","lng":"118.670650","lat":"37.426060"},{"id":308213,"parent_id":308198,"level":4,"area_code":"370502003027","zip_code":"257091","city_code":"0546","name":"\u5b89\u6cf0\u5317\u533a\u5c45\u59d4\u4f1a","short_name":"\u5b89\u6cf0\u5317\u533a","merger_name":"\u5c71\u4e1c,\u4e1c\u8425,\u4e1c\u8425,\u4e1c\u57ce,\u5b89\u6cf0\u5317\u533a","pinyin":"AnTaiBeiQu","lng":"118.678030","lat":"37.448040"},{"id":308214,"parent_id":308198,"level":4,"area_code":"370502003028","zip_code":"257091","city_code":"0546","name":"\u5929\u9e45\u82b1\u56ed\u5c45\u59d4\u4f1a","short_name":"\u5929\u9e45\u82b1\u56ed","merger_name":"\u5c71\u4e1c,\u4e1c\u8425,\u4e1c\u8425,\u4e1c\u57ce,\u5929\u9e45\u82b1\u56ed","pinyin":"TianEHuaYuan","lng":"118.658715","lat":"37.418353"},{"id":308215,"parent_id":308198,"level":4,"area_code":"370502003029","zip_code":"257091","city_code":"0546","name":"\u6c34\u57ce\u56fd\u9645\u5c45\u59d4\u4f1a","short_name":"\u6c34\u57ce\u56fd\u9645","merger_name":"\u5c71\u4e1c,\u4e1c\u8425,\u4e1c\u8425,\u4e1c\u57ce,\u6c34\u57ce\u56fd\u9645","pinyin":"ShuiChengGuoJi","lng":"118.655351","lat":"37.445987"},{"id":308216,"parent_id":308198,"level":4,"area_code":"370502003030","zip_code":"257091","city_code":"0546","name":"\u5b89\u76db\u5357\u533a\u5c45\u59d4\u4f1a","short_name":"\u5b89\u76db\u5357\u533a","merger_name":"\u5c71\u4e1c,\u4e1c\u8425,\u4e1c\u8425,\u4e1c\u57ce,\u5b89\u76db\u5357\u533a","pinyin":"AnShengNanQu","lng":"118.681690","lat":"37.449780"},{"id":308217,"parent_id":308198,"level":4,"area_code":"370502003031","zip_code":"257091","city_code":"0546","name":"\u5b89\u76db\u5317\u533a\u5c45\u59d4\u4f1a","short_name":"\u5b89\u76db\u5317\u533a","merger_name":"\u5c71\u4e1c,\u4e1c\u8425,\u4e1c\u8425,\u4e1c\u57ce,\u5b89\u76db\u5317\u533a","pinyin":"AnShengBeiQu","lng":"118.681690","lat":"37.449780"},{"id":308218,"parent_id":308198,"level":4,"area_code":"370502003032","zip_code":"257091","city_code":"0546","name":"\u5b89\u5174\u5357\u533a\u5c45\u59d4\u4f1a","short_name":"\u5b89\u5174\u5357\u533a","merger_name":"\u5c71\u4e1c,\u4e1c\u8425,\u4e1c\u8425,\u4e1c\u57ce,\u5b89\u5174\u5357\u533a","pinyin":"AnXingNanQu","lng":"118.678030","lat":"37.448040"},{"id":308219,"parent_id":308198,"level":4,"area_code":"370502003033","zip_code":"257091","city_code":"0546","name":"\u5b89\u5174\u5317\u533a\u5c45\u59d4\u4f1a","short_name":"\u5b89\u5174\u5317\u533a","merger_name":"\u5c71\u4e1c,\u4e1c\u8425,\u4e1c\u8425,\u4e1c\u57ce,\u5b89\u5174\u5317\u533a","pinyin":"AnXingBeiQu","lng":"118.678030","lat":"37.448040"},{"id":308220,"parent_id":308198,"level":4,"area_code":"370502003034","zip_code":"257091","city_code":"0546","name":"\u6d77\u6cb3\u5357\u533a\u5c45\u59d4\u4f1a","short_name":"\u6d77\u6cb3\u5357\u533a","merger_name":"\u5c71\u4e1c,\u4e1c\u8425,\u4e1c\u8425,\u4e1c\u57ce,\u6d77\u6cb3\u5357\u533a","pinyin":"HaiHeNanQu","lng":"118.655757","lat":"37.438876"},{"id":308221,"parent_id":308198,"level":4,"area_code":"370502003035","zip_code":"257091","city_code":"0546","name":"\u6d77\u6cb3\u5317\u533a\u5c45\u59d4\u4f1a","short_name":"\u6d77\u6cb3\u5317\u533a","merger_name":"\u5c71\u4e1c,\u4e1c\u8425,\u4e1c\u8425,\u4e1c\u57ce,\u6d77\u6cb3\u5317\u533a","pinyin":"HaiHeBeiQu","lng":"118.496020","lat":"37.488560"},{"id":308222,"parent_id":308198,"level":4,"area_code":"370502003036","zip_code":"257091","city_code":"0546","name":"\u8f89\u714c\u5e84\u56ed\u5c45\u59d4\u4f1a","short_name":"\u8f89\u714c\u5e84\u56ed","merger_name":"\u5c71\u4e1c,\u4e1c\u8425,\u4e1c\u8425,\u4e1c\u57ce,\u8f89\u714c\u5e84\u56ed","pinyin":"HuiHuangZhuangYuan","lng":"118.658715","lat":"37.418353"},{"id":308223,"parent_id":308198,"level":4,"area_code":"370502003037","zip_code":"257091","city_code":"0546","name":"\u6021\u548c\u5c45\u59d4\u4f1a","short_name":"\u6021\u548c","merger_name":"\u5c71\u4e1c,\u4e1c\u8425,\u4e1c\u8425,\u4e1c\u57ce,\u6021\u548c","pinyin":"YiHe","lng":"118.649080","lat":"37.418580"},{"id":308224,"parent_id":308198,"level":4,"area_code":"370502003038","zip_code":"257091","city_code":"0546","name":"\u91d1\u7ff0\u5bb6\u56ed\u5c45\u59d4\u4f1a","short_name":"\u91d1\u7ff0\u5bb6\u56ed","merger_name":"\u5c71\u4e1c,\u4e1c\u8425,\u4e1c\u8425,\u4e1c\u57ce,\u91d1\u7ff0\u5bb6\u56ed","pinyin":"JinHanJiaYuan","lng":"118.655757","lat":"37.438876"},{"id":308225,"parent_id":308198,"level":4,"area_code":"370502003039","zip_code":"257091","city_code":"0546","name":"\u91d1\u878d\u5c45\u59d4\u4f1a","short_name":"\u91d1\u878d","merger_name":"\u5c71\u4e1c,\u4e1c\u8425,\u4e1c\u8425,\u4e1c\u57ce,\u91d1\u878d","pinyin":"JinRong","lng":"118.635954","lat":"37.431871"},{"id":308226,"parent_id":308198,"level":4,"area_code":"370502003040","zip_code":"257091","city_code":"0546","name":"\u60e0\u5dde\u5c45\u59d4\u4f1a","short_name":"\u60e0\u5dde","merger_name":"\u5c71\u4e1c,\u4e1c\u8425,\u4e1c\u8425,\u4e1c\u57ce,\u60e0\u5dde","pinyin":"HuiZhou","lng":"118.640720","lat":"37.435640"},{"id":308227,"parent_id":308198,"level":4,"area_code":"370502003041","zip_code":"257091","city_code":"0546","name":"\u65b0\u65b0\u5bb6\u56ed\u5c45\u59d4\u4f1a","short_name":"\u65b0\u65b0\u5bb6\u56ed","merger_name":"\u5c71\u4e1c,\u4e1c\u8425,\u4e1c\u8425,\u4e1c\u57ce,\u65b0\u65b0\u5bb6\u56ed","pinyin":"XinXinJiaYuan","lng":"118.658715","lat":"37.418353"},{"id":308228,"parent_id":308198,"level":4,"area_code":"370502003042","zip_code":"257091","city_code":"0546","name":"\u5929\u6c34\u5c45\u59d4\u4f1a","short_name":"\u5929\u6c34","merger_name":"\u5c71\u4e1c,\u4e1c\u8425,\u4e1c\u8425,\u4e1c\u57ce,\u5929\u6c34","pinyin":"TianShui","lng":"118.517484","lat":"37.485517"},{"id":308229,"parent_id":308198,"level":4,"area_code":"370502003043","zip_code":"257091","city_code":"0546","name":"\u660e\u6708\u793e\u533a\u6d77\u4e3d\u56ed\u5c45\u59d4\u4f1a","short_name":"\u660e\u6708\u793e\u533a\u6d77\u4e3d\u56ed","merger_name":"\u5c71\u4e1c,\u4e1c\u8425,\u4e1c\u8425,\u4e1c\u57ce,\u660e\u6708\u793e\u533a\u6d77\u4e3d\u56ed","pinyin":"MingYueSheQuHaiLiYuan","lng":"118.658600","lat":"37.413270"},{"id":308230,"parent_id":308198,"level":4,"area_code":"370502003044","zip_code":"257091","city_code":"0546","name":"\u660e\u6708\u793e\u533a\u4f1f\u6d69\u5fa1\u666f\u5c45\u59d4\u4f1a","short_name":"\u660e\u6708\u793e\u533a\u4f1f\u6d69\u5fa1\u666f","merger_name":"\u5c71\u4e1c,\u4e1c\u8425,\u4e1c\u8425,\u4e1c\u57ce,\u660e\u6708\u793e\u533a\u4f1f\u6d69\u5fa1\u666f","pinyin":"MingYueSheQuWeiHaoYuJing","lng":"118.658715","lat":"37.418353"},{"id":308231,"parent_id":308198,"level":4,"area_code":"370502003045","zip_code":"257091","city_code":"0546","name":"\u660e\u6708\u793e\u533a\u7389\u82d1\u5c45\u59d4\u4f1a","short_name":"\u660e\u6708\u793e\u533a\u7389\u82d1","merger_name":"\u5c71\u4e1c,\u4e1c\u8425,\u4e1c\u8425,\u4e1c\u57ce,\u660e\u6708\u793e\u533a\u7389\u82d1","pinyin":"MingYueSheQuYuYuan","lng":"118.520199","lat":"37.428212"},{"id":308232,"parent_id":308198,"level":4,"area_code":"370502003046","zip_code":"257091","city_code":"0546","name":"\u5e9c\u524d\u793e\u533a\u5929\u660a\u6885\u56ed\u5c45\u59d4\u4f1a","short_name":"\u5e9c\u524d\u793e\u533a\u5929\u660a\u6885\u56ed","merger_name":"\u5c71\u4e1c,\u4e1c\u8425,\u4e1c\u8425,\u4e1c\u57ce,\u5e9c\u524d\u793e\u533a\u5929\u660a\u6885\u56ed","pinyin":"FuQianSheQuTianHaoMeiYuan","lng":"118.410030","lat":"37.058660"},{"id":308233,"parent_id":308198,"level":4,"area_code":"370502003047","zip_code":"257091","city_code":"0546","name":"\u5e9c\u524d\u793e\u533a\u660e\u4f73\u82b1\u56ed\u5c45\u59d4\u4f1a","short_name":"\u5e9c\u524d\u793e\u533a\u660e\u4f73\u82b1\u56ed","merger_name":"\u5c71\u4e1c,\u4e1c\u8425,\u4e1c\u8425,\u4e1c\u57ce,\u5e9c\u524d\u793e\u533a\u660e\u4f73\u82b1\u56ed","pinyin":"FuQianSheQuMingJiaHuaYuan","lng":"118.658715","lat":"37.418353"},{"id":308234,"parent_id":308198,"level":4,"area_code":"370502003048","zip_code":"257091","city_code":"0546","name":"\u5e9c\u524d\u793e\u533a\u9ec4\u6cb3\u82b1\u56ed\u5c45\u59d4\u4f1a","short_name":"\u5e9c\u524d\u793e\u533a\u9ec4\u6cb3\u82b1\u56ed","merger_name":"\u5c71\u4e1c,\u4e1c\u8425,\u4e1c\u8425,\u4e1c\u57ce,\u5e9c\u524d\u793e\u533a\u9ec4\u6cb3\u82b1\u56ed","pinyin":"FuQianSheQuHuangHeHuaYuan","lng":"118.658715","lat":"37.418353"},{"id":308235,"parent_id":308198,"level":4,"area_code":"370502003049","zip_code":"257091","city_code":"0546","name":"\u6587\u660c\u793e\u533a\u5929\u57ce\u5c45\u59d4\u4f1a","short_name":"\u6587\u660c\u793e\u533a\u5929\u57ce","merger_name":"\u5c71\u4e1c,\u4e1c\u8425,\u4e1c\u8425,\u4e1c\u57ce,\u6587\u660c\u793e\u533a\u5929\u57ce","pinyin":"WenChangSheQuTianCheng","lng":"118.645086","lat":"37.479094"},{"id":308236,"parent_id":308198,"level":4,"area_code":"370502003050","zip_code":"257091","city_code":"0546","name":"\u5546\u8d38\u57ce\u5c45\u6c11\u59d4\u5458\u4f1a","short_name":"\u5546\u8d38\u57ce\u5c45\u6c11\u59d4\u5458\u4f1a","merger_name":"\u5c71\u4e1c,\u4e1c\u8425,\u4e1c\u8425,\u4e1c\u57ce,\u5546\u8d38\u57ce\u5c45\u6c11\u59d4\u5458\u4f1a","pinyin":"ShangMaoChengJuMinWeiYuanHui","lng":"118.649480","lat":"37.434240"},{"id":308237,"parent_id":308198,"level":4,"area_code":"370502003051","zip_code":"257091","city_code":"0546","name":"\u4e16\u7eaa\u9526\u57ce\u5c45\u6c11\u59d4\u5458\u4f1a","short_name":"\u4e16\u7eaa\u9526\u57ce\u5c45\u6c11\u59d4\u5458\u4f1a","merger_name":"\u5c71\u4e1c,\u4e1c\u8425,\u4e1c\u8425,\u4e1c\u57ce,\u4e16\u7eaa\u9526\u57ce\u5c45\u6c11\u59d4\u5458\u4f1a","pinyin":"ShiJiJinChengJuMinWeiYuanHui","lng":"118.693460","lat":"37.419080"},{"id":308238,"parent_id":308156,"level":3,"area_code":"370502004000","zip_code":"257051","city_code":"0546","name":"\u8f9b\u5e97\u8857\u9053\u529e\u4e8b\u5904","short_name":"\u8f9b\u5e97","merger_name":"\u5c71\u4e1c,\u4e1c\u8425,\u4e1c\u8425,\u8f9b\u5e97","pinyin":"XinDian","lng":"118.490830","lat":"37.468500"},{"id":308239,"parent_id":308238,"level":4,"area_code":"370502004001","zip_code":"257051","city_code":"0546","name":"\u8f9b\u5e97\u793e\u533a\u5c45\u59d4\u4f1a","short_name":"\u8f9b\u5e97","merger_name":"\u5c71\u4e1c,\u4e1c\u8425,\u4e1c\u8425,\u8f9b\u5e97,\u8f9b\u5e97","pinyin":"XinDian","lng":"118.468055","lat":"37.469818"},{"id":308240,"parent_id":308238,"level":4,"area_code":"370502004002","zip_code":"257000","city_code":"0546","name":"\u5b59\u8def\u793e\u533a\u5c45\u59d4\u4f1a","short_name":"\u5b59\u8def","merger_name":"\u5c71\u4e1c,\u4e1c\u8425,\u4e1c\u8425,\u8f9b\u5e97,\u5b59\u8def","pinyin":"SunLu","lng":"118.473440","lat":"37.456550"},{"id":308241,"parent_id":308238,"level":4,"area_code":"370502004003","zip_code":"257081","city_code":"0546","name":"\u739b\u7405\u793e\u533a\u5c45\u59d4\u4f1a","short_name":"\u739b\u7405","merger_name":"\u5c71\u4e1c,\u4e1c\u8425,\u4e1c\u8425,\u8f9b\u5e97,\u739b\u7405","pinyin":"MaLang","lng":"118.483420","lat":"37.437330"},{"id":308242,"parent_id":308238,"level":4,"area_code":"370502004004","zip_code":"257081","city_code":"0546","name":"\u7682\u6237\u793e\u533a\u5c45\u59d4\u4f1a","short_name":"\u7682\u6237","merger_name":"\u5c71\u4e1c,\u4e1c\u8425,\u4e1c\u8425,\u8f9b\u5e97,\u7682\u6237","pinyin":"ZaoHu","lng":"118.468320","lat":"37.431600"},{"id":308243,"parent_id":308238,"level":4,"area_code":"370502004005","zip_code":"257000","city_code":"0546","name":"\u5317\u7530\u793e\u533a\u5c45\u59d4\u4f1a","short_name":"\u5317\u7530","merger_name":"\u5c71\u4e1c,\u4e1c\u8425,\u4e1c\u8425,\u8f9b\u5e97,\u5317\u7530","pinyin":"BeiTian","lng":"118.517484","lat":"37.485517"},{"id":308244,"parent_id":308238,"level":4,"area_code":"370502004006","zip_code":"257000","city_code":"0546","name":"\u59dc\u5bb6\u793e\u533a\u5c45\u59d4\u4f1a","short_name":"\u59dc\u5bb6","merger_name":"\u5c71\u4e1c,\u4e1c\u8425,\u4e1c\u8425,\u8f9b\u5e97,\u59dc\u5bb6","pinyin":"JiangJia","lng":"118.473440","lat":"37.456550"},{"id":308245,"parent_id":308238,"level":4,"area_code":"370502004007","zip_code":"257000","city_code":"0546","name":"\u5218\u5bb6\u793e\u533a\u5c45\u59d4\u4f1a","short_name":"\u5218\u5bb6","merger_name":"\u5c71\u4e1c,\u4e1c\u8425,\u4e1c\u8425,\u8f9b\u5e97,\u5218\u5bb6","pinyin":"LiuJia","lng":"118.475840","lat":"37.462400"},{"id":308246,"parent_id":308238,"level":4,"area_code":"370502004008","zip_code":"257000","city_code":"0546","name":"\u897f\u8425\u793e\u533a\u5c45\u59d4\u4f1a","short_name":"\u897f\u8425","merger_name":"\u5c71\u4e1c,\u4e1c\u8425,\u4e1c\u8425,\u8f9b\u5e97,\u897f\u8425","pinyin":"XiYing","lng":"118.517484","lat":"37.485517"},{"id":308247,"parent_id":308238,"level":4,"area_code":"370502004009","zip_code":"257000","city_code":"0546","name":"\u5357\u5e84\u793e\u533a\u5c45\u59d4\u4f1a","short_name":"\u5357\u5e84","merger_name":"\u5c71\u4e1c,\u4e1c\u8425,\u4e1c\u8425,\u8f9b\u5e97,\u5357\u5e84","pinyin":"NanZhuang","lng":"118.492110","lat":"37.474680"},{"id":308248,"parent_id":308238,"level":4,"area_code":"370502004010","zip_code":"257073","city_code":"0546","name":"\u7ea2\u536b\u793e\u533a\u5c45\u59d4\u4f1a","short_name":"\u7ea2\u536b","merger_name":"\u5c71\u4e1c,\u4e1c\u8425,\u4e1c\u8425,\u8f9b\u5e97,\u7ea2\u536b","pinyin":"HongWei","lng":"118.496270","lat":"37.502750"},{"id":308249,"parent_id":308238,"level":4,"area_code":"370502004014","zip_code":"257051","city_code":"0546","name":"\u745e\u82d1\u5c45\u59d4\u4f1a","short_name":"\u745e\u82d1","merger_name":"\u5c71\u4e1c,\u4e1c\u8425,\u4e1c\u8425,\u8f9b\u5e97,\u745e\u82d1","pinyin":"RuiYuan","lng":"118.472570","lat":"37.432260"},{"id":308250,"parent_id":308238,"level":4,"area_code":"370502004015","zip_code":"257051","city_code":"0546","name":"\u4e07\u946b\u5c45\u59d4\u4f1a","short_name":"\u4e07\u946b","merger_name":"\u5c71\u4e1c,\u4e1c\u8425,\u4e1c\u8425,\u8f9b\u5e97,\u4e07\u946b","pinyin":"WanXin","lng":"118.465260","lat":"37.460810"},{"id":308251,"parent_id":308238,"level":4,"area_code":"370502004016","zip_code":"257299","city_code":"0546","name":"\u5eb7\u82d1\u5c45\u59d4\u4f1a","short_name":"\u5eb7\u82d1","merger_name":"\u5c71\u4e1c,\u4e1c\u8425,\u4e1c\u8425,\u8f9b\u5e97,\u5eb7\u82d1","pinyin":"KangYuan","lng":"118.478130","lat":"37.459580"},{"id":308252,"parent_id":308238,"level":4,"area_code":"370502004017","zip_code":"257051","city_code":"0546","name":"\u4f73\u82d1\u5c45\u59d4\u4f1a","short_name":"\u4f73\u82d1","merger_name":"\u5c71\u4e1c,\u4e1c\u8425,\u4e1c\u8425,\u8f9b\u5e97,\u4f73\u82d1","pinyin":"JiaYuan","lng":"118.475370","lat":"37.469130"},{"id":308253,"parent_id":308238,"level":4,"area_code":"370502004018","zip_code":"257051","city_code":"0546","name":"\u4f73\u5174\u5c45\u59d4\u4f1a","short_name":"\u4f73\u5174","merger_name":"\u5c71\u4e1c,\u4e1c\u8425,\u4e1c\u8425,\u8f9b\u5e97,\u4f73\u5174","pinyin":"JiaXing","lng":"118.465260","lat":"37.460810"},{"id":308254,"parent_id":308238,"level":4,"area_code":"370502004019","zip_code":"257051","city_code":"0546","name":"\u745e\u548c\u5c45\u59d4\u4f1a","short_name":"\u745e\u548c","merger_name":"\u5c71\u4e1c,\u4e1c\u8425,\u4e1c\u8425,\u8f9b\u5e97,\u745e\u548c","pinyin":"RuiHe","lng":"118.491006","lat":"37.469968"},{"id":308255,"parent_id":308238,"level":4,"area_code":"370502004020","zip_code":"257051","city_code":"0546","name":"\u674f\u575b\u5c45\u59d4\u4f1a","short_name":"\u674f\u575b","merger_name":"\u5c71\u4e1c,\u4e1c\u8425,\u4e1c\u8425,\u8f9b\u5e97,\u674f\u575b","pinyin":"XingTan","lng":"118.496020","lat":"37.488560"},{"id":308256,"parent_id":308238,"level":4,"area_code":"370502004021","zip_code":"257051","city_code":"0546","name":"\u5174\u8363\u5c45\u59d4\u4f1a","short_name":"\u5174\u8363","merger_name":"\u5c71\u4e1c,\u4e1c\u8425,\u4e1c\u8425,\u8f9b\u5e97,\u5174\u8363","pinyin":"XingRong","lng":"118.241790","lat":"37.493950"},{"id":308257,"parent_id":308238,"level":4,"area_code":"370502004022","zip_code":"257051","city_code":"0546","name":"\u8f9b\u82d1\u5c45\u59d4\u4f1a","short_name":"\u8f9b\u82d1","merger_name":"\u5c71\u4e1c,\u4e1c\u8425,\u4e1c\u8425,\u8f9b\u5e97,\u8f9b\u82d1","pinyin":"XinYuan","lng":"118.475370","lat":"37.469130"},{"id":308258,"parent_id":308238,"level":4,"area_code":"370502004023","zip_code":"257091","city_code":"0546","name":"\u9633\u5149\u5c45\u59d4\u4f1a","short_name":"\u9633\u5149","merger_name":"\u5c71\u4e1c,\u4e1c\u8425,\u4e1c\u8425,\u8f9b\u5e97,\u9633\u5149","pinyin":"YangGuang","lng":"118.540547","lat":"37.463666"},{"id":308259,"parent_id":308238,"level":4,"area_code":"370502004201","zip_code":"257000","city_code":"0546","name":"\u54e8\u5934\u6751\u59d4\u4f1a","short_name":"\u54e8\u5934","merger_name":"\u5c71\u4e1c,\u4e1c\u8425,\u4e1c\u8425,\u8f9b\u5e97,\u54e8\u5934","pinyin":"ShaoTou","lng":"118.454820","lat":"37.486820"},{"id":308260,"parent_id":308238,"level":4,"area_code":"370502004202","zip_code":"257000","city_code":"0546","name":"\u5468\u5bb6\u6751\u59d4\u4f1a","short_name":"\u5468\u5bb6","merger_name":"\u5c71\u4e1c,\u4e1c\u8425,\u4e1c\u8425,\u8f9b\u5e97,\u5468\u5bb6","pinyin":"ZhouJia","lng":"118.522610","lat":"37.406390"},{"id":308261,"parent_id":308238,"level":4,"area_code":"370502004203","zip_code":"257051","city_code":"0546","name":"\u6210\u5be8\u6751\u59d4\u4f1a","short_name":"\u6210\u5be8","merger_name":"\u5c71\u4e1c,\u4e1c\u8425,\u4e1c\u8425,\u8f9b\u5e97,\u6210\u5be8","pinyin":"ChengZhai","lng":"118.449166","lat":"37.435817"},{"id":308262,"parent_id":308238,"level":4,"area_code":"370502004204","zip_code":"257051","city_code":"0546","name":"\u8336\u5761\u6751\u59d4\u4f1a","short_name":"\u8336\u5761","merger_name":"\u5c71\u4e1c,\u4e1c\u8425,\u4e1c\u8425,\u8f9b\u5e97,\u8336\u5761","pinyin":"ChaPo","lng":"118.480140","lat":"37.516680"},{"id":308263,"parent_id":308238,"level":4,"area_code":"370502004205","zip_code":"257051","city_code":"0546","name":"\u5510\u5bb6\u6751\u59d4\u4f1a","short_name":"\u5510\u5bb6","merger_name":"\u5c71\u4e1c,\u4e1c\u8425,\u4e1c\u8425,\u8f9b\u5e97,\u5510\u5bb6","pinyin":"TangJia","lng":"118.475370","lat":"37.469130"},{"id":308264,"parent_id":308238,"level":4,"area_code":"370502004206","zip_code":"257073","city_code":"0546","name":"\u8d75\u5bb6\u6751\u59d4\u4f1a","short_name":"\u8d75\u5bb6","merger_name":"\u5c71\u4e1c,\u4e1c\u8425,\u4e1c\u8425,\u8f9b\u5e97,\u8d75\u5bb6","pinyin":"ZhaoJia","lng":"118.480590","lat":"37.489170"},{"id":308265,"parent_id":308238,"level":4,"area_code":"370502004207","zip_code":"257000","city_code":"0546","name":"\u7acb\u65b0\u6751\u59d4\u4f1a","short_name":"\u7acb\u65b0","merger_name":"\u5c71\u4e1c,\u4e1c\u8425,\u4e1c\u8425,\u8f9b\u5e97,\u7acb\u65b0","pinyin":"LiXin","lng":"118.514200","lat":"37.462610"},{"id":308266,"parent_id":308238,"level":4,"area_code":"370502004208","zip_code":"257081","city_code":"0546","name":"\u524d\u8fdb\u6751\u59d4\u4f1a","short_name":"\u524d\u8fdb","merger_name":"\u5c71\u4e1c,\u4e1c\u8425,\u4e1c\u8425,\u8f9b\u5e97,\u524d\u8fdb","pinyin":"QianJin","lng":"118.461800","lat":"37.435310"},{"id":308267,"parent_id":308156,"level":3,"area_code":"370502005000","zip_code":"257055","city_code":"0546","name":"\u80dc\u5229\u8857\u9053\u529e\u4e8b\u5904","short_name":"\u80dc\u5229","merger_name":"\u5c71\u4e1c,\u4e1c\u8425,\u4e1c\u8425,\u80dc\u5229","pinyin":"ShengLi","lng":"118.638884","lat":"37.462539"},{"id":308268,"parent_id":308267,"level":4,"area_code":"370502005011","zip_code":"257055","city_code":"0546","name":"\u4e2d\u5c71\u793e\u533a\u65b0\u6cf0\u8def\u5c45\u59d4\u4f1a","short_name":"\u4e2d\u5c71\u793e\u533a\u65b0\u6cf0\u8def","merger_name":"\u5c71\u4e1c,\u4e1c\u8425,\u4e1c\u8425,\u80dc\u5229,\u4e2d\u5c71\u793e\u533a\u65b0\u6cf0\u8def","pinyin":"ZhongShanSheQuXinTaiLu","lng":"118.581894","lat":"37.453854"},{"id":308269,"parent_id":308267,"level":4,"area_code":"370502005019","zip_code":"257055","city_code":"0546","name":"\u4e2d\u5c71\u793e\u533a\u69df\u9999\u56ed\u5c45\u6c11\u59d4\u5458\u4f1a","short_name":"\u4e2d\u5c71\u69df\u9999\u56ed\u5c45\u6c11\u59d4\u5458\u4f1a","merger_name":"\u5c71\u4e1c,\u4e1c\u8425,\u4e1c\u8425,\u80dc\u5229,\u4e2d\u5c71\u69df\u9999\u56ed\u5c45\u6c11\u59d4\u5458\u4f1a","pinyin":"ZhongShanBinXiangYuanJuMinWeiY","lng":"118.530149","lat":"37.457134"},{"id":308270,"parent_id":308267,"level":4,"area_code":"370502005020","zip_code":"257055","city_code":"0546","name":"\u4e2d\u5c71\u793e\u533a\u7af9\u9999\u56ed\u5c45\u6c11\u59d4\u5458\u4f1a","short_name":"\u4e2d\u5c71\u7af9\u9999\u56ed\u5c45\u6c11\u59d4\u5458\u4f1a","merger_name":"\u5c71\u4e1c,\u4e1c\u8425,\u4e1c\u8425,\u80dc\u5229,\u4e2d\u5c71\u7af9\u9999\u56ed\u5c45\u6c11\u59d4\u5458\u4f1a","pinyin":"ZhongShanZhuXiangYuanJuMinWeiY","lng":"118.528740","lat":"37.456020"},{"id":308271,"parent_id":308267,"level":4,"area_code":"370502005021","zip_code":"257055","city_code":"0546","name":"\u4e2d\u5c71\u793e\u533a\u83ca\u9999\u56ed\u5c45\u6c11\u59d4\u5458\u4f1a","short_name":"\u4e2d\u5c71\u83ca\u9999\u56ed\u5c45\u6c11\u59d4\u5458\u4f1a","merger_name":"\u5c71\u4e1c,\u4e1c\u8425,\u4e1c\u8425,\u80dc\u5229,\u4e2d\u5c71\u83ca\u9999\u56ed\u5c45\u6c11\u59d4\u5458\u4f1a","pinyin":"ZhongShanJuXiangYuanJuMinWeiYu","lng":"118.528740","lat":"37.456020"},{"id":308272,"parent_id":308267,"level":4,"area_code":"370502005022","zip_code":"257055","city_code":"0546","name":"\u4e2d\u5c71\u793e\u533a\u69b4\u9999\u56ed\u5c45\u6c11\u59d4\u5458\u4f1a","short_name":"\u4e2d\u5c71\u69b4\u9999\u56ed\u5c45\u6c11\u59d4\u5458\u4f1a","merger_name":"\u5c71\u4e1c,\u4e1c\u8425,\u4e1c\u8425,\u80dc\u5229,\u4e2d\u5c71\u69b4\u9999\u56ed\u5c45\u6c11\u59d4\u5458\u4f1a","pinyin":"ZhongShanLiuXiangYuanJuMinWeiY","lng":"118.529140","lat":"37.456980"},{"id":308273,"parent_id":308267,"level":4,"area_code":"370502005023","zip_code":"257055","city_code":"0546","name":"\u4e2d\u5c71\u793e\u533a\u6a80\u9999\u56ed\u5c45\u6c11\u59d4\u5458\u4f1a","short_name":"\u4e2d\u5c71\u6a80\u9999\u56ed\u5c45\u6c11\u59d4\u5458\u4f1a","merger_name":"\u5c71\u4e1c,\u4e1c\u8425,\u4e1c\u8425,\u80dc\u5229,\u4e2d\u5c71\u6a80\u9999\u56ed\u5c45\u6c11\u59d4\u5458\u4f1a","pinyin":"ZhongShanTanXiangYuanJuMinWeiY","lng":"118.590236","lat":"37.450431"},{"id":308274,"parent_id":308267,"level":4,"area_code":"370502005024","zip_code":"257055","city_code":"0546","name":"\u65b0\u80dc\u793e\u533a\u80dc\u5927\u82b1\u56ed\u5c45\u6c11\u59d4\u5458\u4f1a","short_name":"\u65b0\u80dc\u80dc\u5927\u82b1\u56ed\u5c45\u6c11\u59d4\u5458\u4f1a","merger_name":"\u5c71\u4e1c,\u4e1c\u8425,\u4e1c\u8425,\u80dc\u5229,\u65b0\u80dc\u80dc\u5927\u82b1\u56ed\u5c45\u6c11\u59d4\u5458\u4f1a","pinyin":"XinShengShengDaHuaYuanJuMinWei","lng":"118.637090","lat":"37.465480"},{"id":308275,"parent_id":308267,"level":4,"area_code":"370502005025","zip_code":"257055","city_code":"0546","name":"\u65b0\u80dc\u793e\u533a\u65b0\u80dc\u5bb6\u56ed\u5c45\u6c11\u59d4\u5458\u4f1a","short_name":"\u65b0\u80dc\u65b0\u80dc\u5bb6\u56ed\u5c45\u6c11\u59d4\u5458\u4f1a","merger_name":"\u5c71\u4e1c,\u4e1c\u8425,\u4e1c\u8425,\u80dc\u5229,\u65b0\u80dc\u65b0\u80dc\u5bb6\u56ed\u5c45\u6c11\u59d4\u5458\u4f1a","pinyin":"XinShengXinShengJiaYuanJuMinWe","lng":"118.693460","lat":"37.419080"},{"id":308276,"parent_id":308267,"level":4,"area_code":"370502005026","zip_code":"257055","city_code":"0546","name":"\u65b0\u80dc\u793e\u533a\u6d77\u901a\u9a8f\u666f\u5c45\u6c11\u59d4\u5458\u4f1a","short_name":"\u65b0\u80dc\u6d77\u901a\u9a8f\u666f\u5c45\u6c11\u59d4\u5458\u4f1a","merger_name":"\u5c71\u4e1c,\u4e1c\u8425,\u4e1c\u8425,\u80dc\u5229,\u65b0\u80dc\u6d77\u901a\u9a8f\u666f\u5c45\u6c11\u59d4\u5458\u4f1a","pinyin":"XinShengHaiTongJunJingJuMinWei","lng":"118.634330","lat":"37.462050"},{"id":308277,"parent_id":308267,"level":4,"area_code":"370502005027","zip_code":"257055","city_code":"0546","name":"\u65b0\u80dc\u793e\u533a\u4f1f\u6d69\u5047\u65e5\u5c45\u6c11\u59d4\u5458\u4f1a","short_name":"\u65b0\u80dc\u4f1f\u6d69\u5047\u65e5\u5c45\u6c11\u59d4\u5458\u4f1a","merger_name":"\u5c71\u4e1c,\u4e1c\u8425,\u4e1c\u8425,\u80dc\u5229,\u65b0\u80dc\u4f1f\u6d69\u5047\u65e5\u5c45\u6c11\u59d4\u5458\u4f1a","pinyin":"XinShengWeiHaoJiaRiJuMinWeiYua","lng":"118.642880","lat":"37.462050"},{"id":308278,"parent_id":308267,"level":4,"area_code":"370502005028","zip_code":"257055","city_code":"0546","name":"\u65b0\u5174\u793e\u533a\u6d8c\u91d1\u82b1\u56ed\u5c45\u6c11\u59d4\u5458\u4f1a","short_name":"\u65b0\u5174\u6d8c\u91d1\u82b1\u56ed\u5c45\u6c11\u59d4\u5458\u4f1a","merger_name":"\u5c71\u4e1c,\u4e1c\u8425,\u4e1c\u8425,\u80dc\u5229,\u65b0\u5174\u6d8c\u91d1\u82b1\u56ed\u5c45\u6c11\u59d4\u5458\u4f1a","pinyin":"XinXingYongJinHuaYuanJuMinWeiY","lng":"118.652090","lat":"37.450460"},{"id":308279,"parent_id":308267,"level":4,"area_code":"370502005029","zip_code":"257055","city_code":"0546","name":"\u65b0\u5174\u793e\u533a\u5eb7\u529b\u5bb6\u56ed\u5c45\u6c11\u59d4\u5458\u4f1a","short_name":"\u65b0\u5174\u5eb7\u529b\u5bb6\u56ed\u5c45\u6c11\u59d4\u5458\u4f1a","merger_name":"\u5c71\u4e1c,\u4e1c\u8425,\u4e1c\u8425,\u80dc\u5229,\u65b0\u5174\u5eb7\u529b\u5bb6\u56ed\u5c45\u6c11\u59d4\u5458\u4f1a","pinyin":"XinXingKangLiJiaYuanJuMinWeiYu","lng":"118.693460","lat":"37.419080"},{"id":308280,"parent_id":308267,"level":4,"area_code":"370502005030","zip_code":"257055","city_code":"0546","name":"\u65b0\u5174\u793e\u533a\u76db\u4e16\u5609\u82d1\u5c45\u6c11\u59d4\u5458\u4f1a","short_name":"\u65b0\u5174\u76db\u4e16\u5609\u82d1\u5c45\u6c11\u59d4\u5458\u4f1a","merger_name":"\u5c71\u4e1c,\u4e1c\u8425,\u4e1c\u8425,\u80dc\u5229,\u65b0\u5174\u76db\u4e16\u5609\u82d1\u5c45\u6c11\u59d4\u5458\u4f1a","pinyin":"XinXingShengShiJiaYuanJuMinWei","lng":"118.693460","lat":"37.419080"},{"id":308281,"parent_id":308267,"level":4,"area_code":"370502005031","zip_code":"257055","city_code":"0546","name":"\u65b0\u5174\u793e\u533a\u80dc\u5b8f\u5c1a\u90e1\u5c45\u6c11\u59d4\u5458\u4f1a","short_name":"\u65b0\u5174\u80dc\u5b8f\u5c1a\u90e1\u5c45\u6c11\u59d4\u5458\u4f1a","merger_name":"\u5c71\u4e1c,\u4e1c\u8425,\u4e1c\u8425,\u80dc\u5229,\u65b0\u5174\u80dc\u5b8f\u5c1a\u90e1\u5c45\u6c11\u59d4\u5458\u4f1a","pinyin":"XinXingShengHongShangJunJuMinW","lng":"118.693460","lat":"37.419080"},{"id":308282,"parent_id":308267,"level":4,"area_code":"370502005032","zip_code":"257055","city_code":"0546","name":"\u65b0\u5174\u793e\u533a\u4f0a\u7281\u6cb3\u8def\u5c45\u6c11\u59d4\u5458\u4f1a","short_name":"\u65b0\u5174\u4f0a\u7281\u6cb3\u8def\u5c45\u6c11\u59d4\u5458\u4f1a","merger_name":"\u5c71\u4e1c,\u4e1c\u8425,\u4e1c\u8425,\u80dc\u5229,\u65b0\u5174\u4f0a\u7281\u6cb3\u8def\u5c45\u6c11\u59d4\u5458\u4f1a","pinyin":"XinXingYiLiHeLuJuMinWeiYuanHui","lng":"118.645470","lat":"37.479110"},{"id":308283,"parent_id":308267,"level":4,"area_code":"370502005033","zip_code":"257055","city_code":"0546","name":"\u80dc\u5b8f\u793e\u533a\u60e0\u56ed\u5c0f\u533a\u5c45\u6c11\u59d4\u5458\u4f1a","short_name":"\u80dc\u5b8f\u60e0\u56ed\u5c0f\u533a\u5c45\u6c11\u59d4\u5458\u4f1a","merger_name":"\u5c71\u4e1c,\u4e1c\u8425,\u4e1c\u8425,\u80dc\u5229,\u80dc\u5b8f\u60e0\u56ed\u5c0f\u533a\u5c45\u6c11\u59d4\u5458\u4f1a","pinyin":"ShengHongHuiYuanXiaoQuJuMinWei","lng":"118.686840","lat":"37.462160"},{"id":308284,"parent_id":308267,"level":4,"area_code":"370502005034","zip_code":"257055","city_code":"0546","name":"\u80dc\u5b8f\u793e\u533a\u80dc\u5b8f\u7f8e\u5c45\u5c45\u6c11\u59d4\u5458\u4f1a","short_name":"\u80dc\u5b8f\u80dc\u5b8f\u7f8e\u5c45\u5c45\u6c11\u59d4\u5458\u4f1a","merger_name":"\u5c71\u4e1c,\u4e1c\u8425,\u4e1c\u8425,\u80dc\u5229,\u80dc\u5b8f\u80dc\u5b8f\u7f8e\u5c45\u5c45\u6c11\u59d4\u5458\u4f1a","pinyin":"ShengHongShengHongMeiJuJuMinWe","lng":"118.682210","lat":"37.461970"},{"id":308285,"parent_id":308267,"level":4,"area_code":"370502005035","zip_code":"257055","city_code":"0546","name":"\u80dc\u5b8f\u793e\u533a\u80dc\u5b8f\u9753\u90fd\u5c45\u6c11\u59d4\u5458\u4f1a","short_name":"\u80dc\u5b8f\u80dc\u5b8f\u9753\u90fd\u5c45\u6c11\u59d4\u5458\u4f1a","merger_name":"\u5c71\u4e1c,\u4e1c\u8425,\u4e1c\u8425,\u80dc\u5229,\u80dc\u5b8f\u80dc\u5b8f\u9753\u90fd\u5c45\u6c11\u59d4\u5458\u4f1a","pinyin":"ShengHongShengHongJingDouJuMin","lng":"118.759640","lat":"37.544270"},{"id":308286,"parent_id":308267,"level":4,"area_code":"370502005036","zip_code":"257055","city_code":"0546","name":"\u80dc\u5b8f\u793e\u533a\u80dc\u5b8f\u666f\u82d1\u5c45\u6c11\u59d4\u5458\u4f1a","short_name":"\u80dc\u5b8f\u80dc\u5b8f\u666f\u82d1\u5c45\u6c11\u59d4\u5458\u4f1a","merger_name":"\u5c71\u4e1c,\u4e1c\u8425,\u4e1c\u8425,\u80dc\u5229,\u80dc\u5b8f\u80dc\u5b8f\u666f\u82d1\u5c45\u6c11\u59d4\u5458\u4f1a","pinyin":"ShengHongShengHongJingYuanJuMi","lng":"118.685753","lat":"37.461904"},{"id":308287,"parent_id":308267,"level":4,"area_code":"370502005037","zip_code":"257055","city_code":"0546","name":"\u80dc\u5b8f\u793e\u533a\u683c\u6797\u661f\u57ce\u5c45\u6c11\u59d4\u5458\u4f1a","short_name":"\u80dc\u5b8f\u683c\u6797\u661f\u57ce\u5c45\u6c11\u59d4\u5458\u4f1a","merger_name":"\u5c71\u4e1c,\u4e1c\u8425,\u4e1c\u8425,\u80dc\u5229,\u80dc\u5b8f\u683c\u6797\u661f\u57ce\u5c45\u6c11\u59d4\u5458\u4f1a","pinyin":"ShengHongGeLinXingChengJuMinWe","lng":"118.685753","lat":"37.461904"},{"id":308288,"parent_id":308267,"level":4,"area_code":"370502005038","zip_code":"257055","city_code":"0546","name":"\u80dc\u6cf0\u793e\u533a\u6d77\u79d1\u82b1\u56ed\u5c45\u6c11\u59d4\u5458\u4f1a","short_name":"\u80dc\u6cf0\u6d77\u79d1\u82b1\u56ed\u5c45\u6c11\u59d4\u5458\u4f1a","merger_name":"\u5c71\u4e1c,\u4e1c\u8425,\u4e1c\u8425,\u80dc\u5229,\u80dc\u6cf0\u6d77\u79d1\u82b1\u56ed\u5c45\u6c11\u59d4\u5458\u4f1a","pinyin":"ShengTaiHaiKeHuaYuanJuMinWeiYu","lng":"118.529140","lat":"37.456980"},