[{"id":404001,"parent_id":403976,"level":4,"area_code":"411224106225","zip_code":"472221","city_code":"0398","name":"\u697c\u623f\u6751\u6751\u59d4\u4f1a","short_name":"\u697c\u623f\u6751","merger_name":"\u6cb3\u5357,\u4e09\u95e8\u5ce1,\u5362\u6c0f,\u8303\u91cc,\u697c\u623f\u6751","pinyin":"LouFangCun","lng":"110.854300","lat":"34.070910"},{"id":404002,"parent_id":403976,"level":4,"area_code":"411224106226","zip_code":"472221","city_code":"0398","name":"\u5357\u5e84\u6751\u6751\u59d4\u4f1a","short_name":"\u5357\u5e84\u6751","merger_name":"\u6cb3\u5357,\u4e09\u95e8\u5ce1,\u5362\u6c0f,\u8303\u91cc,\u5357\u5e84\u6751","pinyin":"NanZhuangCun","lng":"111.198226","lat":"34.111164"},{"id":404003,"parent_id":403976,"level":4,"area_code":"411224106227","zip_code":"472221","city_code":"0398","name":"\u91cc\u752b\u6751\u6751\u59d4\u4f1a","short_name":"\u91cc\u752b\u6751","merger_name":"\u6cb3\u5357,\u4e09\u95e8\u5ce1,\u5362\u6c0f,\u8303\u91cc,\u91cc\u752b\u6751","pinyin":"LiFuCun","lng":"110.954641","lat":"34.526827"},{"id":404004,"parent_id":403976,"level":4,"area_code":"411224106228","zip_code":"472221","city_code":"0398","name":"\u51af\u5bb6\u5cad\u6751\u6751\u59d4\u4f1a","short_name":"\u51af\u5bb6\u5cad\u6751","merger_name":"\u6cb3\u5357,\u4e09\u95e8\u5ce1,\u5362\u6c0f,\u8303\u91cc,\u51af\u5bb6\u5cad\u6751","pinyin":"FengJiaLingCun","lng":"111.198226","lat":"34.111164"},{"id":404005,"parent_id":403976,"level":4,"area_code":"411224106229","zip_code":"472221","city_code":"0398","name":"\u5173\u9053\u6751\u6751\u59d4\u4f1a","short_name":"\u5173\u9053\u6751","merger_name":"\u6cb3\u5357,\u4e09\u95e8\u5ce1,\u5362\u6c0f,\u8303\u91cc,\u5173\u9053\u6751","pinyin":"GuanDaoCun","lng":"111.198226","lat":"34.111164"},{"id":404006,"parent_id":403976,"level":4,"area_code":"411224106230","zip_code":"472221","city_code":"0398","name":"\u7a91\u4e0a\u6751\u6751\u59d4\u4f1a","short_name":"\u7a91\u4e0a\u6751","merger_name":"\u6cb3\u5357,\u4e09\u95e8\u5ce1,\u5362\u6c0f,\u8303\u91cc,\u7a91\u4e0a\u6751","pinyin":"YaoShangCun","lng":"111.198226","lat":"34.111164"},{"id":404007,"parent_id":403976,"level":4,"area_code":"411224106231","zip_code":"472221","city_code":"0398","name":"\u4e1c\u5cad\u6751\u6751\u59d4\u4f1a","short_name":"\u4e1c\u5cad\u6751","merger_name":"\u6cb3\u5357,\u4e09\u95e8\u5ce1,\u5362\u6c0f,\u8303\u91cc,\u4e1c\u5cad\u6751","pinyin":"DongLingCun","lng":"111.484090","lat":"34.774300"},{"id":404008,"parent_id":403976,"level":4,"area_code":"411224106232","zip_code":"472221","city_code":"0398","name":"\u8521\u5bb6\u9aa8\u579b\u6751\u6751\u59d4\u4f1a","short_name":"\u8521\u5bb6\u9aa8\u579b\u6751","merger_name":"\u6cb3\u5357,\u4e09\u95e8\u5ce1,\u5362\u6c0f,\u8303\u91cc,\u8521\u5bb6\u9aa8\u579b\u6751","pinyin":"CaiJiaGuDuoCun","lng":"111.198226","lat":"34.111164"},{"id":404009,"parent_id":403976,"level":4,"area_code":"411224106233","zip_code":"472221","city_code":"0398","name":"\u67cf\u5761\u6751\u6751\u59d4\u4f1a","short_name":"\u67cf\u5761\u6751","merger_name":"\u6cb3\u5357,\u4e09\u95e8\u5ce1,\u5362\u6c0f,\u8303\u91cc,\u67cf\u5761\u6751","pinyin":"BaiPoCun","lng":"111.198226","lat":"34.111164"},{"id":404010,"parent_id":403976,"level":4,"area_code":"411224106234","zip_code":"472221","city_code":"0398","name":"\u5b5f\u7a91\u6751\u6751\u59d4\u4f1a","short_name":"\u5b5f\u7a91\u6751","merger_name":"\u6cb3\u5357,\u4e09\u95e8\u5ce1,\u5362\u6c0f,\u8303\u91cc,\u5b5f\u7a91\u6751","pinyin":"MengYaoCun","lng":"111.697370","lat":"34.707190"},{"id":404011,"parent_id":403976,"level":4,"area_code":"411224106235","zip_code":"472221","city_code":"0398","name":"\u6e05\u6da7\u6751\u6751\u59d4\u4f1a","short_name":"\u6e05\u6da7\u6751","merger_name":"\u6cb3\u5357,\u4e09\u95e8\u5ce1,\u5362\u6c0f,\u8303\u91cc,\u6e05\u6da7\u6751","pinyin":"QingJianCun","lng":"111.135460","lat":"34.166490"},{"id":404012,"parent_id":403976,"level":4,"area_code":"411224106236","zip_code":"472221","city_code":"0398","name":"\u5e72\u6c9f\u7a91\u6751\u6c11\u59d4\u5458\u4f1a","short_name":"\u5e72\u6c9f\u7a91","merger_name":"\u6cb3\u5357,\u4e09\u95e8\u5ce1,\u5362\u6c0f,\u8303\u91cc,\u5e72\u6c9f\u7a91","pinyin":"GanGouYao","lng":"111.184310","lat":"34.113500"},{"id":404013,"parent_id":403976,"level":4,"area_code":"411224106237","zip_code":"472221","city_code":"0398","name":"\u4e09\u95e8\u6751\u6751\u59d4\u4f1a","short_name":"\u4e09\u95e8\u6751","merger_name":"\u6cb3\u5357,\u4e09\u95e8\u5ce1,\u5362\u6c0f,\u8303\u91cc,\u4e09\u95e8\u6751","pinyin":"SanMenCun","lng":"111.198226","lat":"34.111164"},{"id":404014,"parent_id":403976,"level":4,"area_code":"411224106238","zip_code":"472221","city_code":"0398","name":"\u767d\u7389\u6c9f\u6751\u6751\u59d4\u4f1a","short_name":"\u767d\u7389\u6c9f\u6751","merger_name":"\u6cb3\u5357,\u4e09\u95e8\u5ce1,\u5362\u6c0f,\u8303\u91cc,\u767d\u7389\u6c9f\u6751","pinyin":"BaiYuGouCun","lng":"110.854300","lat":"34.070910"},{"id":404015,"parent_id":403976,"level":4,"area_code":"411224106239","zip_code":"472221","city_code":"0398","name":"\u78be\u5b50\u6c9f\u6751\u6751\u59d4\u4f1a","short_name":"\u78be\u5b50\u6c9f\u6751","merger_name":"\u6cb3\u5357,\u4e09\u95e8\u5ce1,\u5362\u6c0f,\u8303\u91cc,\u78be\u5b50\u6c9f\u6751","pinyin":"NianZiGouCun","lng":"111.307230","lat":"34.029070"},{"id":404016,"parent_id":403976,"level":4,"area_code":"411224106240","zip_code":"472221","city_code":"0398","name":"\u9a6c\u8dd1\u6cc9\u6751\u6751\u59d4\u4f1a","short_name":"\u9a6c\u8dd1\u6cc9\u6751","merger_name":"\u6cb3\u5357,\u4e09\u95e8\u5ce1,\u5362\u6c0f,\u8303\u91cc,\u9a6c\u8dd1\u6cc9\u6751","pinyin":"MaPaoQuanCun","lng":"111.328500","lat":"34.025250"},{"id":404017,"parent_id":403976,"level":4,"area_code":"411224106241","zip_code":"472221","city_code":"0398","name":"\u5c0f\u5cad\u58d5\u6751\u6751\u59d4\u4f1a","short_name":"\u5c0f\u5cad\u58d5\u6751","merger_name":"\u6cb3\u5357,\u4e09\u95e8\u5ce1,\u5362\u6c0f,\u8303\u91cc,\u5c0f\u5cad\u58d5\u6751","pinyin":"XiaoLingHaoCun","lng":"111.339290","lat":"34.001720"},{"id":404018,"parent_id":403976,"level":4,"area_code":"411224106242","zip_code":"472221","city_code":"0398","name":"\u738b\u7a91\u6751\u6751\u59d4\u4f1a","short_name":"\u738b\u7a91\u6751","merger_name":"\u6cb3\u5357,\u4e09\u95e8\u5ce1,\u5362\u6c0f,\u8303\u91cc,\u738b\u7a91\u6751","pinyin":"WangYaoCun","lng":"111.283190","lat":"34.088070"},{"id":404019,"parent_id":403976,"level":4,"area_code":"411224106243","zip_code":"472221","city_code":"0398","name":"\u6978\u6811\u5cad\u6751\u6c11\u59d4\u5458\u4f1a","short_name":"\u6978\u6811\u5cad","merger_name":"\u6cb3\u5357,\u4e09\u95e8\u5ce1,\u5362\u6c0f,\u8303\u91cc,\u6978\u6811\u5cad","pinyin":"QiuShuLing","lng":"111.184310","lat":"34.113500"},{"id":404020,"parent_id":403976,"level":4,"area_code":"411224106244","zip_code":"472221","city_code":"0398","name":"\u4f55\u7a91\u6751\u6751\u59d4\u4f1a","short_name":"\u4f55\u7a91\u6751","merger_name":"\u6cb3\u5357,\u4e09\u95e8\u5ce1,\u5362\u6c0f,\u8303\u91cc,\u4f55\u7a91\u6751","pinyin":"HeYaoCun","lng":"111.304120","lat":"34.070260"},{"id":404021,"parent_id":403976,"level":4,"area_code":"411224106245","zip_code":"472221","city_code":"0398","name":"\u4e09\u95e8\u5cad\u6751\u6751\u59d4\u4f1a","short_name":"\u4e09\u95e8\u5cad\u6751","merger_name":"\u6cb3\u5357,\u4e09\u95e8\u5ce1,\u5362\u6c0f,\u8303\u91cc,\u4e09\u95e8\u5cad\u6751","pinyin":"SanMenLingCun","lng":"111.198226","lat":"34.111164"},{"id":404022,"parent_id":403976,"level":4,"area_code":"411224106246","zip_code":"472221","city_code":"0398","name":"\u8303\u91cc\u6751\u6751\u59d4\u4f1a","short_name":"\u8303\u91cc\u6751","merger_name":"\u6cb3\u5357,\u4e09\u95e8\u5ce1,\u5362\u6c0f,\u8303\u91cc,\u8303\u91cc\u6751","pinyin":"FanLiCun","lng":"111.198226","lat":"34.111164"},{"id":404023,"parent_id":403857,"level":3,"area_code":"411224107000","zip_code":"472299","city_code":"0398","name":"\u4e1c\u660e\u9547","short_name":"\u4e1c\u660e","merger_name":"\u6cb3\u5357,\u4e09\u95e8\u5ce1,\u5362\u6c0f,\u4e1c\u660e","pinyin":"DongMing","lng":"111.063540","lat":"34.063150"},{"id":404024,"parent_id":404023,"level":4,"area_code":"411224107200","zip_code":"472299","city_code":"0398","name":"\u4e1c\u660e\u6751\u6751\u59d4\u4f1a","short_name":"\u4e1c\u660e\u6751","merger_name":"\u6cb3\u5357,\u4e09\u95e8\u5ce1,\u5362\u6c0f,\u4e1c\u660e,\u4e1c\u660e\u6751","pinyin":"DongMingCun","lng":"111.050033","lat":"34.057745"},{"id":404025,"parent_id":404023,"level":4,"area_code":"411224107201","zip_code":"472299","city_code":"0398","name":"\u4e1c\u8425\u6751\u6751\u59d4\u4f1a","short_name":"\u4e1c\u8425\u6751","merger_name":"\u6cb3\u5357,\u4e09\u95e8\u5ce1,\u5362\u6c0f,\u4e1c\u660e,\u4e1c\u8425\u6751","pinyin":"DongYingCun","lng":"110.724600","lat":"34.521350"},{"id":404026,"parent_id":404023,"level":4,"area_code":"411224107202","zip_code":"472299","city_code":"0398","name":"\u6c5f\u6e20\u6751\u6c11\u59d4\u5458\u4f1a","short_name":"\u6c5f\u6e20","merger_name":"\u6cb3\u5357,\u4e09\u95e8\u5ce1,\u5362\u6c0f,\u4e1c\u660e,\u6c5f\u6e20","pinyin":"JiangQu","lng":"111.197940","lat":"34.778100"},{"id":404027,"parent_id":404023,"level":4,"area_code":"411224107203","zip_code":"472299","city_code":"0398","name":"\u5317\u82cf\u6751\u6751\u59d4\u4f1a","short_name":"\u5317\u82cf\u6751","merger_name":"\u6cb3\u5357,\u4e09\u95e8\u5ce1,\u5362\u6c0f,\u4e1c\u660e,\u5317\u82cf\u6751","pinyin":"BeiSuCun","lng":"111.063540","lat":"34.063150"},{"id":404028,"parent_id":404023,"level":4,"area_code":"411224107204","zip_code":"472299","city_code":"0398","name":"\u7941\u5bf8\u6e7e\u6751\u6751\u59d4\u4f1a","short_name":"\u7941\u5bf8\u6e7e\u6751","merger_name":"\u6cb3\u5357,\u4e09\u95e8\u5ce1,\u5362\u6c0f,\u4e1c\u660e,\u7941\u5bf8\u6e7e\u6751","pinyin":"QiCunWanCun","lng":"111.019859","lat":"34.252130"},{"id":404029,"parent_id":404023,"level":4,"area_code":"411224107205","zip_code":"472299","city_code":"0398","name":"\u9ad8\u5e84\u6751\u6751\u59d4\u4f1a","short_name":"\u9ad8\u5e84\u6751","merger_name":"\u6cb3\u5357,\u4e09\u95e8\u5ce1,\u5362\u6c0f,\u4e1c\u660e,\u9ad8\u5e84\u6751","pinyin":"GaoZhuangCun","lng":"111.063540","lat":"34.063150"},{"id":404030,"parent_id":404023,"level":4,"area_code":"411224107206","zip_code":"472299","city_code":"0398","name":"\u8c22\u5bb6\u8def\u6751\u6751\u59d4\u4f1a","short_name":"\u8c22\u5bb6\u8def\u6751","merger_name":"\u6cb3\u5357,\u4e09\u95e8\u5ce1,\u5362\u6c0f,\u4e1c\u660e,\u8c22\u5bb6\u8def\u6751","pinyin":"XieJiaLuCun","lng":"111.063540","lat":"34.063150"},{"id":404031,"parent_id":404023,"level":4,"area_code":"411224107207","zip_code":"472299","city_code":"0398","name":"\u592a\u5e73\u6751\u6751\u59d4\u4f1a","short_name":"\u592a\u5e73\u6751","merger_name":"\u6cb3\u5357,\u4e09\u95e8\u5ce1,\u5362\u6c0f,\u4e1c\u660e,\u592a\u5e73\u6751","pinyin":"TaiPingCun","lng":"111.737570","lat":"34.652250"},{"id":404032,"parent_id":404023,"level":4,"area_code":"411224107208","zip_code":"472299","city_code":"0398","name":"\u706b\u708e\u6751\u6751\u59d4\u4f1a","short_name":"\u706b\u708e\u6751","merger_name":"\u6cb3\u5357,\u4e09\u95e8\u5ce1,\u5362\u6c0f,\u4e1c\u660e,\u706b\u708e\u6751","pinyin":"HuoYanCun","lng":"111.050033","lat":"34.057745"},{"id":404033,"parent_id":404023,"level":4,"area_code":"411224107209","zip_code":"472299","city_code":"0398","name":"\u5148\u5cea\u6751\u6751\u59d4\u4f1a","short_name":"\u5148\u5cea\u6751","merger_name":"\u6cb3\u5357,\u4e09\u95e8\u5ce1,\u5362\u6c0f,\u4e1c\u660e,\u5148\u5cea\u6751","pinyin":"XianYuCun","lng":"111.089540","lat":"34.098780"},{"id":404034,"parent_id":404023,"level":4,"area_code":"411224107210","zip_code":"472299","city_code":"0398","name":"\u5e99\u51f9\u6751\u6751\u59d4\u4f1a","short_name":"\u5e99\u51f9\u6751","merger_name":"\u6cb3\u5357,\u4e09\u95e8\u5ce1,\u5362\u6c0f,\u4e1c\u660e,\u5e99\u51f9\u6751","pinyin":"MiaoAoCun","lng":"111.050033","lat":"34.057745"},{"id":404035,"parent_id":404023,"level":4,"area_code":"411224107211","zip_code":"472299","city_code":"0398","name":"\u5f53\u5bb6\u6751\u6751\u59d4\u4f1a","short_name":"\u5f53\u5bb6\u6751","merger_name":"\u6cb3\u5357,\u4e09\u95e8\u5ce1,\u5362\u6c0f,\u4e1c\u660e,\u5f53\u5bb6\u6751","pinyin":"DangJiaCun","lng":"111.065754","lat":"34.096458"},{"id":404036,"parent_id":404023,"level":4,"area_code":"411224107212","zip_code":"472299","city_code":"0398","name":"\u77f3\u9f99\u5934\u6751\u6c11\u59d4\u5458\u4f1a","short_name":"\u77f3\u9f99\u5934","merger_name":"\u6cb3\u5357,\u4e09\u95e8\u5ce1,\u5362\u6c0f,\u4e1c\u660e,\u77f3\u9f99\u5934","pinyin":"ShiLongTou","lng":"111.076760","lat":"34.072630"},{"id":404037,"parent_id":404023,"level":4,"area_code":"411224107213","zip_code":"472299","city_code":"0398","name":"\u5f20\u9ebb\u6751\u6751\u59d4\u4f1a","short_name":"\u5f20\u9ebb\u6751","merger_name":"\u6cb3\u5357,\u4e09\u95e8\u5ce1,\u5362\u6c0f,\u4e1c\u660e,\u5f20\u9ebb\u6751","pinyin":"ZhangMaCun","lng":"111.050033","lat":"34.057745"},{"id":404038,"parent_id":404023,"level":4,"area_code":"411224107214","zip_code":"472299","city_code":"0398","name":"\u9ed1\u9a6c\u6751\u6751\u59d4\u4f1a","short_name":"\u9ed1\u9a6c\u6751","merger_name":"\u6cb3\u5357,\u4e09\u95e8\u5ce1,\u5362\u6c0f,\u4e1c\u660e,\u9ed1\u9a6c\u6751","pinyin":"HeiMaCun","lng":"111.037310","lat":"34.052940"},{"id":404039,"parent_id":404023,"level":4,"area_code":"411224107215","zip_code":"472299","city_code":"0398","name":"\u6cb3\u897f\u6751\u6751\u59d4\u4f1a","short_name":"\u6cb3\u897f\u6751","merger_name":"\u6cb3\u5357,\u4e09\u95e8\u5ce1,\u5362\u6c0f,\u4e1c\u660e,\u6cb3\u897f\u6751","pinyin":"HeXiCun","lng":"110.557200","lat":"34.505350"},{"id":404040,"parent_id":404023,"level":4,"area_code":"411224107216","zip_code":"472299","city_code":"0398","name":"\u6da7\u5317\u6751\u6751\u59d4\u4f1a","short_name":"\u6da7\u5317\u6751","merger_name":"\u6cb3\u5357,\u4e09\u95e8\u5ce1,\u5362\u6c0f,\u4e1c\u660e,\u6da7\u5317\u6751","pinyin":"JianBeiCun","lng":"111.786950","lat":"34.694820"},{"id":404041,"parent_id":404023,"level":4,"area_code":"411224107217","zip_code":"472299","city_code":"0398","name":"\u5c0f\u6e7e\u6751\u6751\u59d4\u4f1a","short_name":"\u5c0f\u6e7e\u6751","merger_name":"\u6cb3\u5357,\u4e09\u95e8\u5ce1,\u5362\u6c0f,\u4e1c\u660e,\u5c0f\u6e7e\u6751","pinyin":"XiaoWanCun","lng":"111.006980","lat":"34.026020"},{"id":404042,"parent_id":404023,"level":4,"area_code":"411224107218","zip_code":"472299","city_code":"0398","name":"\u540e\u6cb3\u6751\u6751\u59d4\u4f1a","short_name":"\u540e\u6cb3\u6751","merger_name":"\u6cb3\u5357,\u4e09\u95e8\u5ce1,\u5362\u6c0f,\u4e1c\u660e,\u540e\u6cb3\u6751","pinyin":"HouHeCun","lng":"111.670140","lat":"34.798970"},{"id":404043,"parent_id":404023,"level":4,"area_code":"411224107219","zip_code":"472299","city_code":"0398","name":"\u4e1c\u576a\u6751\u6751\u59d4\u4f1a","short_name":"\u4e1c\u576a\u6751","merger_name":"\u6cb3\u5357,\u4e09\u95e8\u5ce1,\u5362\u6c0f,\u4e1c\u660e,\u4e1c\u576a\u6751","pinyin":"DongPingCun","lng":"110.847698","lat":"34.514467"},{"id":404044,"parent_id":404023,"level":4,"area_code":"411224107220","zip_code":"472299","city_code":"0398","name":"\u6bb5\u5bb6\u6751\u6751\u59d4\u4f1a","short_name":"\u6bb5\u5bb6\u6751","merger_name":"\u6cb3\u5357,\u4e09\u95e8\u5ce1,\u5362\u6c0f,\u4e1c\u660e,\u6bb5\u5bb6\u6751","pinyin":"DuanJiaCun","lng":"111.050033","lat":"34.057745"},{"id":404045,"parent_id":404023,"level":4,"area_code":"411224107221","zip_code":"472299","city_code":"0398","name":"\u94c1\u5cf0\u6751\u6751\u59d4\u4f1a","short_name":"\u94c1\u5cf0\u6751","merger_name":"\u6cb3\u5357,\u4e09\u95e8\u5ce1,\u5362\u6c0f,\u4e1c\u660e,\u94c1\u5cf0\u6751","pinyin":"TieFengCun","lng":"110.847698","lat":"34.514467"},{"id":404046,"parent_id":404023,"level":4,"area_code":"411224107222","zip_code":"472299","city_code":"0398","name":"\u5cf0\u4e91\u6751\u6751\u59d4\u4f1a","short_name":"\u5cf0\u4e91\u6751","merger_name":"\u6cb3\u5357,\u4e09\u95e8\u5ce1,\u5362\u6c0f,\u4e1c\u660e,\u5cf0\u4e91\u6751","pinyin":"FengYunCun","lng":"110.983150","lat":"34.134770"},{"id":404047,"parent_id":403857,"level":3,"area_code":"411224108000","zip_code":"472200","city_code":"0398","name":"\u53cc\u9f99\u6e7e\u9547","short_name":"\u53cc\u9f99","merger_name":"\u6cb3\u5357,\u4e09\u95e8\u5ce1,\u5362\u6c0f,\u53cc\u9f99","pinyin":"ShuangLong","lng":"110.834410","lat":"33.981320"},{"id":404048,"parent_id":404047,"level":4,"area_code":"411224108200","zip_code":"472243","city_code":"0398","name":"\u78e8\u6c9f\u53e3\u6751\u6c11\u59d4\u5458\u4f1a","short_name":"\u78e8\u6c9f\u53e3","merger_name":"\u6cb3\u5357,\u4e09\u95e8\u5ce1,\u5362\u6c0f,\u53cc\u9f99,\u78e8\u6c9f\u53e3","pinyin":"MoGouKou","lng":"111.054340","lat":"34.710840"},{"id":404049,"parent_id":404047,"level":4,"area_code":"411224108201","zip_code":"472243","city_code":"0398","name":"\u8682\u8681\u5cad\u6751\u6751\u59d4\u4f1a","short_name":"\u8682\u8681\u5cad\u6751","merger_name":"\u6cb3\u5357,\u4e09\u95e8\u5ce1,\u5362\u6c0f,\u53cc\u9f99,\u8682\u8681\u5cad\u6751","pinyin":"MaYiLingCun","lng":"110.962850","lat":"33.971770"},{"id":404050,"parent_id":404047,"level":4,"area_code":"411224108202","zip_code":"472243","city_code":"0398","name":"\u9f99\u9a79\u6751\u6751\u59d4\u4f1a","short_name":"\u9f99\u9a79\u6751","merger_name":"\u6cb3\u5357,\u4e09\u95e8\u5ce1,\u5362\u6c0f,\u53cc\u9f99,\u9f99\u9a79\u6751","pinyin":"LongJuCun","lng":"110.937570","lat":"33.959490"},{"id":404051,"parent_id":404047,"level":4,"area_code":"411224108203","zip_code":"472243","city_code":"0398","name":"\u524d\u864e\u5cea\u6751\u6751\u59d4\u4f1a","short_name":"\u524d\u864e\u5cea\u6751","merger_name":"\u6cb3\u5357,\u4e09\u95e8\u5ce1,\u5362\u6c0f,\u53cc\u9f99,\u524d\u864e\u5cea\u6751","pinyin":"QianHuYuCun","lng":"110.959350","lat":"33.930810"},{"id":404052,"parent_id":404047,"level":4,"area_code":"411224108204","zip_code":"472243","city_code":"0398","name":"\u540e\u864e\u5cea\u6751\u6751\u59d4\u4f1a","short_name":"\u540e\u864e\u5cea\u6751","merger_name":"\u6cb3\u5357,\u4e09\u95e8\u5ce1,\u5362\u6c0f,\u53cc\u9f99,\u540e\u864e\u5cea\u6751","pinyin":"HouHuYuCun","lng":"111.144690","lat":"34.777540"},{"id":404053,"parent_id":404047,"level":4,"area_code":"411224108205","zip_code":"472243","city_code":"0398","name":"\u8096\u5bb6\u6c9f\u6751\u6c11\u59d4\u5458\u4f1a","short_name":"\u8096\u5bb6\u6c9f","merger_name":"\u6cb3\u5357,\u4e09\u95e8\u5ce1,\u5362\u6c0f,\u53cc\u9f99,\u8096\u5bb6\u6c9f","pinyin":"XiaoJiaGou","lng":"111.054340","lat":"34.710840"},{"id":404054,"parent_id":404047,"level":4,"area_code":"411224108206","zip_code":"472243","city_code":"0398","name":"\u4e45\u5bcc\u6751\u6751\u59d4\u4f1a","short_name":"\u4e45\u5bcc\u6751","merger_name":"\u6cb3\u5357,\u4e09\u95e8\u5ce1,\u5362\u6c0f,\u53cc\u9f99,\u4e45\u5bcc\u6751","pinyin":"JiuFuCun","lng":"110.884990","lat":"33.996330"},{"id":404055,"parent_id":404047,"level":4,"area_code":"411224108207","zip_code":"472222","city_code":"0398","name":"\u8349\u6c9f\u6751\u6751\u59d4\u4f1a","short_name":"\u8349\u6c9f\u6751","merger_name":"\u6cb3\u5357,\u4e09\u95e8\u5ce1,\u5362\u6c0f,\u53cc\u9f99,\u8349\u6c9f\u6751","pinyin":"CaoGouCun","lng":"110.895720","lat":"33.920290"},{"id":404056,"parent_id":404047,"level":4,"area_code":"411224108208","zip_code":"472243","city_code":"0398","name":"\u4e71\u77f3\u6751\u6751\u59d4\u4f1a","short_name":"\u4e71\u77f3\u6751","merger_name":"\u6cb3\u5357,\u4e09\u95e8\u5ce1,\u5362\u6c0f,\u53cc\u9f99,\u4e71\u77f3\u6751","pinyin":"LuanShiCun","lng":"110.847698","lat":"34.514467"},{"id":404057,"parent_id":404047,"level":4,"area_code":"411224108209","zip_code":"472243","city_code":"0398","name":"\u66f2\u91cc\u6751\u6751\u59d4\u4f1a","short_name":"\u66f2\u91cc\u6751","merger_name":"\u6cb3\u5357,\u4e09\u95e8\u5ce1,\u5362\u6c0f,\u53cc\u9f99,\u66f2\u91cc\u6751","pinyin":"QuLiCun","lng":"110.854300","lat":"34.070910"},{"id":404058,"parent_id":404047,"level":4,"area_code":"411224108210","zip_code":"472243","city_code":"0398","name":"\u4e1c\u864e\u5cad\u6751\u6751\u59d4\u4f1a","short_name":"\u4e1c\u864e\u5cad\u6751","merger_name":"\u6cb3\u5357,\u4e09\u95e8\u5ce1,\u5362\u6c0f,\u53cc\u9f99,\u4e1c\u864e\u5cad\u6751","pinyin":"DongHuLingCun","lng":"110.833610","lat":"33.992280"},{"id":404059,"parent_id":404047,"level":4,"area_code":"411224108211","zip_code":"472243","city_code":"0398","name":"\u897f\u864e\u5cad\u6751\u6751\u59d4\u4f1a","short_name":"\u897f\u864e\u5cad\u6751","merger_name":"\u6cb3\u5357,\u4e09\u95e8\u5ce1,\u5362\u6c0f,\u53cc\u9f99,\u897f\u864e\u5cad\u6751","pinyin":"XiHuLingCun","lng":"110.833610","lat":"33.992280"},{"id":404060,"parent_id":404047,"level":4,"area_code":"411224108212","zip_code":"472243","city_code":"0398","name":"\u4e0a\u5e97\u8857\u6751\u6c11\u59d4\u5458\u4f1a","short_name":"\u4e0a\u5e97\u8857","merger_name":"\u6cb3\u5357,\u4e09\u95e8\u5ce1,\u5362\u6c0f,\u53cc\u9f99,\u4e0a\u5e97\u8857","pinyin":"ShangDianJie","lng":"110.845440","lat":"33.959890"},{"id":404061,"parent_id":404047,"level":4,"area_code":"411224108213","zip_code":"472243","city_code":"0398","name":"\u6cb3\u4e1c\u6751\u6751\u59d4\u4f1a","short_name":"\u6cb3\u4e1c\u6751","merger_name":"\u6cb3\u5357,\u4e09\u95e8\u5ce1,\u5362\u6c0f,\u53cc\u9f99,\u6cb3\u4e1c\u6751","pinyin":"HeDongCun","lng":"110.872779","lat":"33.958026"},{"id":404062,"parent_id":404047,"level":4,"area_code":"411224108214","zip_code":"472200","city_code":"0398","name":"\u5b98\u6728\u6751\u6751\u59d4\u4f1a","short_name":"\u5b98\u6728\u6751","merger_name":"\u6cb3\u5357,\u4e09\u95e8\u5ce1,\u5362\u6c0f,\u53cc\u9f99,\u5b98\u6728\u6751","pinyin":"GuanMuCun","lng":"110.819740","lat":"33.927820"},{"id":404063,"parent_id":404047,"level":4,"area_code":"411224108215","zip_code":"472243","city_code":"0398","name":"\u77f3\u5bb6\u6751\u6751\u59d4\u4f1a","short_name":"\u77f3\u5bb6\u6751","merger_name":"\u6cb3\u5357,\u4e09\u95e8\u5ce1,\u5362\u6c0f,\u53cc\u9f99,\u77f3\u5bb6\u6751","pinyin":"ShiJiaCun","lng":"111.144690","lat":"34.777540"},{"id":404064,"parent_id":403857,"level":3,"area_code":"411224200000","zip_code":"472222","city_code":"0398","name":"\u6587\u5cea\u4e61","short_name":"\u6587\u5cea","merger_name":"\u6cb3\u5357,\u4e09\u95e8\u5ce1,\u5362\u6c0f,\u6587\u5cea","pinyin":"WenYu","lng":"111.068340","lat":"34.049750"},{"id":404065,"parent_id":404064,"level":4,"area_code":"411224200200","zip_code":"472299","city_code":"0398","name":"\u5357\u7a91\u6751\u6751\u59d4\u4f1a","short_name":"\u5357\u7a91\u6751","merger_name":"\u6cb3\u5357,\u4e09\u95e8\u5ce1,\u5362\u6c0f,\u6587\u5cea,\u5357\u7a91\u6751","pinyin":"NanYaoCun","lng":"111.050033","lat":"34.057745"},{"id":404066,"parent_id":404064,"level":4,"area_code":"411224200201","zip_code":"472222","city_code":"0398","name":"\u9ebb\u5bb6\u6e7e\u6751\u6751\u59d4\u4f1a","short_name":"\u9ebb\u5bb6\u6e7e\u6751","merger_name":"\u6cb3\u5357,\u4e09\u95e8\u5ce1,\u5362\u6c0f,\u6587\u5cea,\u9ebb\u5bb6\u6e7e\u6751","pinyin":"MaJiaWanCun","lng":"111.050033","lat":"34.057745"},{"id":404067,"parent_id":404064,"level":4,"area_code":"411224200202","zip_code":"472222","city_code":"0398","name":"\u671b\u5bb6\u6751\u6751\u59d4\u4f1a","short_name":"\u671b\u5bb6\u6751","merger_name":"\u6cb3\u5357,\u4e09\u95e8\u5ce1,\u5362\u6c0f,\u6587\u5cea,\u671b\u5bb6\u6751","pinyin":"WangJiaCun","lng":"111.050033","lat":"34.057745"},{"id":404068,"parent_id":404064,"level":4,"area_code":"411224200203","zip_code":"472222","city_code":"0398","name":"\u6768\u5bb6\u573a\u6751\u6751\u59d4\u4f1a","short_name":"\u6768\u5bb6\u573a\u6751","merger_name":"\u6cb3\u5357,\u4e09\u95e8\u5ce1,\u5362\u6c0f,\u6587\u5cea,\u6768\u5bb6\u573a\u6751","pinyin":"YangJiaChangCun","lng":"111.050033","lat":"34.057745"},{"id":404069,"parent_id":404064,"level":4,"area_code":"411224200204","zip_code":"472222","city_code":"0398","name":"\u5434\u5bb6\u6c9f\u6751\u6751\u59d4\u4f1a","short_name":"\u5434\u5bb6\u6c9f\u6751","merger_name":"\u6cb3\u5357,\u4e09\u95e8\u5ce1,\u5362\u6c0f,\u6587\u5cea,\u5434\u5bb6\u6c9f\u6751","pinyin":"WuJiaGouCun","lng":"111.050033","lat":"34.057745"},{"id":404070,"parent_id":404064,"level":4,"area_code":"411224200205","zip_code":"472222","city_code":"0398","name":"\u5e99\u6c9f\u6cb3\u6751\u6c11\u59d4\u5458\u4f1a","short_name":"\u5e99\u6c9f\u6cb3","merger_name":"\u6cb3\u5357,\u4e09\u95e8\u5ce1,\u5362\u6c0f,\u6587\u5cea,\u5e99\u6c9f\u6cb3","pinyin":"MiaoGouHe","lng":"110.997740","lat":"34.074200"},{"id":404071,"parent_id":404064,"level":4,"area_code":"411224200206","zip_code":"472222","city_code":"0398","name":"\u78e8\u4e0a\u6751\u6751\u59d4\u4f1a","short_name":"\u78e8\u4e0a\u6751","merger_name":"\u6cb3\u5357,\u4e09\u95e8\u5ce1,\u5362\u6c0f,\u6587\u5cea,\u78e8\u4e0a\u6751","pinyin":"MoShangCun","lng":"110.854300","lat":"34.070910"},{"id":404072,"parent_id":404064,"level":4,"area_code":"411224200207","zip_code":"472222","city_code":"0398","name":"\u5e38\u5bb6\u5e84\u6751\u6751\u59d4\u4f1a","short_name":"\u5e38\u5bb6\u5e84\u6751","merger_name":"\u6cb3\u5357,\u4e09\u95e8\u5ce1,\u5362\u6c0f,\u6587\u5cea,\u5e38\u5bb6\u5e84\u6751","pinyin":"ChangJiaZhuangCun","lng":"110.854300","lat":"34.070910"},{"id":404073,"parent_id":404064,"level":4,"area_code":"411224200208","zip_code":"472222","city_code":"0398","name":"\u7acb\u6c34\u5e99\u6751\u6751\u59d4\u4f1a","short_name":"\u7acb\u6c34\u5e99\u6751","merger_name":"\u6cb3\u5357,\u4e09\u95e8\u5ce1,\u5362\u6c0f,\u6587\u5cea,\u7acb\u6c34\u5e99\u6751","pinyin":"LiShuiMiaoCun","lng":"110.854300","lat":"34.070910"},{"id":404074,"parent_id":404064,"level":4,"area_code":"411224200209","zip_code":"472222","city_code":"0398","name":"\u677e\u6811\u5634\u6751\u6751\u59d4\u4f1a","short_name":"\u677e\u6811\u5634\u6751","merger_name":"\u6cb3\u5357,\u4e09\u95e8\u5ce1,\u5362\u6c0f,\u6587\u5cea,\u677e\u6811\u5634\u6751","pinyin":"SongShuZuiCun","lng":"110.854300","lat":"34.070910"},{"id":404075,"parent_id":404064,"level":4,"area_code":"411224200210","zip_code":"472222","city_code":"0398","name":"\u59da\u5bb6\u5c71\u6751\u6751\u59d4\u4f1a","short_name":"\u59da\u5bb6\u5c71\u6751","merger_name":"\u6cb3\u5357,\u4e09\u95e8\u5ce1,\u5362\u6c0f,\u6587\u5cea,\u59da\u5bb6\u5c71\u6751","pinyin":"YaoJiaShanCun","lng":"111.050033","lat":"34.057745"},{"id":404076,"parent_id":404064,"level":4,"area_code":"411224200211","zip_code":"472222","city_code":"0398","name":"\u5bfa\u51f9\u6751\u6c11\u59d4\u5458\u4f1a","short_name":"\u5bfa\u51f9","merger_name":"\u6cb3\u5357,\u4e09\u95e8\u5ce1,\u5362\u6c0f,\u6587\u5cea,\u5bfa\u51f9","pinyin":"SiAo","lng":"110.997740","lat":"34.074200"},{"id":404077,"parent_id":404064,"level":4,"area_code":"411224200212","zip_code":"472299","city_code":"0398","name":"\u5f20\u6751\u6751\u59d4\u4f1a","short_name":"\u5f20\u6751","merger_name":"\u6cb3\u5357,\u4e09\u95e8\u5ce1,\u5362\u6c0f,\u6587\u5cea,\u5f20\u6751","pinyin":"ZhangCun","lng":"111.068340","lat":"34.049750"},{"id":404078,"parent_id":404064,"level":4,"area_code":"411224200213","zip_code":"472222","city_code":"0398","name":"\u738b\u6751\u6751\u59d4\u4f1a","short_name":"\u738b\u6751","merger_name":"\u6cb3\u5357,\u4e09\u95e8\u5ce1,\u5362\u6c0f,\u6587\u5cea,\u738b\u6751","pinyin":"WangCun","lng":"111.068340","lat":"34.049750"},{"id":404079,"parent_id":404064,"level":4,"area_code":"411224200214","zip_code":"472299","city_code":"0398","name":"\u6da7\u897f\u6751\u6751\u59d4\u4f1a","short_name":"\u6da7\u897f\u6751","merger_name":"\u6cb3\u5357,\u4e09\u95e8\u5ce1,\u5362\u6c0f,\u6587\u5cea,\u6da7\u897f\u6751","pinyin":"JianXiCun","lng":"111.050033","lat":"34.057745"},{"id":404080,"parent_id":404064,"level":4,"area_code":"411224200215","zip_code":"472222","city_code":"0398","name":"\u80e1\u51f9\u6751\u6c11\u59d4\u5458\u4f1a","short_name":"\u80e1\u51f9","merger_name":"\u6cb3\u5357,\u4e09\u95e8\u5ce1,\u5362\u6c0f,\u6587\u5cea,\u80e1\u51f9","pinyin":"HuAo","lng":"110.997740","lat":"34.074200"},{"id":404081,"parent_id":404064,"level":4,"area_code":"411224200216","zip_code":"472299","city_code":"0398","name":"\u9ed1\u4e86\u5bbf\u6751\u6751\u59d4\u4f1a","short_name":"\u9ed1\u4e86\u5bbf\u6751","merger_name":"\u6cb3\u5357,\u4e09\u95e8\u5ce1,\u5362\u6c0f,\u6587\u5cea,\u9ed1\u4e86\u5bbf\u6751","pinyin":"HeiLeSuCun","lng":"110.854300","lat":"34.070910"},{"id":404082,"parent_id":404064,"level":4,"area_code":"411224200218","zip_code":"472299","city_code":"0398","name":"\u5357\u738b\u6751\u6751\u59d4\u4f1a","short_name":"\u5357\u738b\u6751","merger_name":"\u6cb3\u5357,\u4e09\u95e8\u5ce1,\u5362\u6c0f,\u6587\u5cea,\u5357\u738b\u6751","pinyin":"NanWangCun","lng":"111.068340","lat":"34.049750"},{"id":404083,"parent_id":404064,"level":4,"area_code":"411224200219","zip_code":"472222","city_code":"0398","name":"\u5357\u77f3\u6865\u6751\u6751\u59d4\u4f1a","short_name":"\u5357\u77f3\u6865\u6751","merger_name":"\u6cb3\u5357,\u4e09\u95e8\u5ce1,\u5362\u6c0f,\u6587\u5cea,\u5357\u77f3\u6865\u6751","pinyin":"NanShiQiaoCun","lng":"111.087800","lat":"34.030670"},{"id":404084,"parent_id":404064,"level":4,"area_code":"411224200220","zip_code":"472222","city_code":"0398","name":"\u7a91\u5b50\u6c9f\u6751\u6751\u59d4\u4f1a","short_name":"\u7a91\u5b50\u6c9f\u6751","merger_name":"\u6cb3\u5357,\u4e09\u95e8\u5ce1,\u5362\u6c0f,\u6587\u5cea,\u7a91\u5b50\u6c9f\u6751","pinyin":"YaoZiGouCun","lng":"111.050033","lat":"34.057745"},{"id":404085,"parent_id":404064,"level":4,"area_code":"411224200221","zip_code":"472299","city_code":"0398","name":"\u83e0\u83dc\u6c9f\u6751\u6751\u59d4\u4f1a","short_name":"\u83e0\u83dc\u6c9f\u6751","merger_name":"\u6cb3\u5357,\u4e09\u95e8\u5ce1,\u5362\u6c0f,\u6587\u5cea,\u83e0\u83dc\u6c9f\u6751","pinyin":"BoCaiGouCun","lng":"111.160520","lat":"33.976020"},{"id":404086,"parent_id":404064,"level":4,"area_code":"411224200222","zip_code":"472222","city_code":"0398","name":"\u9999\u5b50\u576a\u6751\u6751\u59d4\u4f1a","short_name":"\u9999\u5b50\u576a\u6751","merger_name":"\u6cb3\u5357,\u4e09\u95e8\u5ce1,\u5362\u6c0f,\u6587\u5cea,\u9999\u5b50\u576a\u6751","pinyin":"XiangZiPingCun","lng":"110.854300","lat":"34.070910"},{"id":404087,"parent_id":404064,"level":4,"area_code":"411224200223","zip_code":"472222","city_code":"0398","name":"\u901a\u6cb3\u6751\u6751\u59d4\u4f1a","short_name":"\u901a\u6cb3\u6751","merger_name":"\u6cb3\u5357,\u4e09\u95e8\u5ce1,\u5362\u6c0f,\u6587\u5cea,\u901a\u6cb3\u6751","pinyin":"TongHeCun","lng":"110.854300","lat":"34.070910"},{"id":404088,"parent_id":404064,"level":4,"area_code":"411224200224","zip_code":"472222","city_code":"0398","name":"\u78e8\u6c9f\u6751\u6c11\u59d4\u5458\u4f1a","short_name":"\u78e8\u6c9f","merger_name":"\u6cb3\u5357,\u4e09\u95e8\u5ce1,\u5362\u6c0f,\u6587\u5cea,\u78e8\u6c9f","pinyin":"MoGou","lng":"110.997740","lat":"34.074200"},{"id":404089,"parent_id":404064,"level":4,"area_code":"411224200225","zip_code":"472222","city_code":"0398","name":"\u5047\u6c99\u722c\u6751\u6751\u59d4\u4f1a","short_name":"\u5047\u6c99\u722c\u6751","merger_name":"\u6cb3\u5357,\u4e09\u95e8\u5ce1,\u5362\u6c0f,\u6587\u5cea,\u5047\u6c99\u722c\u6751","pinyin":"JiaShaPaCun","lng":"110.854300","lat":"34.070910"},{"id":404090,"parent_id":404064,"level":4,"area_code":"411224200226","zip_code":"472222","city_code":"0398","name":"\u5f20\u524d\u6c9f\u6751\u6751\u59d4\u4f1a","short_name":"\u5f20\u524d\u6c9f\u6751","merger_name":"\u6cb3\u5357,\u4e09\u95e8\u5ce1,\u5362\u6c0f,\u6587\u5cea,\u5f20\u524d\u6c9f\u6751","pinyin":"ZhangQianGouCun","lng":"110.854300","lat":"34.070910"},{"id":404091,"parent_id":404064,"level":4,"area_code":"411224200227","zip_code":"472222","city_code":"0398","name":"\u7070\u5806\u77f3\u6751\u6751\u59d4\u4f1a","short_name":"\u7070\u5806\u77f3\u6751","merger_name":"\u6cb3\u5357,\u4e09\u95e8\u5ce1,\u5362\u6c0f,\u6587\u5cea,\u7070\u5806\u77f3\u6751","pinyin":"HuiDuiShiCun","lng":"111.050033","lat":"34.057745"},{"id":404092,"parent_id":404064,"level":4,"area_code":"411224200228","zip_code":"472222","city_code":"0398","name":"\u7164\u6c9f\u53e3\u6751\u6751\u59d4\u4f1a","short_name":"\u7164\u6c9f\u53e3\u6751","merger_name":"\u6cb3\u5357,\u4e09\u95e8\u5ce1,\u5362\u6c0f,\u6587\u5cea,\u7164\u6c9f\u53e3\u6751","pinyin":"MeiGouKouCun","lng":"110.854300","lat":"34.070910"},{"id":404093,"parent_id":404064,"level":4,"area_code":"411224200229","zip_code":"472222","city_code":"0398","name":"\u5927\u77f3\u6cb3\u6751\u6751\u59d4\u4f1a","short_name":"\u5927\u77f3\u6cb3\u6751","merger_name":"\u6cb3\u5357,\u4e09\u95e8\u5ce1,\u5362\u6c0f,\u6587\u5cea,\u5927\u77f3\u6cb3\u6751","pinyin":"DaShiHeCun","lng":"111.050033","lat":"34.057745"},{"id":404094,"parent_id":404064,"level":4,"area_code":"411224200230","zip_code":"472222","city_code":"0398","name":"\u5e72\u6c9f\u6751\u6751\u59d4\u4f1a","short_name":"\u5e72\u6c9f\u6751","merger_name":"\u6cb3\u5357,\u4e09\u95e8\u5ce1,\u5362\u6c0f,\u6587\u5cea,\u5e72\u6c9f\u6751","pinyin":"GanGouCun","lng":"111.050033","lat":"34.057745"},{"id":404095,"parent_id":404064,"level":4,"area_code":"411224200231","zip_code":"472222","city_code":"0398","name":"\u5927\u6851\u6c9f\u6751\u6751\u59d4\u4f1a","short_name":"\u5927\u6851\u6c9f\u6751","merger_name":"\u6cb3\u5357,\u4e09\u95e8\u5ce1,\u5362\u6c0f,\u6587\u5cea,\u5927\u6851\u6c9f\u6751","pinyin":"DaSangGouCun","lng":"110.854300","lat":"34.070910"},{"id":404096,"parent_id":404064,"level":4,"area_code":"411224200232","zip_code":"472222","city_code":"0398","name":"\u6587\u5cea\u6751\u6751\u59d4\u4f1a","short_name":"\u6587\u5cea\u6751","merger_name":"\u6cb3\u5357,\u4e09\u95e8\u5ce1,\u5362\u6c0f,\u6587\u5cea,\u6587\u5cea\u6751","pinyin":"WenYuCun","lng":"111.050033","lat":"34.057745"},{"id":404097,"parent_id":403857,"level":3,"area_code":"411224201000","zip_code":"472223","city_code":"0398","name":"\u6a2a\u6da7\u4e61","short_name":"\u6a2a\u6da7","merger_name":"\u6cb3\u5357,\u4e09\u95e8\u5ce1,\u5362\u6c0f,\u6a2a\u6da7","pinyin":"HengJian","lng":"111.015790","lat":"33.962110"},{"id":404098,"parent_id":404097,"level":4,"area_code":"411224201200","zip_code":"472223","city_code":"0398","name":"\u6a2a\u6da7\u6751\u6751\u59d4\u4f1a","short_name":"\u6a2a\u6da7\u6751","merger_name":"\u6cb3\u5357,\u4e09\u95e8\u5ce1,\u5362\u6c0f,\u6a2a\u6da7,\u6a2a\u6da7\u6751","pinyin":"HengJianCun","lng":"110.679800","lat":"34.548010"},{"id":404099,"parent_id":404097,"level":4,"area_code":"411224201202","zip_code":"472223","city_code":"0398","name":"\u5bfa\u4e0a\u6751\u6751\u59d4\u4f1a","short_name":"\u5bfa\u4e0a\u6751","merger_name":"\u6cb3\u5357,\u4e09\u95e8\u5ce1,\u5362\u6c0f,\u6a2a\u6da7,\u5bfa\u4e0a\u6751","pinyin":"SiShangCun","lng":"110.962850","lat":"33.971770"},{"id":404100,"parent_id":404097,"level":4,"area_code":"411224201203","zip_code":"472223","city_code":"0398","name":"\u8463\u5bb6\u6751\u6751\u59d4\u4f1a","short_name":"\u8463\u5bb6\u6751","merger_name":"\u6cb3\u5357,\u4e09\u95e8\u5ce1,\u5362\u6c0f,\u6a2a\u6da7,\u8463\u5bb6\u6751","pinyin":"DongJiaCun","lng":"110.991860","lat":"33.904990"},{"id":404101,"parent_id":404097,"level":4,"area_code":"411224201204","zip_code":"472223","city_code":"0398","name":"\u9648\u5bb6\u580e\u6751\u6c11\u59d4\u5458\u4f1a","short_name":"\u9648\u5bb6\u580e","merger_name":"\u6cb3\u5357,\u4e09\u95e8\u5ce1,\u5362\u6c0f,\u6a2a\u6da7,\u9648\u5bb6\u580e","pinyin":"ChenJiaLeng","lng":"111.021800","lat":"33.958227"},{"id":404102,"parent_id":404097,"level":4,"area_code":"411224201205","zip_code":"472223","city_code":"0398","name":"\u897f\u803f\u5bb6\u6751\u6c11\u59d4\u5458\u4f1a","short_name":"\u897f\u803f\u5bb6","merger_name":"\u6cb3\u5357,\u4e09\u95e8\u5ce1,\u5362\u6c0f,\u6a2a\u6da7,\u897f\u803f\u5bb6","pinyin":"XiGengJia","lng":"110.991860","lat":"33.904990"},{"id":404103,"parent_id":404097,"level":4,"area_code":"411224201206","zip_code":"472223","city_code":"0398","name":"\u755c\u7267\u6751\u6751\u59d4\u4f1a","short_name":"\u755c\u7267\u6751","merger_name":"\u6cb3\u5357,\u4e09\u95e8\u5ce1,\u5362\u6c0f,\u6a2a\u6da7,\u755c\u7267\u6751","pinyin":"XuMuCun","lng":"110.854300","lat":"34.070910"},{"id":404104,"parent_id":404097,"level":4,"area_code":"411224201207","zip_code":"472223","city_code":"0398","name":"\u6866\u680e\u6811\u6751\u6c11\u59d4\u5458\u4f1a","short_name":"\u6866\u680e\u6811","merger_name":"\u6cb3\u5357,\u4e09\u95e8\u5ce1,\u5362\u6c0f,\u6a2a\u6da7,\u6866\u680e\u6811","pinyin":"HuaLiShu","lng":"110.991860","lat":"33.904990"},{"id":404105,"parent_id":404097,"level":4,"area_code":"411224201208","zip_code":"472223","city_code":"0398","name":"\u6de4\u6ce5\u6cb3\u6751\u6c11\u59d4\u5458\u4f1a","short_name":"\u6de4\u6ce5\u6cb3","merger_name":"\u6cb3\u5357,\u4e09\u95e8\u5ce1,\u5362\u6c0f,\u6a2a\u6da7,\u6de4\u6ce5\u6cb3","pinyin":"YuNiHe","lng":"110.985625","lat":"33.931846"},{"id":404106,"parent_id":404097,"level":4,"area_code":"411224201209","zip_code":"472223","city_code":"0398","name":"\u848b\u69fd\u6751\u6c11\u59d4\u5458\u4f1a","short_name":"\u848b\u69fd","merger_name":"\u6cb3\u5357,\u4e09\u95e8\u5ce1,\u5362\u6c0f,\u6a2a\u6da7,\u848b\u69fd","pinyin":"JiangCao","lng":"110.982390","lat":"33.960390"},{"id":404107,"parent_id":404097,"level":4,"area_code":"411224201210","zip_code":"472299","city_code":"0398","name":"\u4e0b\u67f3\u6751\u6751\u59d4\u4f1a","short_name":"\u4e0b\u67f3\u6751","merger_name":"\u6cb3\u5357,\u4e09\u95e8\u5ce1,\u5362\u6c0f,\u6a2a\u6da7,\u4e0b\u67f3\u6751","pinyin":"XiaLiuCun","lng":"110.998420","lat":"33.994420"},{"id":404108,"parent_id":404097,"level":4,"area_code":"411224201211","zip_code":"472223","city_code":"0398","name":"\u767d\u571f\u5761\u6751\u6751\u59d4\u4f1a","short_name":"\u767d\u571f\u5761\u6751","merger_name":"\u6cb3\u5357,\u4e09\u95e8\u5ce1,\u5362\u6c0f,\u6a2a\u6da7,\u767d\u571f\u5761\u6751","pinyin":"BaiTuPoCun","lng":"110.854300","lat":"34.070910"},{"id":404109,"parent_id":404097,"level":4,"area_code":"411224201212","zip_code":"472223","city_code":"0398","name":"\u675c\u5bb6\u5cad\u6751\u6751\u59d4\u4f1a","short_name":"\u675c\u5bb6\u5cad\u6751","merger_name":"\u6cb3\u5357,\u4e09\u95e8\u5ce1,\u5362\u6c0f,\u6a2a\u6da7,\u675c\u5bb6\u5cad\u6751","pinyin":"DuJiaLingCun","lng":"110.854300","lat":"34.070910"},{"id":404110,"parent_id":404097,"level":4,"area_code":"411224201213","zip_code":"472223","city_code":"0398","name":"\u4e03\u5bf8\u6751\u6751\u59d4\u4f1a","short_name":"\u4e03\u5bf8\u6751","merger_name":"\u6cb3\u5357,\u4e09\u95e8\u5ce1,\u5362\u6c0f,\u6a2a\u6da7,\u4e03\u5bf8\u6751","pinyin":"QiCunCun","lng":"110.847698","lat":"34.514467"},{"id":404111,"parent_id":404097,"level":4,"area_code":"411224201214","zip_code":"472223","city_code":"0398","name":"\u8f66\u5382\u6751\u6c11\u59d4\u5458\u4f1a","short_name":"\u8f66\u5382","merger_name":"\u6cb3\u5357,\u4e09\u95e8\u5ce1,\u5362\u6c0f,\u6a2a\u6da7,\u8f66\u5382","pinyin":"CheChang","lng":"110.679800","lat":"34.548010"},{"id":404112,"parent_id":404097,"level":4,"area_code":"411224201215","zip_code":"472223","city_code":"0398","name":"\u718a\u8033\u6751\u6751\u59d4\u4f1a","short_name":"\u718a\u8033\u6751","merger_name":"\u6cb3\u5357,\u4e09\u95e8\u5ce1,\u5362\u6c0f,\u6a2a\u6da7,\u718a\u8033\u6751","pinyin":"XiongErCun","lng":"110.854300","lat":"34.070910"},{"id":404113,"parent_id":404097,"level":4,"area_code":"411224201216","zip_code":"472223","city_code":"0398","name":"\u5434\u5bb6\u6751\u6751\u59d4\u4f1a","short_name":"\u5434\u5bb6\u6751","merger_name":"\u6cb3\u5357,\u4e09\u95e8\u5ce1,\u5362\u6c0f,\u6a2a\u6da7,\u5434\u5bb6\u6751","pinyin":"WuJiaCun","lng":"110.991860","lat":"33.904990"},{"id":404114,"parent_id":404097,"level":4,"area_code":"411224201217","zip_code":"472299","city_code":"0398","name":"\u6797\u573a\u6751\u6751\u59d4\u4f1a","short_name":"\u6797\u573a\u6751","merger_name":"\u6cb3\u5357,\u4e09\u95e8\u5ce1,\u5362\u6c0f,\u6a2a\u6da7,\u6797\u573a\u6751","pinyin":"LinChangCun","lng":"110.962850","lat":"33.971770"},{"id":404115,"parent_id":404097,"level":4,"area_code":"411224201218","zip_code":"472299","city_code":"0398","name":"\u8425\u5b50\u6751\u6751\u59d4\u4f1a","short_name":"\u8425\u5b50\u6751","merger_name":"\u6cb3\u5357,\u4e09\u95e8\u5ce1,\u5362\u6c0f,\u6a2a\u6da7,\u8425\u5b50\u6751","pinyin":"YingZiCun","lng":"111.043930","lat":"34.026010"},{"id":404116,"parent_id":404097,"level":4,"area_code":"411224201219","zip_code":"472299","city_code":"0398","name":"\u7167\u6751\u6751\u59d4\u4f1a","short_name":"\u7167\u6751","merger_name":"\u6cb3\u5357,\u4e09\u95e8\u5ce1,\u5362\u6c0f,\u6a2a\u6da7,\u7167\u6751","pinyin":"ZhaoCun","lng":"110.679800","lat":"34.548010"},{"id":404117,"parent_id":404097,"level":4,"area_code":"411224201220","zip_code":"472299","city_code":"0398","name":"\u8859\u524d\u6751\u6751\u59d4\u4f1a","short_name":"\u8859\u524d\u6751","merger_name":"\u6cb3\u5357,\u4e09\u95e8\u5ce1,\u5362\u6c0f,\u6a2a\u6da7,\u8859\u524d\u6751","pinyin":"YaQianCun","lng":"110.854300","lat":"34.070910"},{"id":404118,"parent_id":404097,"level":4,"area_code":"411224201221","zip_code":"472299","city_code":"0398","name":"\u96f7\u5bb6\u6751\u6751\u59d4\u4f1a","short_name":"\u96f7\u5bb6\u6751","merger_name":"\u6cb3\u5357,\u4e09\u95e8\u5ce1,\u5362\u6c0f,\u6a2a\u6da7,\u96f7\u5bb6\u6751","pinyin":"LeiJiaCun","lng":"111.044970","lat":"34.048670"},{"id":404119,"parent_id":404097,"level":4,"area_code":"411224201222","zip_code":"472299","city_code":"0398","name":"\u4ee3\u5bb6\u6751\u6c11\u59d4\u5458\u4f1a","short_name":"\u4ee3\u5bb6","merger_name":"\u6cb3\u5357,\u4e09\u95e8\u5ce1,\u5362\u6c0f,\u6a2a\u6da7,\u4ee3\u5bb6","pinyin":"DaiJia","lng":"111.015710","lat":"33.962330"},{"id":404120,"parent_id":404097,"level":4,"area_code":"411224201223","zip_code":"472299","city_code":"0398","name":"\u5927\u6751\u6751\u59d4\u4f1a","short_name":"\u5927\u6751","merger_name":"\u6cb3\u5357,\u4e09\u95e8\u5ce1,\u5362\u6c0f,\u6a2a\u6da7,\u5927\u6751","pinyin":"DaCun","lng":"110.962850","lat":"33.971770"},{"id":404121,"parent_id":404097,"level":4,"area_code":"411224201224","zip_code":"472223","city_code":"0398","name":"\u859b\u5bb6\u6c9f\u6751\u6751\u59d4\u4f1a","short_name":"\u859b\u5bb6\u6c9f\u6751","merger_name":"\u6cb3\u5357,\u4e09\u95e8\u5ce1,\u5362\u6c0f,\u6a2a\u6da7,\u859b\u5bb6\u6c9f\u6751","pinyin":"XueJiaGouCun","lng":"110.854300","lat":"34.070910"},{"id":404122,"parent_id":404097,"level":4,"area_code":"411224201225","zip_code":"472299","city_code":"0398","name":"?\u6c9f\u6751\u6c11\u59d4\u5458\u4f1a","short_name":"?\u6c9f","merger_name":"\u6cb3\u5357,\u4e09\u95e8\u5ce1,\u5362\u6c0f,\u6a2a\u6da7,?\u6c9f","pinyin":"Gou","lng":"111.054340","lat":"34.710840"},{"id":404123,"parent_id":404097,"level":4,"area_code":"411224201226","zip_code":"472299","city_code":"0398","name":"\u9a6c\u7a91\u6751\u6751\u59d4\u4f1a","short_name":"\u9a6c\u7a91\u6751","merger_name":"\u6cb3\u5357,\u4e09\u95e8\u5ce1,\u5362\u6c0f,\u6a2a\u6da7,\u9a6c\u7a91\u6751","pinyin":"MaYaoCun","lng":"110.854300","lat":"34.070910"},{"id":404124,"parent_id":404097,"level":4,"area_code":"411224201227","zip_code":"472223","city_code":"0398","name":"\u5927\u5e72\u6751\u6751\u59d4\u4f1a","short_name":"\u5927\u5e72\u6751","merger_name":"\u6cb3\u5357,\u4e09\u95e8\u5ce1,\u5362\u6c0f,\u6a2a\u6da7,\u5927\u5e72\u6751","pinyin":"DaGanCun","lng":"110.854300","lat":"34.070910"},{"id":404125,"parent_id":404097,"level":4,"area_code":"411224201228","zip_code":"472223","city_code":"0398","name":"\u9752\u5c71\u6751\u6751\u59d4\u4f1a","short_name":"\u9752\u5c71\u6751","merger_name":"\u6cb3\u5357,\u4e09\u95e8\u5ce1,\u5362\u6c0f,\u6a2a\u6da7,\u9752\u5c71\u6751","pinyin":"QingShanCun","lng":"111.058630","lat":"33.956790"},{"id":404126,"parent_id":404097,"level":4,"area_code":"411224201229","zip_code":"472223","city_code":"0398","name":"\u78be\u76d8\u6751\u6751\u59d4\u4f1a","short_name":"\u78be\u76d8\u6751","merger_name":"\u6cb3\u5357,\u4e09\u95e8\u5ce1,\u5362\u6c0f,\u6a2a\u6da7,\u78be\u76d8\u6751","pinyin":"NianPanCun","lng":"110.854300","lat":"34.070910"},{"id":404127,"parent_id":404097,"level":4,"area_code":"411224201230","zip_code":"472223","city_code":"0398","name":"\u9a6c\u5e84\u6751\u6c11\u59d4\u5458\u4f1a","short_name":"\u9a6c\u5e84","merger_name":"\u6cb3\u5357,\u4e09\u95e8\u5ce1,\u5362\u6c0f,\u6a2a\u6da7,\u9a6c\u5e84","pinyin":"MaZhuang","lng":"111.058630","lat":"33.956790"},{"id":404128,"parent_id":404097,"level":4,"area_code":"411224201231","zip_code":"472223","city_code":"0398","name":"\u77f3\u67a3\u6cb3\u6751\u6751\u59d4\u4f1a","short_name":"\u77f3\u67a3\u6cb3\u6751","merger_name":"\u6cb3\u5357,\u4e09\u95e8\u5ce1,\u5362\u6c0f,\u6a2a\u6da7,\u77f3\u67a3\u6cb3\u6751","pinyin":"ShiZaoHeCun","lng":"110.854300","lat":"34.070910"},{"id":404129,"parent_id":404097,"level":4,"area_code":"411224201232","zip_code":"472223","city_code":"0398","name":"\u97e9\u5bb6\u5c71\u6751\u6751\u59d4\u4f1a","short_name":"\u97e9\u5bb6\u5c71\u6751","merger_name":"\u6cb3\u5357,\u4e09\u95e8\u5ce1,\u5362\u6c0f,\u6a2a\u6da7,\u97e9\u5bb6\u5c71\u6751","pinyin":"HanJiaShanCun","lng":"111.076960","lat":"33.986480"},{"id":404130,"parent_id":403857,"level":3,"area_code":"411224203000","zip_code":"472234","city_code":"0398","name":"\u53cc\u69d0\u6811\u4e61","short_name":"\u53cc\u69d0\u6811","merger_name":"\u6cb3\u5357,\u4e09\u95e8\u5ce1,\u5362\u6c0f,\u53cc\u69d0\u6811","pinyin":"ShuangHuaiShu","lng":"110.948980","lat":"33.817900"},{"id":404131,"parent_id":404130,"level":4,"area_code":"411224203200","zip_code":"472234","city_code":"0398","name":"\u53cc\u69d0\u6811\u6751\u6751\u59d4\u4f1a","short_name":"\u53cc\u69d0\u6811\u6751","merger_name":"\u6cb3\u5357,\u4e09\u95e8\u5ce1,\u5362\u6c0f,\u53cc\u69d0\u6811,\u53cc\u69d0\u6811\u6751","pinyin":"ShuangHuaiShuCun","lng":"110.932590","lat":"33.825320"},{"id":404132,"parent_id":404130,"level":4,"area_code":"411224203201","zip_code":"472234","city_code":"0398","name":"\u5e86\u5bb6\u6c9f\u6751\u6751\u59d4\u4f1a","short_name":"\u5e86\u5bb6\u6c9f\u6751","merger_name":"\u6cb3\u5357,\u4e09\u95e8\u5ce1,\u5362\u6c0f,\u53cc\u69d0\u6811,\u5e86\u5bb6\u6c9f\u6751","pinyin":"QingJiaGouCun","lng":"110.932590","lat":"33.825320"},{"id":404133,"parent_id":404130,"level":4,"area_code":"411224203202","zip_code":"472234","city_code":"0398","name":"\u77f3\u95e8\u6751\u6751\u59d4\u4f1a","short_name":"\u77f3\u95e8\u6751","merger_name":"\u6cb3\u5357,\u4e09\u95e8\u5ce1,\u5362\u6c0f,\u53cc\u69d0\u6811,\u77f3\u95e8\u6751","pinyin":"ShiMenCun","lng":"110.932590","lat":"33.825320"},{"id":404134,"parent_id":404130,"level":4,"area_code":"411224203203","zip_code":"472234","city_code":"0398","name":"\u897f\u8304\u6751\u6c11\u59d4\u5458\u4f1a","short_name":"\u897f\u8304","merger_name":"\u6cb3\u5357,\u4e09\u95e8\u5ce1,\u5362\u6c0f,\u53cc\u69d0\u6811,\u897f\u8304","pinyin":"XiJia","lng":"110.947640","lat":"33.849340"},{"id":404135,"parent_id":404130,"level":4,"area_code":"411224203204","zip_code":"472234","city_code":"0398","name":"\u4e1c\u6843\u82b1\u6751\u6751\u59d4\u4f1a","short_name":"\u4e1c\u6843\u82b1\u6751","merger_name":"\u6cb3\u5357,\u4e09\u95e8\u5ce1,\u5362\u6c0f,\u53cc\u69d0\u6811,\u4e1c\u6843\u82b1\u6751","pinyin":"DongTaoHuaCun","lng":"110.932590","lat":"33.825320"},{"id":404136,"parent_id":404130,"level":4,"area_code":"411224203205","zip_code":"472234","city_code":"0398","name":"\u4e2d\u6843\u82b1\u6751\u6751\u59d4\u4f1a","short_name":"\u4e2d\u6843\u82b1\u6751","merger_name":"\u6cb3\u5357,\u4e09\u95e8\u5ce1,\u5362\u6c0f,\u53cc\u69d0\u6811,\u4e2d\u6843\u82b1\u6751","pinyin":"ZhongTaoHuaCun","lng":"110.932590","lat":"33.825320"},{"id":404137,"parent_id":404130,"level":4,"area_code":"411224203206","zip_code":"472234","city_code":"0398","name":"\u897f\u6843\u82b1\u6751\u6751\u59d4\u4f1a","short_name":"\u897f\u6843\u82b1\u6751","merger_name":"\u6cb3\u5357,\u4e09\u95e8\u5ce1,\u5362\u6c0f,\u53cc\u69d0\u6811,\u897f\u6843\u82b1\u6751","pinyin":"XiTaoHuaCun","lng":"110.932590","lat":"33.825320"},{"id":404138,"parent_id":404130,"level":4,"area_code":"411224203207","zip_code":"472234","city_code":"0398","name":"\u9999\u5c71\u6751\u6751\u59d4\u4f1a","short_name":"\u9999\u5c71\u6751","merger_name":"\u6cb3\u5357,\u4e09\u95e8\u5ce1,\u5362\u6c0f,\u53cc\u69d0\u6811,\u9999\u5c71\u6751","pinyin":"XiangShanCun","lng":"110.932590","lat":"33.825320"},{"id":404139,"parent_id":404130,"level":4,"area_code":"411224203208","zip_code":"472234","city_code":"0398","name":"\u5bfa\u5408\u9662\u6751\u6751\u59d4\u4f1a","short_name":"\u5bfa\u5408\u9662\u6751","merger_name":"\u6cb3\u5357,\u4e09\u95e8\u5ce1,\u5362\u6c0f,\u53cc\u69d0\u6811,\u5bfa\u5408\u9662\u6751","pinyin":"SiHeYuanCun","lng":"110.932590","lat":"33.825320"},{"id":404140,"parent_id":404130,"level":4,"area_code":"411224203209","zip_code":"472234","city_code":"0398","name":"\u4e1c\u5ddd\u6751\u6751\u59d4\u4f1a","short_name":"\u4e1c\u5ddd\u6751","merger_name":"\u6cb3\u5357,\u4e09\u95e8\u5ce1,\u5362\u6c0f,\u53cc\u69d0\u6811,\u4e1c\u5ddd\u6751","pinyin":"DongChuanCun","lng":"110.932590","lat":"33.825320"},{"id":404141,"parent_id":404130,"level":4,"area_code":"411224203210","zip_code":"472234","city_code":"0398","name":"\u897f\u5ddd\u6751\u6751\u59d4\u4f1a","short_name":"\u897f\u5ddd\u6751","merger_name":"\u6cb3\u5357,\u4e09\u95e8\u5ce1,\u5362\u6c0f,\u53cc\u69d0\u6811,\u897f\u5ddd\u6751","pinyin":"XiChuanCun","lng":"110.854300","lat":"34.070910"},{"id":404142,"parent_id":404130,"level":4,"area_code":"411224203211","zip_code":"472234","city_code":"0398","name":"\u5317\u5ddd\u6751\u6751\u59d4\u4f1a","short_name":"\u5317\u5ddd\u6751","merger_name":"\u6cb3\u5357,\u4e09\u95e8\u5ce1,\u5362\u6c0f,\u53cc\u69d0\u6811,\u5317\u5ddd\u6751","pinyin":"BeiChuanCun","lng":"110.932590","lat":"33.825320"},{"id":404143,"parent_id":403857,"level":3,"area_code":"411224204000","zip_code":"472231","city_code":"0398","name":"\u6c64\u6cb3\u4e61","short_name":"\u6c64\u6cb3","merger_name":"\u6cb3\u5357,\u4e09\u95e8\u5ce1,\u5362\u6c0f,\u6c64\u6cb3","pinyin":"TangHe","lng":"111.121450","lat":"33.840420"},{"id":404144,"parent_id":404143,"level":4,"area_code":"411224204200","zip_code":"472231","city_code":"0398","name":"\u6c64\u6cb3\u6751\u6751\u59d4\u4f1a","short_name":"\u6c64\u6cb3\u6751","merger_name":"\u6cb3\u5357,\u4e09\u95e8\u5ce1,\u5362\u6c0f,\u6c64\u6cb3,\u6c64\u6cb3\u6751","pinyin":"TangHeCun","lng":"111.121460","lat":"33.838720"},{"id":404145,"parent_id":404143,"level":4,"area_code":"411224204201","zip_code":"472231","city_code":"0398","name":"\u68a7\u9e23\u6c9f\u6751\u6751\u59d4\u4f1a","short_name":"\u68a7\u9e23\u6c9f\u6751","merger_name":"\u6cb3\u5357,\u4e09\u95e8\u5ce1,\u5362\u6c0f,\u6c64\u6cb3,\u68a7\u9e23\u6c9f\u6751","pinyin":"WuMingGouCun","lng":"111.094350","lat":"33.818800"},{"id":404146,"parent_id":404143,"level":4,"area_code":"411224204202","zip_code":"472231","city_code":"0398","name":"\u6cb3\u53e3\u6751\u6751\u59d4\u4f1a","short_name":"\u6cb3\u53e3\u6751","merger_name":"\u6cb3\u5357,\u4e09\u95e8\u5ce1,\u5362\u6c0f,\u6c64\u6cb3,\u6cb3\u53e3\u6751","pinyin":"HeKouCun","lng":"111.121460","lat":"33.838720"},{"id":404147,"parent_id":404143,"level":4,"area_code":"411224204203","zip_code":"472231","city_code":"0398","name":"\u9ad8\u6c9f\u53e3\u6751\u6751\u59d4\u4f1a","short_name":"\u9ad8\u6c9f\u53e3\u6751","merger_name":"\u6cb3\u5357,\u4e09\u95e8\u5ce1,\u5362\u6c0f,\u6c64\u6cb3,\u9ad8\u6c9f\u53e3\u6751","pinyin":"GaoGouKouCun","lng":"111.127330","lat":"33.853250"},{"id":404148,"parent_id":404143,"level":4,"area_code":"411224204204","zip_code":"472231","city_code":"0398","name":"\u9ad8\u6c9f\u6751\u6751\u59d4\u4f1a","short_name":"\u9ad8\u6c9f\u6751","merger_name":"\u6cb3\u5357,\u4e09\u95e8\u5ce1,\u5362\u6c0f,\u6c64\u6cb3,\u9ad8\u6c9f\u6751","pinyin":"GaoGouCun","lng":"111.679660","lat":"34.636990"},{"id":404149,"parent_id":404143,"level":4,"area_code":"411224204205","zip_code":"472231","city_code":"0398","name":"\u4e49\u8282\u6c9f\u6751\u6751\u59d4\u4f1a","short_name":"\u4e49\u8282\u6c9f\u6751","merger_name":"\u6cb3\u5357,\u4e09\u95e8\u5ce1,\u5362\u6c0f,\u6c64\u6cb3,\u4e49\u8282\u6c9f\u6751","pinyin":"YiJieGouCun","lng":"111.097220","lat":"33.854300"},{"id":404150,"parent_id":404143,"level":4,"area_code":"411224204206","zip_code":"472231","city_code":"0398","name":"\u5927\u576a\u6751\u6751\u59d4\u4f1a","short_name":"\u5927\u576a\u6751","merger_name":"\u6cb3\u5357,\u4e09\u95e8\u5ce1,\u5362\u6c0f,\u6c64\u6cb3,\u5927\u576a\u6751","pinyin":"DaPingCun","lng":"111.155720","lat":"33.836010"},{"id":404151,"parent_id":404143,"level":4,"area_code":"411224204207","zip_code":"472231","city_code":"0398","name":"\u6768\u5bb6\u5e84\u6751\u6c11\u59d4\u5458\u4f1a","short_name":"\u6768\u5bb6\u5e84","merger_name":"\u6cb3\u5357,\u4e09\u95e8\u5ce1,\u5362\u6c0f,\u6c64\u6cb3,\u6768\u5bb6\u5e84","pinyin":"YangJiaZhuang","lng":"111.204990","lat":"33.847220"},{"id":404152,"parent_id":404143,"level":4,"area_code":"411224204208","zip_code":"472231","city_code":"0398","name":"\u80e1\u82a6\u5634\u6751\u6c11\u59d4\u5458\u4f1a","short_name":"\u80e1\u82a6\u5634","merger_name":"\u6cb3\u5357,\u4e09\u95e8\u5ce1,\u5362\u6c0f,\u6c64\u6cb3,\u80e1\u82a6\u5634","pinyin":"HuLuZui","lng":"111.121460","lat":"33.838720"},{"id":404153,"parent_id":404143,"level":4,"area_code":"411224204209","zip_code":"472231","city_code":"0398","name":"\u4f4e\u91cc\u576a\u6751\u6751\u59d4\u4f1a","short_name":"\u4f4e\u91cc\u576a\u6751","merger_name":"\u6cb3\u5357,\u4e09\u95e8\u5ce1,\u5362\u6c0f,\u6c64\u6cb3,\u4f4e\u91cc\u576a\u6751","pinyin":"DiLiPingCun","lng":"110.989950","lat":"33.653310"},{"id":404154,"parent_id":404143,"level":4,"area_code":"411224204210","zip_code":"472231","city_code":"0398","name":"\u9ad8\u91cc\u576a\u6751\u6751\u59d4\u4f1a","short_name":"\u9ad8\u91cc\u576a\u6751","merger_name":"\u6cb3\u5357,\u4e09\u95e8\u5ce1,\u5362\u6c0f,\u6c64\u6cb3,\u9ad8\u91cc\u576a\u6751","pinyin":"GaoLiPingCun","lng":"111.192600","lat":"33.891530"},{"id":404155,"parent_id":404143,"level":4,"area_code":"411224204211","zip_code":"472231","city_code":"0398","name":"\u5c0f\u6c9f\u6cb3\u6751\u6751\u59d4\u4f1a","short_name":"\u5c0f\u6c9f\u6cb3\u6751","merger_name":"\u6cb3\u5357,\u4e09\u95e8\u5ce1,\u5362\u6c0f,\u6c64\u6cb3,\u5c0f\u6c9f\u6cb3\u6751","pinyin":"XiaoGouHeCun","lng":"111.205230","lat":"33.847180"},{"id":404156,"parent_id":404143,"level":4,"area_code":"411224204212","zip_code":"472231","city_code":"0398","name":"\u67f4\u5bb6\u6c9f\u6751\u6c11\u59d4\u5458\u4f1a","short_name":"\u67f4\u5bb6\u6c9f","merger_name":"\u6cb3\u5357,\u4e09\u95e8\u5ce1,\u5362\u6c0f,\u6c64\u6cb3,\u67f4\u5bb6\u6c9f","pinyin":"ChaiJiaGou","lng":"111.212920","lat":"33.847250"},{"id":404157,"parent_id":404143,"level":4,"area_code":"411224204213","zip_code":"472231","city_code":"0398","name":"\u9b4f\u738b\u576a\u6751\u6c11\u59d4\u5458\u4f1a","short_name":"\u9b4f\u738b\u576a","merger_name":"\u6cb3\u5357,\u4e09\u95e8\u5ce1,\u5362\u6c0f,\u6c64\u6cb3,\u9b4f\u738b\u576a","pinyin":"WeiWangPing","lng":"111.118080","lat":"33.798730"},{"id":404158,"parent_id":403857,"level":3,"area_code":"411224205000","zip_code":"472233","city_code":"0398","name":"\u74e6\u7a91\u6c9f\u4e61","short_name":"\u74e6\u7a91\u6c9f","merger_name":"\u6cb3\u5357,\u4e09\u95e8\u5ce1,\u5362\u6c0f,\u74e6\u7a91\u6c9f","pinyin":"WaYaoGou","lng":"111.056440","lat":"33.660870"},{"id":404159,"parent_id":404158,"level":4,"area_code":"411224205200","zip_code":"472233","city_code":"0398","name":"\u74e6\u7a91\u6c9f\u6751\u6751\u59d4\u4f1a","short_name":"\u74e6\u7a91\u6c9f\u6751","merger_name":"\u6cb3\u5357,\u4e09\u95e8\u5ce1,\u5362\u6c0f,\u74e6\u7a91\u6c9f,\u74e6\u7a91\u6c9f\u6751","pinyin":"WaYaoGouCun","lng":"111.056440","lat":"33.660870"},{"id":404160,"parent_id":404158,"level":4,"area_code":"411224205201","zip_code":"472233","city_code":"0398","name":"\u897f\u5927\u576a\u6751\u6c11\u59d4\u5458\u4f1a","short_name":"\u897f\u5927\u576a","merger_name":"\u6cb3\u5357,\u4e09\u95e8\u5ce1,\u5362\u6c0f,\u74e6\u7a91\u6c9f,\u897f\u5927\u576a","pinyin":"XiDaPing","lng":"111.007730","lat":"33.730310"},{"id":404161,"parent_id":404158,"level":4,"area_code":"411224205202","zip_code":"472233","city_code":"0398","name":"\u97e9\u5e84\u6751\u6751\u59d4\u4f1a","short_name":"\u97e9\u5e84\u6751","merger_name":"\u6cb3\u5357,\u4e09\u95e8\u5ce1,\u5362\u6c0f,\u74e6\u7a91\u6c9f,\u97e9\u5e84\u6751","pinyin":"HanZhuangCun","lng":"111.056440","lat":"33.660870"},{"id":404162,"parent_id":404158,"level":4,"area_code":"411224205203","zip_code":"472233","city_code":"0398","name":"\u803f\u5bb6\u5e97\u6751\u6751\u59d4\u4f1a","short_name":"\u803f\u5bb6\u5e97\u6751","merger_name":"\u6cb3\u5357,\u4e09\u95e8\u5ce1,\u5362\u6c0f,\u74e6\u7a91\u6c9f,\u803f\u5bb6\u5e97\u6751","pinyin":"GengJiaDianCun","lng":"111.056440","lat":"33.660870"},{"id":404163,"parent_id":404158,"level":4,"area_code":"411224205204","zip_code":"472233","city_code":"0398","name":"\u91d1\u5e84\u6751\u6751\u59d4\u4f1a","short_name":"\u91d1\u5e84\u6751","merger_name":"\u6cb3\u5357,\u4e09\u95e8\u5ce1,\u5362\u6c0f,\u74e6\u7a91\u6c9f,\u91d1\u5e84\u6751","pinyin":"JinZhuangCun","lng":"111.056440","lat":"33.660870"},{"id":404164,"parent_id":404158,"level":4,"area_code":"411224205205","zip_code":"472233","city_code":"0398","name":"\u5e99\u4e0a\u6751\u6751\u59d4\u4f1a","short_name":"\u5e99\u4e0a\u6751","merger_name":"\u6cb3\u5357,\u4e09\u95e8\u5ce1,\u5362\u6c0f,\u74e6\u7a91\u6c9f,\u5e99\u4e0a\u6751","pinyin":"MiaoShangCun","lng":"110.481470","lat":"34.574300"},{"id":404165,"parent_id":404158,"level":4,"area_code":"411224205206","zip_code":"472233","city_code":"0398","name":"\u4ee3\u67cf\u6751\u6751\u59d4\u4f1a","short_name":"\u4ee3\u67cf\u6751","merger_name":"\u6cb3\u5357,\u4e09\u95e8\u5ce1,\u5362\u6c0f,\u74e6\u7a91\u6c9f,\u4ee3\u67cf\u6751","pinyin":"DaiBaiCun","lng":"111.064830","lat":"33.641850"},{"id":404166,"parent_id":404158,"level":4,"area_code":"411224205207","zip_code":"472233","city_code":"0398","name":"\u4e0a\u6cb3\u6751\u6751\u59d4\u4f1a","short_name":"\u4e0a\u6cb3\u6751","merger_name":"\u6cb3\u5357,\u4e09\u95e8\u5ce1,\u5362\u6c0f,\u74e6\u7a91\u6c9f,\u4e0a\u6cb3\u6751","pinyin":"ShangHeCun","lng":"110.854300","lat":"34.070910"},{"id":404167,"parent_id":404158,"level":4,"area_code":"411224205208","zip_code":"472233","city_code":"0398","name":"\u91cc\u66fc\u576a\u6751\u6751\u59d4\u4f1a","short_name":"\u91cc\u66fc\u576a\u6751","merger_name":"\u6cb3\u5357,\u4e09\u95e8\u5ce1,\u5362\u6c0f,\u74e6\u7a91\u6c9f,\u91cc\u66fc\u576a\u6751","pinyin":"LiManPingCun","lng":"110.982150","lat":"33.650580"},{"id":404168,"parent_id":404158,"level":4,"area_code":"411224205209","zip_code":"472233","city_code":"0398","name":"\u4e0b\u6cb3\u6751\u6751\u59d4\u4f1a","short_name":"\u4e0b\u6cb3\u6751","merger_name":"\u6cb3\u5357,\u4e09\u95e8\u5ce1,\u5362\u6c0f,\u74e6\u7a91\u6c9f,\u4e0b\u6cb3\u6751","pinyin":"XiaHeCun","lng":"111.056440","lat":"33.660870"},{"id":404169,"parent_id":404158,"level":4,"area_code":"411224205210","zip_code":"472233","city_code":"0398","name":"\u9f99\u6cc9\u576a\u6751\u6751\u59d4\u4f1a","short_name":"\u9f99\u6cc9\u576a\u6751","merger_name":"\u6cb3\u5357,\u4e09\u95e8\u5ce1,\u5362\u6c0f,\u74e6\u7a91\u6c9f,\u9f99\u6cc9\u576a\u6751","pinyin":"LongQuanPingCun","lng":"111.034708","lat":"33.599955"},{"id":404170,"parent_id":404158,"level":4,"area_code":"411224205211","zip_code":"472233","city_code":"0398","name":"\u80e1\u5bb6\u576a\u6751\u6751\u59d4\u4f1a","short_name":"\u80e1\u5bb6\u576a\u6751","merger_name":"\u6cb3\u5357,\u4e09\u95e8\u5ce1,\u5362\u6c0f,\u74e6\u7a91\u6c9f,\u80e1\u5bb6\u576a\u6751","pinyin":"HuJiaPingCun","lng":"111.037390","lat":"33.586530"},{"id":404171,"parent_id":404158,"level":4,"area_code":"411224205212","zip_code":"472233","city_code":"0398","name":"\u9ad8\u6cb3\u6751\u6751\u59d4\u4f1a","short_name":"\u9ad8\u6cb3\u6751","merger_name":"\u6cb3\u5357,\u4e09\u95e8\u5ce1,\u5362\u6c0f,\u74e6\u7a91\u6c9f,\u9ad8\u6cb3\u6751","pinyin":"GaoHeCun","lng":"111.056440","lat":"33.660870"},{"id":404172,"parent_id":404158,"level":4,"area_code":"411224205213","zip_code":"472233","city_code":"0398","name":"\u89c2\u6c9f\u6751\u6751\u59d4\u4f1a","short_name":"\u89c2\u6c9f\u6751","merger_name":"\u6cb3\u5357,\u4e09\u95e8\u5ce1,\u5362\u6c0f,\u74e6\u7a91\u6c9f,\u89c2\u6c9f\u6751","pinyin":"GuanGouCun","lng":"111.056440","lat":"33.660870"},{"id":404173,"parent_id":403857,"level":3,"area_code":"411224206000","zip_code":"472235","city_code":"0398","name":"\u72ee\u5b50\u576a\u4e61","short_name":"\u72ee\u5b50\u576a","merger_name":"\u6cb3\u5357,\u4e09\u95e8\u5ce1,\u5362\u6c0f,\u72ee\u5b50\u576a","pinyin":"ShiZiPing","lng":"110.875580","lat":"33.788530"},{"id":404174,"parent_id":404173,"level":4,"area_code":"411224206200","zip_code":"472235","city_code":"0398","name":"\u72ee\u5b50\u576a\u6751\u6751\u59d4\u4f1a","short_name":"\u72ee\u5b50\u576a\u6751","merger_name":"\u6cb3\u5357,\u4e09\u95e8\u5ce1,\u5362\u6c0f,\u72ee\u5b50\u576a,\u72ee\u5b50\u576a\u6751","pinyin":"ShiZiPingCun","lng":"110.875220","lat":"33.787360"},{"id":404175,"parent_id":404173,"level":4,"area_code":"411224206201","zip_code":"472235","city_code":"0398","name":"\u4e09\u5c94\u6751\u6c11\u59d4\u5458\u4f1a","short_name":"\u4e09\u5c94","merger_name":"\u6cb3\u5357,\u4e09\u95e8\u5ce1,\u5362\u6c0f,\u72ee\u5b50\u576a,\u4e09\u5c94","pinyin":"SanCha","lng":"111.054340","lat":"34.710840"},{"id":404176,"parent_id":404173,"level":4,"area_code":"411224206202","zip_code":"472235","city_code":"0398","name":"\u6768\u5e84\u6751\u6751\u59d4\u4f1a","short_name":"\u6768\u5e84\u6751","merger_name":"\u6cb3\u5357,\u4e09\u95e8\u5ce1,\u5362\u6c0f,\u72ee\u5b50\u576a,\u6768\u5e84\u6751","pinyin":"YangZhuangCun","lng":"110.807824","lat":"33.817981"},{"id":404177,"parent_id":404173,"level":4,"area_code":"411224206203","zip_code":"472235","city_code":"0398","name":"\u82b1\u56ed\u5bfa\u6751\u6751\u59d4\u4f1a","short_name":"\u82b1\u56ed\u5bfa\u6751","merger_name":"\u6cb3\u5357,\u4e09\u95e8\u5ce1,\u5362\u6c0f,\u72ee\u5b50\u576a,\u82b1\u56ed\u5bfa\u6751","pinyin":"HuaYuanSiCun","lng":"110.875220","lat":"33.787360"},{"id":404178,"parent_id":404173,"level":4,"area_code":"411224206204","zip_code":"472235","city_code":"0398","name":"\u9ec4\u67cf\u6c9f\u6751\u6751\u59d4\u4f1a","short_name":"\u9ec4\u67cf\u6c9f\u6751","merger_name":"\u6cb3\u5357,\u4e09\u95e8\u5ce1,\u5362\u6c0f,\u72ee\u5b50\u576a,\u9ec4\u67cf\u6c9f\u6751","pinyin":"HuangBoGouCun","lng":"110.935260","lat":"33.716110"},{"id":404179,"parent_id":404173,"level":4,"area_code":"411224206205","zip_code":"472235","city_code":"0398","name":"\u4e0b\u5e84\u79d1\u6751\u6751\u59d4\u4f1a","short_name":"\u4e0b\u5e84\u79d1\u6751","merger_name":"\u6cb3\u5357,\u4e09\u95e8\u5ce1,\u5362\u6c0f,\u72ee\u5b50\u576a,\u4e0b\u5e84\u79d1\u6751","pinyin":"XiaZhuangKeCun","lng":"110.854300","lat":"34.070910"},{"id":404180,"parent_id":404173,"level":4,"area_code":"411224206206","zip_code":"472235","city_code":"0398","name":"\u4e1c\u6c9f\u6751\u6751\u59d4\u4f1a","short_name":"\u4e1c\u6c9f\u6751","merger_name":"\u6cb3\u5357,\u4e09\u95e8\u5ce1,\u5362\u6c0f,\u72ee\u5b50\u576a,\u4e1c\u6c9f\u6751","pinyin":"DongGouCun","lng":"110.807824","lat":"33.817981"},{"id":404181,"parent_id":404173,"level":4,"area_code":"411224206207","zip_code":"472235","city_code":"0398","name":"\u94b1\u5e84\u6751\u6c11\u59d4\u5458\u4f1a","short_name":"\u94b1\u5e84","merger_name":"\u6cb3\u5357,\u4e09\u95e8\u5ce1,\u5362\u6c0f,\u72ee\u5b50\u576a,\u94b1\u5e84","pinyin":"QianZhuang","lng":"111.225200","lat":"34.783520"},{"id":404182,"parent_id":404173,"level":4,"area_code":"411224206208","zip_code":"472235","city_code":"0398","name":"\u6bdb\u6cb3\u6751\u6751\u59d4\u4f1a","short_name":"\u6bdb\u6cb3\u6751","merger_name":"\u6cb3\u5357,\u4e09\u95e8\u5ce1,\u5362\u6c0f,\u72ee\u5b50\u576a,\u6bdb\u6cb3\u6751","pinyin":"MaoHeCun","lng":"110.878610","lat":"33.660820"},{"id":404183,"parent_id":404173,"level":4,"area_code":"411224206209","zip_code":"472235","city_code":"0398","name":"\u989c\u5b50\u6cb3\u6751\u6751\u59d4\u4f1a","short_name":"\u989c\u5b50\u6cb3\u6751","merger_name":"\u6cb3\u5357,\u4e09\u95e8\u5ce1,\u5362\u6c0f,\u72ee\u5b50\u576a,\u989c\u5b50\u6cb3\u6751","pinyin":"YanZiHeCun","lng":"110.854300","lat":"34.070910"},{"id":404184,"parent_id":404173,"level":4,"area_code":"411224206210","zip_code":"472235","city_code":"0398","name":"\u67f3\u6811\u6e7e\u6751\u6751\u59d4\u4f1a","short_name":"\u67f3\u6811\u6e7e\u6751","merger_name":"\u6cb3\u5357,\u4e09\u95e8\u5ce1,\u5362\u6c0f,\u72ee\u5b50\u576a,\u67f3\u6811\u6e7e\u6751","pinyin":"LiuShuWanCun","lng":"110.854300","lat":"34.070910"},{"id":404185,"parent_id":403857,"level":3,"area_code":"411224207000","zip_code":"472245","city_code":"0398","name":"\u6c99\u6cb3\u4e61","short_name":"\u6c99\u6cb3","merger_name":"\u6cb3\u5357,\u4e09\u95e8\u5ce1,\u5362\u6c0f,\u6c99\u6cb3","pinyin":"ShaHe","lng":"110.953770","lat":"34.076890"},{"id":404186,"parent_id":404185,"level":4,"area_code":"411224207200","zip_code":"472245","city_code":"0398","name":"\u6c99\u6cb3\u6751\u6751\u59d4\u4f1a","short_name":"\u6c99\u6cb3\u6751","merger_name":"\u6cb3\u5357,\u4e09\u95e8\u5ce1,\u5362\u6c0f,\u6c99\u6cb3,\u6c99\u6cb3\u6751","pinyin":"ShaHeCun","lng":"110.997740","lat":"34.074200"},{"id":404187,"parent_id":404185,"level":4,"area_code":"411224207201","zip_code":"472299","city_code":"0398","name":"\u9a6c\u5bb6\u6751\u6751\u59d4\u4f1a","short_name":"\u9a6c\u5bb6\u6751","merger_name":"\u6cb3\u5357,\u4e09\u95e8\u5ce1,\u5362\u6c0f,\u6c99\u6cb3,\u9a6c\u5bb6\u6751","pinyin":"MaJiaCun","lng":"110.997740","lat":"34.074200"},{"id":404188,"parent_id":404185,"level":4,"area_code":"411224207202","zip_code":"472299","city_code":"0398","name":"\u5f20\u5bb6\u6751\u6751\u59d4\u4f1a","short_name":"\u5f20\u5bb6\u6751","merger_name":"\u6cb3\u5357,\u4e09\u95e8\u5ce1,\u5362\u6c0f,\u6c99\u6cb3,\u5f20\u5bb6\u6751","pinyin":"ZhangJiaCun","lng":"110.997740","lat":"34.074200"},{"id":404189,"parent_id":404185,"level":4,"area_code":"411224207203","zip_code":"472245","city_code":"0398","name":"\u6768\u5bb6\u6751\u6751\u59d4\u4f1a","short_name":"\u6768\u5bb6\u6751","merger_name":"\u6cb3\u5357,\u4e09\u95e8\u5ce1,\u5362\u6c0f,\u6c99\u6cb3,\u6768\u5bb6\u6751","pinyin":"YangJiaCun","lng":"110.953770","lat":"34.076890"},{"id":404190,"parent_id":404185,"level":4,"area_code":"411224207204","zip_code":"472245","city_code":"0398","name":"\u5317\u5e84\u6751\u6751\u59d4\u4f1a","short_name":"\u5317\u5e84\u6751","merger_name":"\u6cb3\u5357,\u4e09\u95e8\u5ce1,\u5362\u6c0f,\u6c99\u6cb3,\u5317\u5e84\u6751","pinyin":"BeiZhuangCun","lng":"110.953770","lat":"34.076890"},{"id":404191,"parent_id":404185,"level":4,"area_code":"411224207205","zip_code":"472245","city_code":"0398","name":"\u8303\u5bb6\u9a7c\u6751\u6c11\u59d4\u5458\u4f1a","short_name":"\u8303\u5bb6\u9a7c","merger_name":"\u6cb3\u5357,\u4e09\u95e8\u5ce1,\u5362\u6c0f,\u6c99\u6cb3,\u8303\u5bb6\u9a7c","pinyin":"FanJiaTuo","lng":"111.217750","lat":"34.028690"},{"id":404192,"parent_id":404185,"level":4,"area_code":"411224207206","zip_code":"472245","city_code":"0398","name":"\u5bfa\u6c9f\u6751\u6751\u59d4\u4f1a","short_name":"\u5bfa\u6c9f\u6751","merger_name":"\u6cb3\u5357,\u4e09\u95e8\u5ce1,\u5362\u6c0f,\u6c99\u6cb3,\u5bfa\u6c9f\u6751","pinyin":"SiGouCun","lng":"110.909230","lat":"34.144500"},{"id":404193,"parent_id":404185,"level":4,"area_code":"411224207207","zip_code":"472245","city_code":"0398","name":"\u8f9b\u5bb6\u6751\u6c11\u59d4\u5458\u4f1a","short_name":"\u8f9b\u5bb6","merger_name":"\u6cb3\u5357,\u4e09\u95e8\u5ce1,\u5362\u6c0f,\u6c99\u6cb3,\u8f9b\u5bb6","pinyin":"XinJia","lng":"110.997740","lat":"34.074200"},{"id":404194,"parent_id":404185,"level":4,"area_code":"411224207208","zip_code":"472245","city_code":"0398","name":"\u53cc\u5e99\u6751\u6751\u59d4\u4f1a","short_name":"\u53cc\u5e99\u6751","merger_name":"\u6cb3\u5357,\u4e09\u95e8\u5ce1,\u5362\u6c0f,\u6c99\u6cb3,\u53cc\u5e99\u6751","pinyin":"ShuangMiaoCun","lng":"110.997740","lat":"34.074200"},{"id":404195,"parent_id":404185,"level":4,"area_code":"411224207209","zip_code":"472245","city_code":"0398","name":"\u7559\u4e66\u6751\u6751\u59d4\u4f1a","short_name":"\u7559\u4e66\u6751","merger_name":"\u6cb3\u5357,\u4e09\u95e8\u5ce1,\u5362\u6c0f,\u6c99\u6cb3,\u7559\u4e66\u6751","pinyin":"LiuShuCun","lng":"110.997740","lat":"34.074200"},{"id":404196,"parent_id":404185,"level":4,"area_code":"411224207210","zip_code":"472245","city_code":"0398","name":"\u4e09\u89d2\u6751\u6751\u59d4\u4f1a","short_name":"\u4e09\u89d2\u6751","merger_name":"\u6cb3\u5357,\u4e09\u95e8\u5ce1,\u5362\u6c0f,\u6c99\u6cb3,\u4e09\u89d2\u6751","pinyin":"SanJiaoCun","lng":"110.997740","lat":"34.074200"},{"id":404197,"parent_id":404185,"level":4,"area_code":"411224207211","zip_code":"472245","city_code":"0398","name":"\u5468\u5bb6\u6751\u6751\u59d4\u4f1a","short_name":"\u5468\u5bb6\u6751","merger_name":"\u6cb3\u5357,\u4e09\u95e8\u5ce1,\u5362\u6c0f,\u6c99\u6cb3,\u5468\u5bb6\u6751","pinyin":"ZhouJiaCun","lng":"110.953770","lat":"34.076890"},{"id":404198,"parent_id":404185,"level":4,"area_code":"411224207212","zip_code":"472245","city_code":"0398","name":"\u5b8b\u5bb6\u6751\u6751\u59d4\u4f1a","short_name":"\u5b8b\u5bb6\u6751","merger_name":"\u6cb3\u5357,\u4e09\u95e8\u5ce1,\u5362\u6c0f,\u6c99\u6cb3,\u5b8b\u5bb6\u6751","pinyin":"SongJiaCun","lng":"110.997740","lat":"34.074200"},{"id":404199,"parent_id":404185,"level":4,"area_code":"411224207213","zip_code":"472245","city_code":"0398","name":"\u5927\u738b\u6751\u6c11\u59d4\u5458\u4f1a","short_name":"\u5927\u738b","merger_name":"\u6cb3\u5357,\u4e09\u95e8\u5ce1,\u5362\u6c0f,\u6c99\u6cb3,\u5927\u738b","pinyin":"DaiWang","lng":"110.997740","lat":"34.074200"},{"id":404200,"parent_id":404185,"level":4,"area_code":"411224207214","zip_code":"472245","city_code":"0398","name":"\u5be8\u5b50\u6e7e\u6751\u6c11\u59d4\u5458\u4f1a","short_name":"\u5be8\u5b50\u6e7e","merger_name":"\u6cb3\u5357,\u4e09\u95e8\u5ce1,\u5362\u6c0f,\u6c99\u6cb3,\u5be8\u5b50\u6e7e","pinyin":"ZhaiZiWan","lng":"110.997740","lat":"34.074200"},{"id":404201,"parent_id":404185,"level":4,"area_code":"411224207215","zip_code":"472245","city_code":"0398","name":"\u679c\u89d2\u6751\u6751\u59d4\u4f1a","short_name":"\u679c\u89d2\u6751","merger_name":"\u6cb3\u5357,\u4e09\u95e8\u5ce1,\u5362\u6c0f,\u6c99\u6cb3,\u679c\u89d2\u6751","pinyin":"GuoJiaoCun","lng":"110.997740","lat":"34.074200"},{"id":404202,"parent_id":404185,"level":4,"area_code":"411224207216","zip_code":"472245","city_code":"0398","name":"\u989c\u4e1c\u6751\u6c11\u59d4\u5458\u4f1a","short_name":"\u989c\u4e1c","merger_name":"\u6cb3\u5357,\u4e09\u95e8\u5ce1,\u5362\u6c0f,\u6c99\u6cb3,\u989c\u4e1c","pinyin":"YanDong","lng":"110.997740","lat":"34.074200"},{"id":404203,"parent_id":403857,"level":3,"area_code":"411224208000","zip_code":"472242","city_code":"0398","name":"\u5f90\u5bb6\u6e7e\u4e61","short_name":"\u5f90\u5bb6\u6e7e","merger_name":"\u6cb3\u5357,\u4e09\u95e8\u5ce1,\u5362\u6c0f,\u5f90\u5bb6\u6e7e","pinyin":"XuJiaWan","lng":"110.767210","lat":"33.989250"},{"id":404204,"parent_id":404203,"level":4,"area_code":"411224208200","zip_code":"472242","city_code":"0398","name":"\u5f90\u5bb6\u6e7e\u6751\u6751\u59d4\u4f1a","short_name":"\u5f90\u5bb6\u6e7e\u6751","merger_name":"\u6cb3\u5357,\u4e09\u95e8\u5ce1,\u5362\u6c0f,\u5f90\u5bb6\u6e7e,\u5f90\u5bb6\u6e7e\u6751","pinyin":"XuJiaWanCun","lng":"110.766820","lat":"33.988110"},{"id":404205,"parent_id":404203,"level":4,"area_code":"411224208201","zip_code":"472242","city_code":"0398","name":"\u4e30\u592a\u6751\u6751\u59d4\u4f1a","short_name":"\u4e30\u592a\u6751","merger_name":"\u6cb3\u5357,\u4e09\u95e8\u5ce1,\u5362\u6c0f,\u5f90\u5bb6\u6e7e,\u4e30\u592a\u6751","pinyin":"FengTaiCun","lng":"110.766820","lat":"33.988110"},{"id":404206,"parent_id":404203,"level":4,"area_code":"411224208202","zip_code":"472242","city_code":"0398","name":"\u77f3\u65ad\u6cb3\u6751\u6751\u59d4\u4f1a","short_name":"\u77f3\u65ad\u6cb3\u6751","merger_name":"\u6cb3\u5357,\u4e09\u95e8\u5ce1,\u5362\u6c0f,\u5f90\u5bb6\u6e7e,\u77f3\u65ad\u6cb3\u6751","pinyin":"ShiDuanHeCun","lng":"110.766820","lat":"33.988110"},{"id":404207,"parent_id":404203,"level":4,"area_code":"411224208203","zip_code":"472242","city_code":"0398","name":"\u6850\u6728\u6c9f\u6751\u6751\u59d4\u4f1a","short_name":"\u6850\u6728\u6c9f\u6751","merger_name":"\u6cb3\u5357,\u4e09\u95e8\u5ce1,\u5362\u6c0f,\u5f90\u5bb6\u6e7e,\u6850\u6728\u6c9f\u6751","pinyin":"TongMuGouCun","lng":"110.766820","lat":"33.988110"},{"id":404208,"parent_id":404203,"level":4,"area_code":"411224208204","zip_code":"472242","city_code":"0398","name":"\u5f90\u5e84\u6751\u6751\u59d4\u4f1a","short_name":"\u5f90\u5e84\u6751","merger_name":"\u6cb3\u5357,\u4e09\u95e8\u5ce1,\u5362\u6c0f,\u5f90\u5bb6\u6e7e,\u5f90\u5e84\u6751","pinyin":"XuZhuangCun","lng":"110.766820","lat":"33.988110"},{"id":404209,"parent_id":404203,"level":4,"area_code":"411224208205","zip_code":"472242","city_code":"0398","name":"\u5e72\u6c9f\u6751\u6751\u59d4\u4f1a","short_name":"\u5e72\u6c9f\u6751","merger_name":"\u6cb3\u5357,\u4e09\u95e8\u5ce1,\u5362\u6c0f,\u5f90\u5bb6\u6e7e,\u5e72\u6c9f\u6751","pinyin":"GanGouCun","lng":"110.766820","lat":"33.988110"},{"id":404210,"parent_id":404203,"level":4,"area_code":"411224208206","zip_code":"472242","city_code":"0398","name":"\u826f\u6728\u6751\u6751\u59d4\u4f1a","short_name":"\u826f\u6728\u6751","merger_name":"\u6cb3\u5357,\u4e09\u95e8\u5ce1,\u5362\u6c0f,\u5f90\u5bb6\u6e7e,\u826f\u6728\u6751","pinyin":"LiangMuCun","lng":"110.854300","lat":"34.070910"},{"id":404211,"parent_id":404203,"level":4,"area_code":"411224208207","zip_code":"472242","city_code":"0398","name":"\u677e\u6728\u6751\u6751\u59d4\u4f1a","short_name":"\u677e\u6728\u6751","merger_name":"\u6cb3\u5357,\u4e09\u95e8\u5ce1,\u5362\u6c0f,\u5f90\u5bb6\u6e7e,\u677e\u6728\u6751","pinyin":"SongMuCun","lng":"110.854300","lat":"34.070910"},{"id":404212,"parent_id":404203,"level":4,"area_code":"411224208208","zip_code":"472242","city_code":"0398","name":"\u9ec4\u5bb6\u6e7e\u6751\u6c11\u59d4\u5458\u4f1a","short_name":"\u9ec4\u5bb6\u6e7e","merger_name":"\u6cb3\u5357,\u4e09\u95e8\u5ce1,\u5362\u6c0f,\u5f90\u5bb6\u6e7e,\u9ec4\u5bb6\u6e7e","pinyin":"HuangJiaWan","lng":"110.766820","lat":"33.988110"},{"id":404213,"parent_id":404203,"level":4,"area_code":"411224208209","zip_code":"472242","city_code":"0398","name":"\u5c0f\u6cb3\u53e3\u6751\u6c11\u59d4\u5458\u4f1a","short_name":"\u5c0f\u6cb3\u53e3","merger_name":"\u6cb3\u5357,\u4e09\u95e8\u5ce1,\u5362\u6c0f,\u5f90\u5bb6\u6e7e,\u5c0f\u6cb3\u53e3","pinyin":"XiaoHeKou","lng":"110.766820","lat":"33.988110"},{"id":404214,"parent_id":404203,"level":4,"area_code":"411224208210","zip_code":"472242","city_code":"0398","name":"\u9ccc\u5bb6\u6751\u6c11\u59d4\u5458\u4f1a","short_name":"\u9ccc\u5bb6","merger_name":"\u6cb3\u5357,\u4e09\u95e8\u5ce1,\u5362\u6c0f,\u5f90\u5bb6\u6e7e,\u9ccc\u5bb6","pinyin":"AoJia","lng":"110.766820","lat":"33.988110"},{"id":404215,"parent_id":403857,"level":3,"area_code":"411224209000","zip_code":"472244","city_code":"0398","name":"\u6f58\u6cb3\u4e61","short_name":"\u6f58\u6cb3","merger_name":"\u6cb3\u5357,\u4e09\u95e8\u5ce1,\u5362\u6c0f,\u6f58\u6cb3","pinyin":"PanHe","lng":"110.836110","lat":"34.084930"},{"id":404216,"parent_id":404215,"level":4,"area_code":"411224209200","zip_code":"472244","city_code":"0398","name":"\u6f58\u6cb3\u6751\u6751\u59d4\u4f1a","short_name":"\u6f58\u6cb3\u6751","merger_name":"\u6cb3\u5357,\u4e09\u95e8\u5ce1,\u5362\u6c0f,\u6f58\u6cb3,\u6f58\u6cb3\u6751","pinyin":"PanHeCun","lng":"110.854300","lat":"34.070910"},{"id":404217,"parent_id":404215,"level":4,"area_code":"411224209201","zip_code":"472244","city_code":"0398","name":"\u5362\u6c0f\u6c9f\u6751\u6751\u59d4\u4f1a","short_name":"\u5362\u6c0f\u6c9f\u6751","merger_name":"\u6cb3\u5357,\u4e09\u95e8\u5ce1,\u5362\u6c0f,\u6f58\u6cb3,\u5362\u6c0f\u6c9f\u6751","pinyin":"LuShiGouCun","lng":"111.048331","lat":"33.750037"},{"id":404218,"parent_id":404215,"level":4,"area_code":"411224209202","zip_code":"472244","city_code":"0398","name":"\u4e0b\u6cb3\u6751\u6751\u59d4\u4f1a","short_name":"\u4e0b\u6cb3\u6751","merger_name":"\u6cb3\u5357,\u4e09\u95e8\u5ce1,\u5362\u6c0f,\u6f58\u6cb3,\u4e0b\u6cb3\u6751","pinyin":"XiaHeCun","lng":"110.854300","lat":"34.070910"},{"id":404219,"parent_id":404215,"level":4,"area_code":"411224209203","zip_code":"472244","city_code":"0398","name":"\u4e0a\u5ddd\u6751\u6751\u59d4\u4f1a","short_name":"\u4e0a\u5ddd\u6751","merger_name":"\u6cb3\u5357,\u4e09\u95e8\u5ce1,\u5362\u6c0f,\u6f58\u6cb3,\u4e0a\u5ddd\u6751","pinyin":"ShangChuanCun","lng":"110.854300","lat":"34.070910"},{"id":404220,"parent_id":404215,"level":4,"area_code":"411224209204","zip_code":"472244","city_code":"0398","name":"\u7816\u697c\u6751\u6751\u59d4\u4f1a","short_name":"\u7816\u697c\u6751","merger_name":"\u6cb3\u5357,\u4e09\u95e8\u5ce1,\u5362\u6c0f,\u6f58\u6cb3,\u7816\u697c\u6751","pinyin":"ZhuanLouCun","lng":"110.854300","lat":"34.070910"},{"id":404221,"parent_id":404215,"level":4,"area_code":"411224209205","zip_code":"472235","city_code":"0398","name":"\u5c71\u5c94\u6751\u6751\u59d4\u4f1a","short_name":"\u5c71\u5c94\u6751","merger_name":"\u6cb3\u5357,\u4e09\u95e8\u5ce1,\u5362\u6c0f,\u6f58\u6cb3,\u5c71\u5c94\u6751","pinyin":"ShanChaCun","lng":"110.854300","lat":"34.070910"},{"id":404222,"parent_id":404215,"level":4,"area_code":"411224209206","zip_code":"472244","city_code":"0398","name":"\u4e1c\u6cb3\u6751\u6751\u59d4\u4f1a","short_name":"\u4e1c\u6cb3\u6751","merger_name":"\u6cb3\u5357,\u4e09\u95e8\u5ce1,\u5362\u6c0f,\u6f58\u6cb3,\u4e1c\u6cb3\u6751","pinyin":"DongHeCun","lng":"110.854300","lat":"34.070910"},{"id":404223,"parent_id":404215,"level":4,"area_code":"411224209207","zip_code":"472244","city_code":"0398","name":"\u897f\u6cb3\u6751\u6751\u59d4\u4f1a","short_name":"\u897f\u6cb3\u6751","merger_name":"\u6cb3\u5357,\u4e09\u95e8\u5ce1,\u5362\u6c0f,\u6f58\u6cb3,\u897f\u6cb3\u6751","pinyin":"XiHeCun","lng":"110.854300","lat":"34.070910"},{"id":404224,"parent_id":404215,"level":4,"area_code":"411224209208","zip_code":"472244","city_code":"0398","name":"\u82b1\u9a6c\u6751\u6751\u59d4\u4f1a","short_name":"\u82b1\u9a6c\u6751","merger_name":"\u6cb3\u5357,\u4e09\u95e8\u5ce1,\u5362\u6c0f,\u6f58\u6cb3,\u82b1\u9a6c\u6751","pinyin":"HuaMaCun","lng":"110.847698","lat":"34.514467"},{"id":404225,"parent_id":404215,"level":4,"area_code":"411224209209","zip_code":"472244","city_code":"0398","name":"\u4e24\u5c94\u53e3\u6751\u6c11\u59d4\u5458\u4f1a","short_name":"\u4e24\u5c94\u53e3","merger_name":"\u6cb3\u5357,\u4e09\u95e8\u5ce1,\u5362\u6c0f,\u6f58\u6cb3,\u4e24\u5c94\u53e3","pinyin":"LiangChaKou","lng":"110.890700","lat":"34.076760"},{"id":404226,"parent_id":404215,"level":4,"area_code":"411224209210","zip_code":"472244","city_code":"0398","name":"\u9ec4\u53f6\u6751\u6751\u59d4\u4f1a","short_name":"\u9ec4\u53f6\u6751","merger_name":"\u6cb3\u5357,\u4e09\u95e8\u5ce1,\u5362\u6c0f,\u6f58\u6cb3,\u9ec4\u53f6\u6751","pinyin":"HuangYeCun","lng":"110.854300","lat":"34.070910"},{"id":404227,"parent_id":404215,"level":4,"area_code":"411224209211","zip_code":"472244","city_code":"0398","name":"\u4e0b\u9ec4\u53f6\u6751\u6751\u59d4\u4f1a","short_name":"\u4e0b\u9ec4\u53f6\u6751","merger_name":"\u6cb3\u5357,\u4e09\u95e8\u5ce1,\u5362\u6c0f,\u6f58\u6cb3,\u4e0b\u9ec4\u53f6\u6751","pinyin":"XiaHuangYeCun","lng":"110.854300","lat":"34.070910"},{"id":404228,"parent_id":404215,"level":4,"area_code":"411224209212","zip_code":"472244","city_code":"0398","name":"\u5c97\u5934\u6751\u6751\u59d4\u4f1a","short_name":"\u5c97\u5934\u6751","merger_name":"\u6cb3\u5357,\u4e09\u95e8\u5ce1,\u5362\u6c0f,\u6f58\u6cb3,\u5c97\u5934\u6751","pinyin":"GangTouCun","lng":"110.854300","lat":"34.070910"},{"id":404229,"parent_id":404215,"level":4,"area_code":"411224209213","zip_code":"472244","city_code":"0398","name":"\u6885\u5bb6\u6751\u6751\u59d4\u4f1a","short_name":"\u6885\u5bb6\u6751","merger_name":"\u6cb3\u5357,\u4e09\u95e8\u5ce1,\u5362\u6c0f,\u6f58\u6cb3,\u6885\u5bb6\u6751","pinyin":"MeiJiaCun","lng":"110.854300","lat":"34.070910"},{"id":404230,"parent_id":404215,"level":4,"area_code":"411224209214","zip_code":"472244","city_code":"0398","name":"\u9633\u5761\u6751\u6751\u59d4\u4f1a","short_name":"\u9633\u5761\u6751","merger_name":"\u6cb3\u5357,\u4e09\u95e8\u5ce1,\u5362\u6c0f,\u6f58\u6cb3,\u9633\u5761\u6751","pinyin":"YangPoCun","lng":"110.854300","lat":"34.070910"},{"id":404231,"parent_id":404215,"level":4,"area_code":"411224209215","zip_code":"472244","city_code":"0398","name":"\u524d\u576a\u6751\u6751\u59d4\u4f1a","short_name":"\u524d\u576a\u6751","merger_name":"\u6cb3\u5357,\u4e09\u95e8\u5ce1,\u5362\u6c0f,\u6f58\u6cb3,\u524d\u576a\u6751","pinyin":"QianPingCun","lng":"110.854300","lat":"34.070910"},{"id":404232,"parent_id":404215,"level":4,"area_code":"411224209216","zip_code":"472244","city_code":"0398","name":"\u6e05\u6cb3\u6751\u6751\u59d4\u4f1a","short_name":"\u6e05\u6cb3\u6751","merger_name":"\u6cb3\u5357,\u4e09\u95e8\u5ce1,\u5362\u6c0f,\u6f58\u6cb3,\u6e05\u6cb3\u6751","pinyin":"QingHeCun","lng":"110.854300","lat":"34.070910"},{"id":404233,"parent_id":403857,"level":3,"area_code":"411224210000","zip_code":"472244","city_code":"0398","name":"\u6728\u6850\u4e61","short_name":"\u6728\u6850","merger_name":"\u6cb3\u5357,\u4e09\u95e8\u5ce1,\u5362\u6c0f,\u6728\u6850","pinyin":"MuTong","lng":"110.728720","lat":"34.108510"},{"id":404234,"parent_id":404233,"level":4,"area_code":"411224210200","zip_code":"472244","city_code":"0398","name":"\u6728\u6850\u6751\u6751\u59d4\u4f1a","short_name":"\u6728\u6850\u6751","merger_name":"\u6cb3\u5357,\u4e09\u95e8\u5ce1,\u5362\u6c0f,\u6728\u6850,\u6728\u6850\u6751","pinyin":"MuTongCun","lng":"110.716689","lat":"34.105243"},{"id":404235,"parent_id":404233,"level":4,"area_code":"411224210201","zip_code":"472244","city_code":"0398","name":"\u5218\u5bb6\u6751\u6751\u59d4\u4f1a","short_name":"\u5218\u5bb6\u6751","merger_name":"\u6cb3\u5357,\u4e09\u95e8\u5ce1,\u5362\u6c0f,\u6728\u6850,\u5218\u5bb6\u6751","pinyin":"LiuJiaCun","lng":"110.716689","lat":"34.105243"},{"id":404236,"parent_id":404233,"level":4,"area_code":"411224210202","zip_code":"472244","city_code":"0398","name":"\u5f20\u5bb6\u6751\u6751\u59d4\u4f1a","short_name":"\u5f20\u5bb6\u6751","merger_name":"\u6cb3\u5357,\u4e09\u95e8\u5ce1,\u5362\u6c0f,\u6728\u6850,\u5f20\u5bb6\u6751","pinyin":"ZhangJiaCun","lng":"110.681161","lat":"34.094613"},{"id":404237,"parent_id":404233,"level":4,"area_code":"411224210203","zip_code":"472244","city_code":"0398","name":"\u62d0\u5cea\u6751\u6c11\u59d4\u5458\u4f1a","short_name":"\u62d0\u5cea","merger_name":"\u6cb3\u5357,\u4e09\u95e8\u5ce1,\u5362\u6c0f,\u6728\u6850,\u62d0\u5cea","pinyin":"GuaiYu","lng":"110.634320","lat":"34.075940"},{"id":404238,"parent_id":404233,"level":4,"area_code":"411224210204","zip_code":"472244","city_code":"0398","name":"\u4e09\u5173\u6751\u6751\u59d4\u4f1a","short_name":"\u4e09\u5173\u6751","merger_name":"\u6cb3\u5357,\u4e09\u95e8\u5ce1,\u5362\u6c0f,\u6728\u6850,\u4e09\u5173\u6751","pinyin":"SanGuanCun","lng":"110.728720","lat":"34.108510"},{"id":404239,"parent_id":404233,"level":4,"area_code":"411224210205","zip_code":"472244","city_code":"0398","name":"\u6cb3\u53e3\u8857\u6751\u6c11\u59d4\u5458\u4f1a","short_name":"\u6cb3\u53e3\u8857","merger_name":"\u6cb3\u5357,\u4e09\u95e8\u5ce1,\u5362\u6c0f,\u6728\u6850,\u6cb3\u53e3\u8857","pinyin":"HeKouJie","lng":"110.588870","lat":"34.047400"},{"id":404240,"parent_id":404233,"level":4,"area_code":"411224210206","zip_code":"472244","city_code":"0398","name":"\u7a91\u6c9f\u6751\u6751\u59d4\u4f1a","short_name":"\u7a91\u6c9f\u6751","merger_name":"\u6cb3\u5357,\u4e09\u95e8\u5ce1,\u5362\u6c0f,\u6728\u6850,\u7a91\u6c9f\u6751","pinyin":"YaoGouCun","lng":"110.854300","lat":"34.070910"},{"id":404241,"parent_id":404233,"level":4,"area_code":"411224210207","zip_code":"472244","city_code":"0398","name":"\u7075\u795e\u6751\u6751\u59d4\u4f1a","short_name":"\u7075\u795e\u6751","merger_name":"\u6cb3\u5357,\u4e09\u95e8\u5ce1,\u5362\u6c0f,\u6728\u6850,\u7075\u795e\u6751","pinyin":"LingShenCun","lng":"110.634320","lat":"34.075940"},{"id":404242,"parent_id":404233,"level":4,"area_code":"411224210208","zip_code":"472244","city_code":"0398","name":"\u9e1f\u6865\u6751\u6751\u59d4\u4f1a","short_name":"\u9e1f\u6865\u6751","merger_name":"\u6cb3\u5357,\u4e09\u95e8\u5ce1,\u5362\u6c0f,\u6728\u6850,\u9e1f\u6865\u6751","pinyin":"NiaoQiaoCun","lng":"110.728720","lat":"34.108510"},{"id":404243,"parent_id":404233,"level":4,"area_code":"411224210209","zip_code":"472244","city_code":"0398","name":"\u591c\u957f\u576a\u6751\u6c11\u59d4\u5458\u4f1a","short_name":"\u591c\u957f\u576a","merger_name":"\u6cb3\u5357,\u4e09\u95e8\u5ce1,\u5362\u6c0f,\u6728\u6850,\u591c\u957f\u576a","pinyin":"YeZhangPing","lng":"110.733920","lat":"34.061260"},{"id":404244,"parent_id":403210,"level":2,"area_code":"411271000000","zip_code":"472001","city_code":"0398","name":"\u6cb3\u5357\u4e09\u95e8\u5ce1\u7ecf\u6d4e\u5f00\u53d1\u533a","short_name":"\u6cb3\u5357\u4e09\u95e8\u5ce1\u7ecf\u6d4e\u5f00\u53d1","merger_name":"\u6cb3\u5357,\u4e09\u95e8\u5ce1,\u6cb3\u5357\u4e09\u95e8\u5ce1\u7ecf\u6d4e\u5f00\u53d1","pinyin":"HeNanSanMenXiaJingJiKaiFa","lng":"111.175283","lat":"34.796888"},{"id":404245,"parent_id":404244,"level":3,"area_code":"411271560000","zip_code":"472399","city_code":"0398","name":"\u5411\u9633\u8857\u9053","short_name":"\u5411\u9633","merger_name":"\u6cb3\u5357,\u4e09\u95e8\u5ce1,\u6cb3\u5357\u4e09\u95e8\u5ce1\u7ecf\u6d4e\u5f00\u53d1,\u5411\u9633","pinyin":"XiangYang","lng":"111.161600","lat":"34.792150"},{"id":404246,"parent_id":404245,"level":4,"area_code":"411271560200","zip_code":"472399","city_code":"0398","name":"\u5411\u9633\u6751\u59d4\u4f1a","short_name":"\u5411\u9633","merger_name":"\u6cb3\u5357,\u4e09\u95e8\u5ce1,\u6cb3\u5357\u4e09\u95e8\u5ce1\u7ecf\u6d4e\u5f00\u53d1,\u5411\u9633,\u5411\u9633","pinyin":"XiangYang","lng":"111.179489","lat":"34.792404"},{"id":404247,"parent_id":404245,"level":4,"area_code":"411271560201","zip_code":"472399","city_code":"0398","name":"\u4e09\u91cc\u6865\u6751\u59d4\u4f1a","short_name":"\u4e09\u91cc\u6865","merger_name":"\u6cb3\u5357,\u4e09\u95e8\u5ce1,\u6cb3\u5357\u4e09\u95e8\u5ce1\u7ecf\u6d4e\u5f00\u53d1,\u5411\u9633,\u4e09\u91cc\u6865","pinyin":"SanLiQiao","lng":"111.175040","lat":"34.786260"},{"id":404248,"parent_id":404245,"level":4,"area_code":"411271560202","zip_code":"472399","city_code":"0398","name":"\u540e\u5ddd\u6751\u59d4\u4f1a","short_name":"\u540e\u5ddd","merger_name":"\u6cb3\u5357,\u4e09\u95e8\u5ce1,\u6cb3\u5357\u4e09\u95e8\u5ce1\u7ecf\u6d4e\u5f00\u53d1,\u5411\u9633,\u540e\u5ddd","pinyin":"HouChuan","lng":"111.181100","lat":"34.796340"},{"id":404249,"parent_id":404245,"level":4,"area_code":"411271560204","zip_code":"472399","city_code":"0398","name":"\u5357\u5173\u6751\u59d4\u4f1a","short_name":"\u5357\u5173","merger_name":"\u6cb3\u5357,\u4e09\u95e8\u5ce1,\u6cb3\u5357\u4e09\u95e8\u5ce1\u7ecf\u6d4e\u5f00\u53d1,\u5411\u9633,\u5357\u5173","pinyin":"NanGuan","lng":"111.163590","lat":"34.789100"},{"id":404250,"parent_id":404245,"level":4,"area_code":"411271560205","zip_code":"472399","city_code":"0398","name":"\u5c71\u524d\u6751","short_name":"\u5c71\u524d\u6751","merger_name":"\u6cb3\u5357,\u4e09\u95e8\u5ce1,\u6cb3\u5357\u4e09\u95e8\u5ce1\u7ecf\u6d4e\u5f00\u53d1,\u5411\u9633,\u5c71\u524d\u6751","pinyin":"ShanQianCun","lng":"111.251750","lat":"34.770330"},{"id":404251,"parent_id":404245,"level":4,"area_code":"411271560206","zip_code":"472399","city_code":"0398","name":"\u5c71\u540e\u6751","short_name":"\u5c71\u540e\u6751","merger_name":"\u6cb3\u5357,\u4e09\u95e8\u5ce1,\u6cb3\u5357\u4e09\u95e8\u5ce1\u7ecf\u6d4e\u5f00\u53d1,\u5411\u9633,\u5c71\u540e\u6751","pinyin":"ShanHouCun","lng":"111.259180","lat":"34.773760"},{"id":404252,"parent_id":403210,"level":2,"area_code":"411281000000","zip_code":"472300","city_code":"0398","name":"\u4e49\u9a6c\u5e02","short_name":"\u4e49\u9a6c","merger_name":"\u6cb3\u5357,\u4e09\u95e8\u5ce1,\u4e49\u9a6c","pinyin":"YiMa","lng":"111.874393","lat":"34.747129"},{"id":404253,"parent_id":404252,"level":3,"area_code":"411281001000","zip_code":"472399","city_code":"0398","name":"\u5343\u79cb\u8def\u8857\u9053","short_name":"\u5343\u79cb\u8def","merger_name":"\u6cb3\u5357,\u4e09\u95e8\u5ce1,\u4e49\u9a6c,\u5343\u79cb\u8def","pinyin":"QianQiuLu","lng":"111.881510","lat":"34.731760"},{"id":404254,"parent_id":404253,"level":4,"area_code":"411281001001","zip_code":"472399","city_code":"0398","name":"\u6c11\u5b89\u793e\u533a\u5c45\u59d4\u4f1a","short_name":"\u6c11\u5b89","merger_name":"\u6cb3\u5357,\u4e09\u95e8\u5ce1,\u4e49\u9a6c,\u5343\u79cb\u8def,\u6c11\u5b89","pinyin":"MinAn","lng":"111.872270","lat":"34.744660"},{"id":404255,"parent_id":404253,"level":4,"area_code":"411281001002","zip_code":"472399","city_code":"0398","name":"\u5174\u82d1\u793e\u533a\u5c45\u59d4\u4f1a","short_name":"\u5174\u82d1","merger_name":"\u6cb3\u5357,\u4e09\u95e8\u5ce1,\u4e49\u9a6c,\u5343\u79cb\u8def,\u5174\u82d1","pinyin":"XingYuan","lng":"111.881510","lat":"34.731760"},{"id":404256,"parent_id":404253,"level":4,"area_code":"411281001003","zip_code":"472399","city_code":"0398","name":"\u82b1\u56ed\u793e\u533a\u5c45\u59d4\u4f1a","short_name":"\u82b1\u56ed","merger_name":"\u6cb3\u5357,\u4e09\u95e8\u5ce1,\u4e49\u9a6c,\u5343\u79cb\u8def,\u82b1\u56ed","pinyin":"HuaYuan","lng":"111.871600","lat":"34.747540"},{"id":404257,"parent_id":404253,"level":4,"area_code":"411281001004","zip_code":"472399","city_code":"0398","name":"\u9e3f\u5e86\u793e\u533a\u5c45\u59d4\u4f1a","short_name":"\u9e3f\u5e86","merger_name":"\u6cb3\u5357,\u4e09\u95e8\u5ce1,\u4e49\u9a6c,\u5343\u79cb\u8def,\u9e3f\u5e86","pinyin":"HongQing","lng":"111.871600","lat":"34.747540"},{"id":404258,"parent_id":404253,"level":4,"area_code":"411281001005","zip_code":"472399","city_code":"0398","name":"\u94f6\u674f\u793e\u533a\u5c45\u59d4\u4f1a","short_name":"\u94f6\u674f","merger_name":"\u6cb3\u5357,\u4e09\u95e8\u5ce1,\u4e49\u9a6c,\u5343\u79cb\u8def,\u94f6\u674f","pinyin":"YinXing","lng":"111.882890","lat":"34.738950"},{"id":404259,"parent_id":404253,"level":4,"area_code":"411281001006","zip_code":"472399","city_code":"0398","name":"\u8fde\u94f6\u793e\u533a\u5c45\u59d4\u4f1a","short_name":"\u8fde\u94f6","merger_name":"\u6cb3\u5357,\u4e09\u95e8\u5ce1,\u4e49\u9a6c,\u5343\u79cb\u8def,\u8fde\u94f6","pinyin":"LianYin","lng":"111.882890","lat":"34.738950"},{"id":404260,"parent_id":404252,"level":3,"area_code":"411281002000","zip_code":"472399","city_code":"0398","name":"\u671d\u9633\u8def\u8857\u9053","short_name":"\u671d\u9633\u8def","merger_name":"\u6cb3\u5357,\u4e09\u95e8\u5ce1,\u4e49\u9a6c,\u671d\u9633\u8def","pinyin":"ZhaoYangLu","lng":"111.926660","lat":"34.728570"},{"id":404261,"parent_id":404260,"level":4,"area_code":"411281002001","zip_code":"472399","city_code":"0398","name":"\u7ea2\u571f\u5761\u793e\u533a\u5c45\u59d4\u4f1a","short_name":"\u7ea2\u571f\u5761","merger_name":"\u6cb3\u5357,\u4e09\u95e8\u5ce1,\u4e49\u9a6c,\u671d\u9633\u8def,\u7ea2\u571f\u5761","pinyin":"HongTuPo","lng":"111.871600","lat":"34.747540"},{"id":404262,"parent_id":404260,"level":4,"area_code":"411281002002","zip_code":"472399","city_code":"0398","name":"\u524d\u8fdb\u793e\u533a\u5c45\u59d4\u4f1a","short_name":"\u524d\u8fdb","merger_name":"\u6cb3\u5357,\u4e09\u95e8\u5ce1,\u4e49\u9a6c,\u671d\u9633\u8def,\u524d\u8fdb","pinyin":"QianJin","lng":"111.871600","lat":"34.747540"},{"id":404263,"parent_id":404252,"level":3,"area_code":"411281003000","zip_code":"472399","city_code":"0398","name":"\u65b0\u4e49\u8857\u8857\u9053","short_name":"\u65b0\u4e49\u8857","merger_name":"\u6cb3\u5357,\u4e09\u95e8\u5ce1,\u4e49\u9a6c,\u65b0\u4e49\u8857","pinyin":"XinYiJie","lng":"111.885150","lat":"34.727560"},{"id":404264,"parent_id":404263,"level":4,"area_code":"411281003001","zip_code":"472399","city_code":"0398","name":"\u8dc3\u8fdb\u793e\u533a\u5c45\u59d4\u4f1a","short_name":"\u8dc3\u8fdb","merger_name":"\u6cb3\u5357,\u4e09\u95e8\u5ce1,\u4e49\u9a6c,\u65b0\u4e49\u8857,\u8dc3\u8fdb","pinyin":"YueJin","lng":"111.764733","lat":"34.761856"},{"id":404265,"parent_id":404263,"level":4,"area_code":"411281003002","zip_code":"472399","city_code":"0398","name":"\u6768\u6751\u793e\u533a\u5c45\u59d4\u4f1a","short_name":"\u6768\u6751","merger_name":"\u6cb3\u5357,\u4e09\u95e8\u5ce1,\u4e49\u9a6c,\u65b0\u4e49\u8857,\u6768\u6751","pinyin":"YangCun","lng":"111.724390","lat":"34.725750"},{"id":404266,"parent_id":404263,"level":4,"area_code":"411281003003","zip_code":"472399","city_code":"0398","name":"\u803f\u6751\u793e\u533a\u5c45\u59d4\u4f1a","short_name":"\u803f\u6751","merger_name":"\u6cb3\u5357,\u4e09\u95e8\u5ce1,\u4e49\u9a6c,\u65b0\u4e49\u8857,\u803f\u6751","pinyin":"GengCun","lng":"111.724390","lat":"34.725750"},{"id":404267,"parent_id":404252,"level":3,"area_code":"411281004000","zip_code":"472399","city_code":"0398","name":"\u5e38\u6751\u8def\u8857\u9053","short_name":"\u5e38\u6751\u8def","merger_name":"\u6cb3\u5357,\u4e09\u95e8\u5ce1,\u4e49\u9a6c,\u5e38\u6751\u8def","pinyin":"ChangCunLu","lng":"111.914275","lat":"34.712308"},{"id":404268,"parent_id":404267,"level":4,"area_code":"411281004001","zip_code":"472399","city_code":"0398","name":"\u5e38\u5b89\u793e\u533a\u5c45\u59d4\u4f1a","short_name":"\u5e38\u5b89","merger_name":"\u6cb3\u5357,\u4e09\u95e8\u5ce1,\u4e49\u9a6c,\u5e38\u6751\u8def,\u5e38\u5b89","pinyin":"ChangAn","lng":"111.882890","lat":"34.738950"},{"id":404269,"parent_id":404267,"level":4,"area_code":"411281004002","zip_code":"472399","city_code":"0398","name":"\u5e38\u82d1\u793e\u533a\u5c45\u59d4\u4f1a","short_name":"\u5e38\u82d1","merger_name":"\u6cb3\u5357,\u4e09\u95e8\u5ce1,\u4e49\u9a6c,\u5e38\u6751\u8def,\u5e38\u82d1","pinyin":"ChangYuan","lng":"111.882890","lat":"34.738950"},{"id":404270,"parent_id":404252,"level":3,"area_code":"411281005000","zip_code":"472399","city_code":"0398","name":"\u6cf0\u5c71\u8def\u8857\u9053","short_name":"\u6cf0\u5c71\u8def","merger_name":"\u6cb3\u5357,\u4e09\u95e8\u5ce1,\u4e49\u9a6c,\u6cf0\u5c71\u8def","pinyin":"TaiShanLu","lng":"111.850410","lat":"34.750720"},{"id":404271,"parent_id":404270,"level":4,"area_code":"411281005001","zip_code":"472399","city_code":"0398","name":"\u72c2\u53e3\u793e\u533a\u5c45\u59d4\u4f1a","short_name":"\u72c2\u53e3","merger_name":"\u6cb3\u5357,\u4e09\u95e8\u5ce1,\u4e49\u9a6c,\u6cf0\u5c71\u8def,\u72c2\u53e3","pinyin":"KuangKou","lng":"111.882890","lat":"34.738950"},{"id":404272,"parent_id":404270,"level":4,"area_code":"411281005002","zip_code":"472399","city_code":"0398","name":"\u6ee8\u6cb3\u793e\u533a\u5c45\u59d4\u4f1a","short_name":"\u6ee8\u6cb3","merger_name":"\u6cb3\u5357,\u4e09\u95e8\u5ce1,\u4e49\u9a6c,\u6cf0\u5c71\u8def,\u6ee8\u6cb3","pinyin":"BinHe","lng":"111.871600","lat":"34.747540"},{"id":404273,"parent_id":404252,"level":3,"area_code":"411281006000","zip_code":"472301","city_code":"0398","name":"\u65b0\u533a\u8857\u9053","short_name":"\u65b0\u533a","merger_name":"\u6cb3\u5357,\u4e09\u95e8\u5ce1,\u4e49\u9a6c,\u65b0\u533a","pinyin":"XinQu","lng":"111.878870","lat":"34.740580"},{"id":404274,"parent_id":404273,"level":4,"area_code":"411281006001","zip_code":"472399","city_code":"0398","name":"\u5343\u79cb\u793e\u533a\u5c45\u59d4\u4f1a","short_name":"\u5343\u79cb","merger_name":"\u6cb3\u5357,\u4e09\u95e8\u5ce1,\u4e49\u9a6c,\u65b0\u533a,\u5343\u79cb","pinyin":"QianQiu","lng":"111.882890","lat":"34.738950"},{"id":404275,"parent_id":404273,"level":4,"area_code":"411281006002","zip_code":"472399","city_code":"0398","name":"\u9a6c\u5cad\u793e\u533a\u5c45\u59d4\u4f1a","short_name":"\u9a6c\u5cad","merger_name":"\u6cb3\u5357,\u4e09\u95e8\u5ce1,\u4e49\u9a6c,\u65b0\u533a,\u9a6c\u5cad","pinyin":"MaLing","lng":"111.849000","lat":"34.752440"},{"id":404276,"parent_id":404273,"level":4,"area_code":"411281006003","zip_code":"472301","city_code":"0398","name":"\u793c\u53ec\u793e\u533a\u5c45\u59d4\u4f1a","short_name":"\u793c\u53ec","merger_name":"\u6cb3\u5357,\u4e09\u95e8\u5ce1,\u4e49\u9a6c,\u65b0\u533a,\u793c\u53ec","pinyin":"LiZhao","lng":"111.842490","lat":"34.731320"},{"id":404277,"parent_id":404273,"level":4,"area_code":"411281006004","zip_code":"472399","city_code":"0398","name":"\u4e8c\u5341\u94fa\u793e\u533a\u5c45\u59d4\u4f1a","short_name":"\u4e8c\u5341\u94fa","merger_name":"\u6cb3\u5357,\u4e09\u95e8\u5ce1,\u4e49\u9a6c,\u65b0\u533a,\u4e8c\u5341\u94fa","pinyin":"ErShiPu","lng":"111.852850","lat":"34.733220"},{"id":404278,"parent_id":404273,"level":4,"area_code":"411281006005","zip_code":"472399","city_code":"0398","name":"\u4e09\u5341\u94fa\u793e\u533a\u5c45\u59d4\u4f1a","short_name":"\u4e09\u5341\u94fa","merger_name":"\u6cb3\u5357,\u4e09\u95e8\u5ce1,\u4e49\u9a6c,\u65b0\u533a,\u4e09\u5341\u94fa","pinyin":"SanShiPu","lng":"111.896650","lat":"34.738470"},{"id":404279,"parent_id":404273,"level":4,"area_code":"411281006006","zip_code":"472399","city_code":"0398","name":"\u90ed\u5e84\u793e\u533a\u5c45\u59d4\u4f1a","short_name":"\u90ed\u5e84","merger_name":"\u6cb3\u5357,\u4e09\u95e8\u5ce1,\u4e49\u9a6c,\u65b0\u533a,\u90ed\u5e84","pinyin":"GuoZhuang","lng":"111.861390","lat":"34.758790"},{"id":404280,"parent_id":404273,"level":4,"area_code":"411281006007","zip_code":"472399","city_code":"0398","name":"\u4ed8\u6751\u793e\u533a\u5c45\u59d4\u4f1a","short_name":"\u4ed8\u6751","merger_name":"\u6cb3\u5357,\u4e09\u95e8\u5ce1,\u4e49\u9a6c,\u65b0\u533a,\u4ed8\u6751","pinyin":"FuCun","lng":"111.860070","lat":"34.772650"},{"id":404281,"parent_id":404273,"level":4,"area_code":"411281006008","zip_code":"472399","city_code":"0398","name":"\u6881\u6c9f\u793e\u533a\u5c45\u59d4\u4f1a","short_name":"\u6881\u6c9f","merger_name":"\u6cb3\u5357,\u4e09\u95e8\u5ce1,\u4e49\u9a6c,\u65b0\u533a,\u6881\u6c9f","pinyin":"LiangGou","lng":"111.885670","lat":"34.775170"},{"id":404282,"parent_id":404273,"level":4,"area_code":"411281006009","zip_code":"472399","city_code":"0398","name":"\u77f3\u95e8\u793e\u533a\u5c45\u59d4\u4f1a","short_name":"\u77f3\u95e8","merger_name":"\u6cb3\u5357,\u4e09\u95e8\u5ce1,\u4e49\u9a6c,\u65b0\u533a,\u77f3\u95e8","pinyin":"ShiMen","lng":"111.858320","lat":"34.785760"},{"id":404283,"parent_id":404273,"level":4,"area_code":"411281006010","zip_code":"472399","city_code":"0398","name":"\u88f4\u6751\u793e\u533a\u5c45\u59d4\u4f1a","short_name":"\u88f4\u6751","merger_name":"\u6cb3\u5357,\u4e09\u95e8\u5ce1,\u4e49\u9a6c,\u65b0\u533a,\u88f4\u6751","pinyin":"PeiCun","lng":"111.869220","lat":"34.741470"},{"id":404284,"parent_id":404252,"level":3,"area_code":"411281007000","zip_code":"472302","city_code":"0398","name":"\u4e1c\u533a\u8857\u9053","short_name":"\u4e1c\u533a","merger_name":"\u6cb3\u5357,\u4e09\u95e8\u5ce1,\u4e49\u9a6c,\u4e1c\u533a","pinyin":"DongQu","lng":"111.916540","lat":"34.736270"},{"id":404285,"parent_id":404284,"level":4,"area_code":"411281007001","zip_code":"472399","city_code":"0398","name":"\u82d7\u5143\u793e\u533a\u5c45\u59d4\u4f1a","short_name":"\u82d7\u5143","merger_name":"\u6cb3\u5357,\u4e09\u95e8\u5ce1,\u4e49\u9a6c,\u4e1c\u533a,\u82d7\u5143","pinyin":"MiaoYuan","lng":"111.919780","lat":"34.736840"},{"id":404286,"parent_id":404284,"level":4,"area_code":"411281007002","zip_code":"472399","city_code":"0398","name":"\u5e38\u6751\u793e\u533a\u5c45\u59d4\u4f1a","short_name":"\u5e38\u6751","merger_name":"\u6cb3\u5357,\u4e09\u95e8\u5ce1,\u4e49\u9a6c,\u4e1c\u533a,\u5e38\u6751","pinyin":"ChangCun","lng":"111.926000","lat":"34.742120"},{"id":404287,"parent_id":404284,"level":4,"area_code":"411281007003","zip_code":"472399","city_code":"0398","name":"\u6cb3\u53e3\u793e\u533a\u5c45\u59d4\u4f1a","short_name":"\u6cb3\u53e3","merger_name":"\u6cb3\u5357,\u4e09\u95e8\u5ce1,\u4e49\u9a6c,\u4e1c\u533a,\u6cb3\u53e3","pinyin":"HeKou","lng":"111.926000","lat":"34.742120"},{"id":404288,"parent_id":404284,"level":4,"area_code":"411281007004","zip_code":"472399","city_code":"0398","name":"\u5357\u6cb3\u793e\u533a\u5c45\u59d4\u4f1a","short_name":"\u5357\u6cb3","merger_name":"\u6cb3\u5357,\u4e09\u95e8\u5ce1,\u4e49\u9a6c,\u4e1c\u533a,\u5357\u6cb3","pinyin":"NanHe","lng":"111.914326","lat":"34.738408"},{"id":404289,"parent_id":404284,"level":4,"area_code":"411281007005","zip_code":"472399","city_code":"0398","name":"\u77f3\u4f5b\u793e\u533a\u5c45\u59d4\u4f1a","short_name":"\u77f3\u4f5b","merger_name":"\u6cb3\u5357,\u4e09\u95e8\u5ce1,\u4e49\u9a6c,\u4e1c\u533a,\u77f3\u4f5b","pinyin":"ShiFu","lng":"111.978760","lat":"34.707170"},{"id":404290,"parent_id":404284,"level":4,"area_code":"411281007006","zip_code":"472399","city_code":"0398","name":"\u9a6c\u5e84\u793e\u533a\u5c45\u59d4\u4f1a","short_name":"\u9a6c\u5e84","merger_name":"\u6cb3\u5357,\u4e09\u95e8\u5ce1,\u4e49\u9a6c,\u4e1c\u533a,\u9a6c\u5e84","pinyin":"MaZhuang","lng":"114.314000","lat":"36.050220"},