[{"id":484001,"parent_id":484000,"level":4,"area_code":"431222224214","zip_code":"419604","city_code":"0745","name":"\u5e38\u5fb7\u6e56\u6751\u6751\u59d4\u4f1a","short_name":"\u5e38\u5fb7\u6e56\u6751","merger_name":"\u6e56\u5357,\u6000\u5316,\u6c85\u9675,\u6960\u6728\u94fa,\u5e38\u5fb7\u6e56\u6751","pinyin":"ChangDeHuCun","lng":"110.733980","lat":"28.570300"},{"id":484002,"parent_id":484000,"level":4,"area_code":"431222224215","zip_code":"419604","city_code":"0745","name":"\u9ad8\u576a\u6751\u6751\u59d4\u4f1a","short_name":"\u9ad8\u576a\u6751","merger_name":"\u6e56\u5357,\u6000\u5316,\u6c85\u9675,\u6960\u6728\u94fa,\u9ad8\u576a\u6751","pinyin":"GaoPingCun","lng":"110.796860","lat":"28.539020"},{"id":484003,"parent_id":484000,"level":4,"area_code":"431222224216","zip_code":"419604","city_code":"0745","name":"\u9ec4\u814a\u6eaa\u6751\u6751\u59d4\u4f1a","short_name":"\u9ec4\u814a\u6eaa\u6751","merger_name":"\u6e56\u5357,\u6000\u5316,\u6c85\u9675,\u6960\u6728\u94fa,\u9ec4\u814a\u6eaa\u6751","pinyin":"HuangLaXiCun","lng":"110.403100","lat":"28.496860"},{"id":484004,"parent_id":484000,"level":4,"area_code":"431222224217","zip_code":"419604","city_code":"0745","name":"\u5e99\u738b\u5c71\u6751\u6751\u59d4\u4f1a","short_name":"\u5e99\u738b\u5c71\u6751","merger_name":"\u6e56\u5357,\u6000\u5316,\u6c85\u9675,\u6960\u6728\u94fa,\u5e99\u738b\u5c71\u6751","pinyin":"MiaoWangShanCun","lng":"110.998165","lat":"28.681106"},{"id":484005,"parent_id":484000,"level":4,"area_code":"431222224218","zip_code":"419604","city_code":"0745","name":"\u6960\u6728\u94fa\u6751\u6751\u59d4\u4f1a","short_name":"\u6960\u6728\u94fa\u6751","merger_name":"\u6e56\u5357,\u6000\u5316,\u6c85\u9675,\u6960\u6728\u94fa,\u6960\u6728\u94fa\u6751","pinyin":"NanMuPuCun","lng":"110.998165","lat":"28.681106"},{"id":484006,"parent_id":484000,"level":4,"area_code":"431222224219","zip_code":"419604","city_code":"0745","name":"\u6eb6\u6eaa\u6751\u6751\u59d4\u4f1a","short_name":"\u6eb6\u6eaa\u6751","merger_name":"\u6e56\u5357,\u6000\u5316,\u6c85\u9675,\u6960\u6728\u94fa,\u6eb6\u6eaa\u6751","pinyin":"RongXiCun","lng":"110.453637","lat":"27.270343"},{"id":484007,"parent_id":484000,"level":4,"area_code":"431222224220","zip_code":"419604","city_code":"0745","name":"\u4e24\u6cb3\u53e3\u6751\u6751\u59d4\u4f1a","short_name":"\u4e24\u6cb3\u53e3\u6751","merger_name":"\u6e56\u5357,\u6000\u5316,\u6c85\u9675,\u6960\u6728\u94fa,\u4e24\u6cb3\u53e3\u6751","pinyin":"LiangHeKouCun","lng":"110.728740","lat":"28.514240"},{"id":484008,"parent_id":483756,"level":3,"area_code":"431222230000","zip_code":"419624","city_code":"0745","name":"\u8096\u5bb6\u6865\u4e61","short_name":"\u8096\u5bb6\u6865","merger_name":"\u6e56\u5357,\u6000\u5316,\u6c85\u9675,\u8096\u5bb6\u6865","pinyin":"XiaoJiaQiao","lng":"110.670450","lat":"28.623220"},{"id":484009,"parent_id":484008,"level":4,"area_code":"431222230210","zip_code":"419624","city_code":"0745","name":"\u7518\u6eaa\u6751\u6751\u59d4\u4f1a","short_name":"\u7518\u6eaa\u6751","merger_name":"\u6e56\u5357,\u6000\u5316,\u6c85\u9675,\u8096\u5bb6\u6865,\u7518\u6eaa\u6751","pinyin":"GanXiCun","lng":"109.742430","lat":"25.913140"},{"id":484010,"parent_id":484008,"level":4,"area_code":"431222230211","zip_code":"419624","city_code":"0745","name":"\u5927\u576a\u6751\u6751\u59d4\u4f1a","short_name":"\u5927\u576a\u6751","merger_name":"\u6e56\u5357,\u6000\u5316,\u6c85\u9675,\u8096\u5bb6\u6865,\u5927\u576a\u6751","pinyin":"DaPingCun","lng":"110.325520","lat":"28.307400"},{"id":484011,"parent_id":484008,"level":4,"area_code":"431222230212","zip_code":"419624","city_code":"0745","name":"\u5168\u5bb6\u576a\u6751\u6751\u59d4\u4f1a","short_name":"\u5168\u5bb6\u576a\u6751","merger_name":"\u6e56\u5357,\u6000\u5316,\u6c85\u9675,\u8096\u5bb6\u6865,\u5168\u5bb6\u576a\u6751","pinyin":"QuanJiaPingCun","lng":"110.671550","lat":"28.624290"},{"id":484012,"parent_id":484008,"level":4,"area_code":"431222230213","zip_code":"419614","city_code":"0745","name":"\u82b1\u6865\u6751\u6751\u59d4\u4f1a","short_name":"\u82b1\u6865\u6751","merger_name":"\u6e56\u5357,\u6000\u5316,\u6c85\u9675,\u8096\u5bb6\u6865,\u82b1\u6865\u6751","pinyin":"HuaQiaoCun","lng":"110.134120","lat":"27.650940"},{"id":484013,"parent_id":484008,"level":4,"area_code":"431222230214","zip_code":"419600","city_code":"0745","name":"\u6cbf\u6c5f\u6751\u6751\u59d4\u4f1a","short_name":"\u6cbf\u6c5f\u6751","merger_name":"\u6e56\u5357,\u6000\u5316,\u6c85\u9675,\u8096\u5bb6\u6865,\u6cbf\u6c5f\u6751","pinyin":"YanJiangCun","lng":"110.403100","lat":"28.496860"},{"id":484014,"parent_id":484008,"level":4,"area_code":"431222230215","zip_code":"419616","city_code":"0745","name":"\u53cc\u576a\u6751","short_name":"\u53cc\u576a\u6751","merger_name":"\u6e56\u5357,\u6000\u5316,\u6c85\u9675,\u8096\u5bb6\u6865,\u53cc\u576a\u6751","pinyin":"ShuangPingCun","lng":"110.664110","lat":"28.613930"},{"id":484015,"parent_id":484008,"level":4,"area_code":"431222230216","zip_code":"419600","city_code":"0745","name":"\u6e05\u798f\u6751","short_name":"\u6e05\u798f\u6751","merger_name":"\u6e56\u5357,\u6000\u5316,\u6c85\u9675,\u8096\u5bb6\u6865,\u6e05\u798f\u6751","pinyin":"QingFuCun","lng":"110.670450","lat":"28.623220"},{"id":484016,"parent_id":483756,"level":3,"area_code":"431222234000","zip_code":"419627","city_code":"0745","name":"\u706b\u573a\u571f\u5bb6\u65cf\u4e61","short_name":"\u706b\u573a\u4e61","merger_name":"\u6e56\u5357,\u6000\u5316,\u6c85\u9675,\u706b\u573a\u4e61","pinyin":"HuoChangXiang","lng":"110.550480","lat":"28.925350"},{"id":484017,"parent_id":484016,"level":4,"area_code":"431222234200","zip_code":"419627","city_code":"0745","name":"\u4e0a\u5be8\u6751\u6751\u59d4\u4f1a","short_name":"\u4e0a\u5be8\u6751","merger_name":"\u6e56\u5357,\u6000\u5316,\u6c85\u9675,\u706b\u573a\u4e61,\u4e0a\u5be8\u6751","pinyin":"ShangZhaiCun","lng":"109.789024","lat":"26.160719"},{"id":484018,"parent_id":484016,"level":4,"area_code":"431222234206","zip_code":"419627","city_code":"0745","name":"\u77f3\u5bb6\u57ad\u6751\u6751\u59d4\u4f1a","short_name":"\u77f3\u5bb6\u57ad\u6751","merger_name":"\u6e56\u5357,\u6000\u5316,\u6c85\u9675,\u706b\u573a\u4e61,\u77f3\u5bb6\u57ad\u6751","pinyin":"ShiJiaYaCun","lng":"110.545440","lat":"28.884670"},{"id":484019,"parent_id":484016,"level":4,"area_code":"431222234207","zip_code":"419627","city_code":"0745","name":"\u9e7f\u9e23\u6eaa\u6751\u6751\u59d4\u4f1a","short_name":"\u9e7f\u9e23\u6eaa\u6751","merger_name":"\u6e56\u5357,\u6000\u5316,\u6c85\u9675,\u706b\u573a\u4e61,\u9e7f\u9e23\u6eaa\u6751","pinyin":"LuMingXiCun","lng":"110.575500","lat":"28.903360"},{"id":484020,"parent_id":484016,"level":4,"area_code":"431222234209","zip_code":"419627","city_code":"0745","name":"\u4e2d\u6751\u6751","short_name":"\u4e2d\u6751\u6751","merger_name":"\u6e56\u5357,\u6000\u5316,\u6c85\u9675,\u706b\u573a\u4e61,\u4e2d\u6751\u6751","pinyin":"ZhongCunCun","lng":"110.549920","lat":"28.923940"},{"id":484021,"parent_id":484016,"level":4,"area_code":"431222234210","zip_code":"419627","city_code":"0745","name":"\u6768\u516c\u6f6d\u6751","short_name":"\u6768\u516c\u6f6d\u6751","merger_name":"\u6e56\u5357,\u6000\u5316,\u6c85\u9675,\u706b\u573a\u4e61,\u6768\u516c\u6f6d\u6751","pinyin":"YangGongTanCun","lng":"110.558990","lat":"28.913660"},{"id":484022,"parent_id":484016,"level":4,"area_code":"431222234211","zip_code":"419627","city_code":"0745","name":"\u6843\u576a\u754c\u6751","short_name":"\u6843\u576a\u754c\u6751","merger_name":"\u6e56\u5357,\u6000\u5316,\u6c85\u9675,\u706b\u573a\u4e61,\u6843\u576a\u754c\u6751","pinyin":"TaoPingJieCun","lng":"110.581020","lat":"28.942190"},{"id":484023,"parent_id":483756,"level":3,"area_code":"431222238000","zip_code":"419632","city_code":"0745","name":"\u9648\u5bb6\u6ee9\u4e61","short_name":"\u9648\u5bb6\u6ee9","merger_name":"\u6e56\u5357,\u6000\u5316,\u6c85\u9675,\u9648\u5bb6\u6ee9","pinyin":"ChenJiaTan","lng":"110.749970","lat":"28.690590"},{"id":484024,"parent_id":484023,"level":4,"area_code":"431222238200","zip_code":"419632","city_code":"0745","name":"\u9648\u5bb6\u6ee9\u6751\u6751\u59d4\u4f1a","short_name":"\u9648\u5bb6\u6ee9\u6751","merger_name":"\u6e56\u5357,\u6000\u5316,\u6c85\u9675,\u9648\u5bb6\u6ee9,\u9648\u5bb6\u6ee9\u6751","pinyin":"ChenJiaTanCun","lng":"110.749120","lat":"28.689800"},{"id":484025,"parent_id":484023,"level":4,"area_code":"431222238201","zip_code":"419632","city_code":"0745","name":"\u91d1\u5854\u6751\u6751\u59d4\u4f1a","short_name":"\u91d1\u5854\u6751","merger_name":"\u6e56\u5357,\u6000\u5316,\u6c85\u9675,\u9648\u5bb6\u6ee9,\u91d1\u5854\u6751","pinyin":"JinTaCun","lng":"110.749120","lat":"28.689800"},{"id":484026,"parent_id":484023,"level":4,"area_code":"431222238202","zip_code":"419632","city_code":"0745","name":"\u9ebb\u4f0a\u6eaa\u6751\u6751\u59d4\u4f1a","short_name":"\u9ebb\u4f0a\u6eaa\u6751","merger_name":"\u6e56\u5357,\u6000\u5316,\u6c85\u9675,\u9648\u5bb6\u6ee9,\u9ebb\u4f0a\u6eaa\u6751","pinyin":"MaYiXiCun","lng":"110.749120","lat":"28.689800"},{"id":484027,"parent_id":484023,"level":4,"area_code":"431222238204","zip_code":"419632","city_code":"0745","name":"\u5927\u5e84\u576a\u6751\u6751\u59d4\u4f1a","short_name":"\u5927\u5e84\u576a\u6751","merger_name":"\u6e56\u5357,\u6000\u5316,\u6c85\u9675,\u9648\u5bb6\u6ee9,\u5927\u5e84\u576a\u6751","pinyin":"DaZhuangPingCun","lng":"110.749120","lat":"28.689800"},{"id":484028,"parent_id":484023,"level":4,"area_code":"431222238208","zip_code":"419632","city_code":"0745","name":"\u781a\u77f3\u6eaa\u6751","short_name":"\u781a\u77f3\u6eaa\u6751","merger_name":"\u6e56\u5357,\u6000\u5316,\u6c85\u9675,\u9648\u5bb6\u6ee9,\u781a\u77f3\u6eaa\u6751","pinyin":"YanShiXiCun","lng":"110.749110","lat":"28.689800"},{"id":484029,"parent_id":484023,"level":4,"area_code":"431222238209","zip_code":"419632","city_code":"0745","name":"\u9a6e\u5b50\u53e3\u6751","short_name":"\u9a6e\u5b50\u53e3\u6751","merger_name":"\u6e56\u5357,\u6000\u5316,\u6c85\u9675,\u9648\u5bb6\u6ee9,\u9a6e\u5b50\u53e3\u6751","pinyin":"DuoZiKouCun","lng":"110.744230","lat":"28.641790"},{"id":484030,"parent_id":483756,"level":3,"area_code":"431222239000","zip_code":"419633","city_code":"0745","name":"\u6e05\u6d6a\u4e61","short_name":"\u6e05\u6d6a","merger_name":"\u6e56\u5357,\u6000\u5316,\u6c85\u9675,\u6e05\u6d6a","pinyin":"QingLang","lng":"110.799770","lat":"28.746140"},{"id":484031,"parent_id":484030,"level":4,"area_code":"431222239202","zip_code":"419633","city_code":"0745","name":"\u5c0f\u4e91\u6eaa\u6751\u6751\u59d4\u4f1a","short_name":"\u5c0f\u4e91\u6eaa\u6751","merger_name":"\u6e56\u5357,\u6000\u5316,\u6c85\u9675,\u6e05\u6d6a,\u5c0f\u4e91\u6eaa\u6751","pinyin":"XiaoYunXiCun","lng":"110.403100","lat":"28.496860"},{"id":484032,"parent_id":484030,"level":4,"area_code":"431222239211","zip_code":"419633","city_code":"0745","name":"\u6253\u5ca9\u5761\u6751\u6751\u59d4\u4f1a","short_name":"\u6253\u5ca9\u5761\u6751","merger_name":"\u6e56\u5357,\u6000\u5316,\u6c85\u9675,\u6e05\u6d6a,\u6253\u5ca9\u5761\u6751","pinyin":"DaYanPoCun","lng":"110.846740","lat":"28.795240"},{"id":484033,"parent_id":484030,"level":4,"area_code":"431222239214","zip_code":"419633","city_code":"0745","name":"\u6bdb\u6d32\u6751\u6751\u59d4\u4f1a","short_name":"\u6bdb\u6d32\u6751","merger_name":"\u6e56\u5357,\u6000\u5316,\u6c85\u9675,\u6e05\u6d6a,\u6bdb\u6d32\u6751","pinyin":"MaoZhouCun","lng":"109.922060","lat":"27.398520"},{"id":484034,"parent_id":484030,"level":4,"area_code":"431222239216","zip_code":"419634","city_code":"0745","name":"\u9ad8\u576a\u6751\u6751\u59d4\u4f1a","short_name":"\u9ad8\u576a\u6751","merger_name":"\u6e56\u5357,\u6000\u5316,\u6c85\u9675,\u6e05\u6d6a,\u9ad8\u576a\u6751","pinyin":"GaoPingCun","lng":"110.878390","lat":"28.714340"},{"id":484035,"parent_id":484030,"level":4,"area_code":"431222239219","zip_code":"419634","city_code":"0745","name":"\u5929\u6e56\u6c60\u6751\u6751\u59d4\u4f1a","short_name":"\u5929\u6e56\u6c60\u6751","merger_name":"\u6e56\u5357,\u6000\u5316,\u6c85\u9675,\u6e05\u6d6a,\u5929\u6e56\u6c60\u6751","pinyin":"TianHuChiCun","lng":"109.988200","lat":"27.550740"},{"id":484036,"parent_id":484030,"level":4,"area_code":"431222239224","zip_code":"419634","city_code":"0745","name":"\u6c34\u7530\u6751\u6751\u59d4\u4f1a","short_name":"\u6c34\u7530\u6751","merger_name":"\u6e56\u5357,\u6000\u5316,\u6c85\u9675,\u6e05\u6d6a,\u6c34\u7530\u6751","pinyin":"ShuiTianCun","lng":"110.878390","lat":"28.714340"},{"id":484037,"parent_id":484030,"level":4,"area_code":"431222239225","zip_code":"419634","city_code":"0745","name":"\u7f57\u5bb6\u576a\u6751\u6751\u59d4\u4f1a","short_name":"\u7f57\u5bb6\u576a\u6751","merger_name":"\u6e56\u5357,\u6000\u5316,\u6c85\u9675,\u6e05\u6d6a,\u7f57\u5bb6\u576a\u6751","pinyin":"LuoJiaPingCun","lng":"110.998165","lat":"28.681106"},{"id":484038,"parent_id":484030,"level":4,"area_code":"431222239226","zip_code":"419634","city_code":"0745","name":"\u6bdb\u57ad\u6751\u6751\u59d4\u4f1a","short_name":"\u6bdb\u57ad\u6751","merger_name":"\u6e56\u5357,\u6000\u5316,\u6c85\u9675,\u6e05\u6d6a,\u6bdb\u57ad\u6751","pinyin":"MaoYaCun","lng":"110.221058","lat":"28.043207"},{"id":484039,"parent_id":484030,"level":4,"area_code":"431222239227","zip_code":"419633","city_code":"0745","name":"\u80dc\u5e73\u6751","short_name":"\u80dc\u5e73\u6751","merger_name":"\u6e56\u5357,\u6000\u5316,\u6c85\u9675,\u6e05\u6d6a,\u80dc\u5e73\u6751","pinyin":"ShengPingCun","lng":"110.799770","lat":"28.746140"},{"id":484040,"parent_id":484030,"level":4,"area_code":"431222239228","zip_code":"419633","city_code":"0745","name":"\u5ec9\u5bb6\u6e7e\u6751","short_name":"\u5ec9\u5bb6\u6e7e\u6751","merger_name":"\u6e56\u5357,\u6000\u5316,\u6c85\u9675,\u6e05\u6d6a,\u5ec9\u5bb6\u6e7e\u6751","pinyin":"LianJiaWanCun","lng":"110.751610","lat":"28.775420"},{"id":484041,"parent_id":484030,"level":4,"area_code":"431222239229","zip_code":"419633","city_code":"0745","name":"\u9ebb\u680e\u5761\u6751","short_name":"\u9ebb\u680e\u5761\u6751","merger_name":"\u6e56\u5357,\u6000\u5316,\u6c85\u9675,\u6e05\u6d6a,\u9ebb\u680e\u5761\u6751","pinyin":"MaLiPoCun","lng":"109.824850","lat":"27.001350"},{"id":484042,"parent_id":484030,"level":4,"area_code":"431222239230","zip_code":"419633","city_code":"0745","name":"\u7530\u516c\u576a\u6751","short_name":"\u7530\u516c\u576a\u6751","merger_name":"\u6e56\u5357,\u6000\u5316,\u6c85\u9675,\u6e05\u6d6a,\u7530\u516c\u576a\u6751","pinyin":"TianGongPingCun","lng":"110.818100","lat":"28.754190"},{"id":484043,"parent_id":484030,"level":4,"area_code":"431222239231","zip_code":"419633","city_code":"0745","name":"\u6d1e\u5ead\u6eaa\u6751","short_name":"\u6d1e\u5ead\u6eaa\u6751","merger_name":"\u6e56\u5357,\u6000\u5316,\u6c85\u9675,\u6e05\u6d6a,\u6d1e\u5ead\u6eaa\u6751","pinyin":"DongTingXiCun","lng":"110.858340","lat":"28.758080"},{"id":484044,"parent_id":484030,"level":4,"area_code":"431222239232","zip_code":"419633","city_code":"0745","name":"\u7ffb\u8eab\u6751","short_name":"\u7ffb\u8eab\u6751","merger_name":"\u6e56\u5357,\u6000\u5316,\u6c85\u9675,\u6e05\u6d6a,\u7ffb\u8eab\u6751","pinyin":"FanShenCun","lng":"110.869940","lat":"28.774280"},{"id":484045,"parent_id":484030,"level":4,"area_code":"431222239233","zip_code":"419634","city_code":"0745","name":"\u7687\u516c\u576a\u6751","short_name":"\u7687\u516c\u576a\u6751","merger_name":"\u6e56\u5357,\u6000\u5316,\u6c85\u9675,\u6e05\u6d6a,\u7687\u516c\u576a\u6751","pinyin":"HuangGongPingCun","lng":"110.874820","lat":"28.711630"},{"id":484046,"parent_id":484030,"level":4,"area_code":"431222239234","zip_code":"419634","city_code":"0745","name":"\u516b\u65b9\u6751","short_name":"\u516b\u65b9\u6751","merger_name":"\u6e56\u5357,\u6000\u5316,\u6c85\u9675,\u6e05\u6d6a,\u516b\u65b9\u6751","pinyin":"BaFangCun","lng":"110.822730","lat":"28.686190"},{"id":484047,"parent_id":483756,"level":3,"area_code":"431222245000","zip_code":"419628","city_code":"0745","name":"\u501f\u6bcd\u6eaa\u4e61","short_name":"\u501f\u6bcd\u6eaa","merger_name":"\u6e56\u5357,\u6000\u5316,\u6c85\u9675,\u501f\u6bcd\u6eaa","pinyin":"JieMuXi","lng":"110.437540","lat":"28.759120"},{"id":484048,"parent_id":484047,"level":4,"area_code":"431222245208","zip_code":"419628","city_code":"0745","name":"\u519b\u5927\u576a\u6751\u6751\u59d4\u4f1a","short_name":"\u519b\u5927\u576a\u6751","merger_name":"\u6e56\u5357,\u6000\u5316,\u6c85\u9675,\u501f\u6bcd\u6eaa,\u519b\u5927\u576a\u6751","pinyin":"JunDaPingCun","lng":"110.462160","lat":"28.808290"},{"id":484049,"parent_id":484047,"level":4,"area_code":"431222245210","zip_code":"419628","city_code":"0745","name":"\u8d75\u5bb6\u5c71\u6751\u6751\u59d4\u4f1a","short_name":"\u8d75\u5bb6\u5c71\u6751","merger_name":"\u6e56\u5357,\u6000\u5316,\u6c85\u9675,\u501f\u6bcd\u6eaa,\u8d75\u5bb6\u5c71\u6751","pinyin":"ZhaoJiaShanCun","lng":"110.400650","lat":"28.768590"},{"id":484050,"parent_id":484047,"level":4,"area_code":"431222245213","zip_code":"419628","city_code":"0745","name":"\u7b52\u8f66\u576a\u6751\u6751\u59d4\u4f1a","short_name":"\u7b52\u8f66\u576a\u6751","merger_name":"\u6e56\u5357,\u6000\u5316,\u6c85\u9675,\u501f\u6bcd\u6eaa,\u7b52\u8f66\u576a\u6751","pinyin":"TongChePingCun","lng":"110.462160","lat":"28.808290"},{"id":484051,"parent_id":484047,"level":4,"area_code":"431222245217","zip_code":"419628","city_code":"0745","name":"\u6c3d\u6c34\u6eaa\u6751\u6751\u59d4\u4f1a","short_name":"\u6c3d\u6c34\u6eaa\u6751","merger_name":"\u6e56\u5357,\u6000\u5316,\u6c85\u9675,\u501f\u6bcd\u6eaa,\u6c3d\u6c34\u6eaa\u6751","pinyin":"TunShuiXiCun","lng":"110.462160","lat":"28.808290"},{"id":484052,"parent_id":484047,"level":4,"area_code":"431222245219","zip_code":"419628","city_code":"0745","name":"\u5357\u6eaa\u576a\u6751\u6751\u59d4\u4f1a","short_name":"\u5357\u6eaa\u576a\u6751","merger_name":"\u6e56\u5357,\u6000\u5316,\u6c85\u9675,\u501f\u6bcd\u6eaa,\u5357\u6eaa\u576a\u6751","pinyin":"NanXiPingCun","lng":"110.462160","lat":"28.808290"},{"id":484053,"parent_id":484047,"level":4,"area_code":"431222245221","zip_code":"419628","city_code":"0745","name":"\u5c0f\u8d1d\u6751\u6751\u59d4\u4f1a","short_name":"\u5c0f\u8d1d\u6751","merger_name":"\u6e56\u5357,\u6000\u5316,\u6c85\u9675,\u501f\u6bcd\u6eaa,\u5c0f\u8d1d\u6751","pinyin":"XiaoBeiCun","lng":"110.462160","lat":"28.808290"},{"id":484054,"parent_id":484047,"level":4,"area_code":"431222245222","zip_code":"419628","city_code":"0745","name":"\u4e24\u5c94\u6eaa\u6751\u6751\u59d4\u4f1a","short_name":"\u4e24\u5c94\u6eaa\u6751","merger_name":"\u6e56\u5357,\u6000\u5316,\u6c85\u9675,\u501f\u6bcd\u6eaa,\u4e24\u5c94\u6eaa\u6751","pinyin":"LiangChaXiCun","lng":"110.252310","lat":"28.491760"},{"id":484055,"parent_id":484047,"level":4,"area_code":"431222245226","zip_code":"419628","city_code":"0745","name":"\u7530\u5bb6\u7ec4\u6751\u6751\u59d4\u4f1a","short_name":"\u7530\u5bb6\u7ec4\u6751","merger_name":"\u6e56\u5357,\u6000\u5316,\u6c85\u9675,\u501f\u6bcd\u6eaa,\u7530\u5bb6\u7ec4\u6751","pinyin":"TianJiaZuCun","lng":"110.462160","lat":"28.808290"},{"id":484056,"parent_id":484047,"level":4,"area_code":"431222245227","zip_code":"419628","city_code":"0745","name":"\u67ab\u9999\u576a\u6751\u6751\u59d4\u4f1a","short_name":"\u67ab\u9999\u576a\u6751","merger_name":"\u6e56\u5357,\u6000\u5316,\u6c85\u9675,\u501f\u6bcd\u6eaa,\u67ab\u9999\u576a\u6751","pinyin":"FengXiangPingCun","lng":"110.403100","lat":"28.496860"},{"id":484057,"parent_id":484047,"level":4,"area_code":"431222245230","zip_code":"419628","city_code":"0745","name":"\u7b26\u5bb6\u576a\u6751\u6751\u59d4\u4f1a","short_name":"\u7b26\u5bb6\u576a\u6751","merger_name":"\u6e56\u5357,\u6000\u5316,\u6c85\u9675,\u501f\u6bcd\u6eaa,\u7b26\u5bb6\u576a\u6751","pinyin":"FuJiaPingCun","lng":"110.403100","lat":"28.496860"},{"id":484058,"parent_id":484047,"level":4,"area_code":"431222245231","zip_code":"419628","city_code":"0745","name":"\u5f20\u5bb6\u6751\u6751\u59d4\u4f1a","short_name":"\u5f20\u5bb6\u6751","merger_name":"\u6e56\u5357,\u6000\u5316,\u6c85\u9675,\u501f\u6bcd\u6eaa,\u5f20\u5bb6\u6751","pinyin":"ZhangJiaCun","lng":"110.462160","lat":"28.808290"},{"id":484059,"parent_id":484047,"level":4,"area_code":"431222245232","zip_code":"419628","city_code":"0745","name":"\u6559\u5bb6\u576a\u6751\u6751\u59d4\u4f1a","short_name":"\u6559\u5bb6\u576a\u6751","merger_name":"\u6e56\u5357,\u6000\u5316,\u6c85\u9675,\u501f\u6bcd\u6eaa,\u6559\u5bb6\u576a\u6751","pinyin":"JiaoJiaPingCun","lng":"110.454190","lat":"28.785270"},{"id":484060,"parent_id":484047,"level":4,"area_code":"431222245233","zip_code":"419628","city_code":"0745","name":"\u66f9\u5bb6\u6751\u6751\u59d4\u4f1a","short_name":"\u66f9\u5bb6\u6751","merger_name":"\u6e56\u5357,\u6000\u5316,\u6c85\u9675,\u501f\u6bcd\u6eaa,\u66f9\u5bb6\u6751","pinyin":"CaoJiaCun","lng":"110.998165","lat":"28.681106"},{"id":484061,"parent_id":484047,"level":4,"area_code":"431222245234","zip_code":"419628","city_code":"0745","name":"\u5be8\u6eaa\u576a\u6751\u6751\u59d4\u4f1a","short_name":"\u5be8\u6eaa\u576a\u6751","merger_name":"\u6e56\u5357,\u6000\u5316,\u6c85\u9675,\u501f\u6bcd\u6eaa,\u5be8\u6eaa\u576a\u6751","pinyin":"ZhaiXiPingCun","lng":"110.998165","lat":"28.681106"},{"id":484062,"parent_id":484047,"level":4,"area_code":"431222245236","zip_code":"419628","city_code":"0745","name":"\u5218\u5bb6\u5854\u6751\u6751\u59d4\u4f1a","short_name":"\u5218\u5bb6\u5854\u6751","merger_name":"\u6e56\u5357,\u6000\u5316,\u6c85\u9675,\u501f\u6bcd\u6eaa,\u5218\u5bb6\u5854\u6751","pinyin":"LiuJiaTaCun","lng":"110.462160","lat":"28.808290"},{"id":484063,"parent_id":484047,"level":4,"area_code":"431222245239","zip_code":"419628","city_code":"0745","name":"\u4e0a\u9a6c\u5c71\u6751\u6751\u59d4\u4f1a","short_name":"\u4e0a\u9a6c\u5c71\u6751","merger_name":"\u6e56\u5357,\u6000\u5316,\u6c85\u9675,\u501f\u6bcd\u6eaa,\u4e0a\u9a6c\u5c71\u6751","pinyin":"ShangMaShanCun","lng":"110.998165","lat":"28.681106"},{"id":484064,"parent_id":484047,"level":4,"area_code":"431222245240","zip_code":"419628","city_code":"0745","name":"\u7af9\u576a\u6751","short_name":"\u7af9\u576a\u6751","merger_name":"\u6e56\u5357,\u6000\u5316,\u6c85\u9675,\u501f\u6bcd\u6eaa,\u7af9\u576a\u6751","pinyin":"ZhuPingCun","lng":"109.808200","lat":"26.095220"},{"id":484065,"parent_id":484047,"level":4,"area_code":"431222245241","zip_code":"419628","city_code":"0745","name":"\u7ba1\u5c71\u6751","short_name":"\u7ba1\u5c71\u6751","merger_name":"\u6e56\u5357,\u6000\u5316,\u6c85\u9675,\u501f\u6bcd\u6eaa,\u7ba1\u5c71\u6751","pinyin":"GuanShanCun","lng":"110.437180","lat":"28.798240"},{"id":484066,"parent_id":484047,"level":4,"area_code":"431222245242","zip_code":"419628","city_code":"0745","name":"\u501f\u6bcd\u6eaa\u6751","short_name":"\u501f\u6bcd\u6eaa\u6751","merger_name":"\u6e56\u5357,\u6000\u5316,\u6c85\u9675,\u501f\u6bcd\u6eaa,\u501f\u6bcd\u6eaa\u6751","pinyin":"JieMuXiCun","lng":"110.436520","lat":"28.759440"},{"id":484067,"parent_id":483756,"level":3,"area_code":"431222247000","zip_code":"419612","city_code":"0745","name":"\u8354\u6eaa\u4e61","short_name":"\u8354\u6eaa","merger_name":"\u6e56\u5357,\u6000\u5316,\u6c85\u9675,\u8354\u6eaa","pinyin":"LiXi","lng":"110.467740","lat":"28.229550"},{"id":484068,"parent_id":484067,"level":4,"area_code":"431222247206","zip_code":"419612","city_code":"0745","name":"\u5773\u576a\u6751\u6751\u59d4\u4f1a","short_name":"\u5773\u576a\u6751","merger_name":"\u6e56\u5357,\u6000\u5316,\u6c85\u9675,\u8354\u6eaa,\u5773\u576a\u6751","pinyin":"AoPingCun","lng":"110.463270","lat":"28.235810"},{"id":484069,"parent_id":484067,"level":4,"area_code":"431222247207","zip_code":"419612","city_code":"0745","name":"\u5927\u5143\u6751\u6751\u59d4\u4f1a","short_name":"\u5927\u5143\u6751","merger_name":"\u6e56\u5357,\u6000\u5316,\u6c85\u9675,\u8354\u6eaa,\u5927\u5143\u6751","pinyin":"DaYuanCun","lng":"110.478360","lat":"28.216370"},{"id":484070,"parent_id":484067,"level":4,"area_code":"431222247222","zip_code":"419612","city_code":"0745","name":"\u4fee\u6eaa\u6751\u6751\u59d4\u4f1a","short_name":"\u4fee\u6eaa\u6751","merger_name":"\u6e56\u5357,\u6000\u5316,\u6c85\u9675,\u8354\u6eaa,\u4fee\u6eaa\u6751","pinyin":"XiuXiCun","lng":"110.302750","lat":"27.947050"},{"id":484071,"parent_id":484067,"level":4,"area_code":"431222247223","zip_code":"419612","city_code":"0745","name":"\u6850\u8f66\u576a\u6751\u6751\u59d4\u4f1a","short_name":"\u6850\u8f66\u576a\u6751","merger_name":"\u6e56\u5357,\u6000\u5316,\u6c85\u9675,\u8354\u6eaa,\u6850\u8f66\u576a\u6751","pinyin":"TongChePingCun","lng":"110.441410","lat":"28.254470"},{"id":484072,"parent_id":484067,"level":4,"area_code":"431222247224","zip_code":"419612","city_code":"0745","name":"\u9ad8\u5bb6\u6751\u6751\u59d4\u4f1a","short_name":"\u9ad8\u5bb6\u6751","merger_name":"\u6e56\u5357,\u6000\u5316,\u6c85\u9675,\u8354\u6eaa,\u9ad8\u5bb6\u6751","pinyin":"GaoJiaCun","lng":"110.478360","lat":"28.216370"},{"id":484073,"parent_id":484067,"level":4,"area_code":"431222247225","zip_code":"419612","city_code":"0745","name":"\u5e78\u798f\u6751\u6751\u59d4\u4f1a","short_name":"\u5e78\u798f\u6751","merger_name":"\u6e56\u5357,\u6000\u5316,\u6c85\u9675,\u8354\u6eaa,\u5e78\u798f\u6751","pinyin":"XingFuCun","lng":"110.461620","lat":"28.245230"},{"id":484074,"parent_id":484067,"level":4,"area_code":"431222247226","zip_code":"419612","city_code":"0745","name":"\u5149\u660e\u6751\u6751\u59d4\u4f1a","short_name":"\u5149\u660e\u6751","merger_name":"\u6e56\u5357,\u6000\u5316,\u6c85\u9675,\u8354\u6eaa,\u5149\u660e\u6751","pinyin":"GuangMingCun","lng":"110.461620","lat":"28.245230"},{"id":484075,"parent_id":484067,"level":4,"area_code":"431222247227","zip_code":"419612","city_code":"0745","name":"\u53cc\u5408\u6751\u6751\u59d4\u4f1a","short_name":"\u53cc\u5408\u6751","merger_name":"\u6e56\u5357,\u6000\u5316,\u6c85\u9675,\u8354\u6eaa,\u53cc\u5408\u6751","pinyin":"ShuangHeCun","lng":"110.461620","lat":"28.245230"},{"id":484076,"parent_id":484067,"level":4,"area_code":"431222247228","zip_code":"419612","city_code":"0745","name":"\u8c22\u6751\u6751\u59d4\u4f1a","short_name":"\u8c22\u6751","merger_name":"\u6e56\u5357,\u6000\u5316,\u6c85\u9675,\u8354\u6eaa,\u8c22\u6751","pinyin":"XieCun","lng":"110.461620","lat":"28.245230"},{"id":484077,"parent_id":484067,"level":4,"area_code":"431222247229","zip_code":"419612","city_code":"0745","name":"\u6c60\u576a\u6751\u6751\u59d4\u4f1a","short_name":"\u6c60\u576a\u6751","merger_name":"\u6e56\u5357,\u6000\u5316,\u6c85\u9675,\u8354\u6eaa,\u6c60\u576a\u6751","pinyin":"ChiPingCun","lng":"110.421940","lat":"28.298060"},{"id":484078,"parent_id":484067,"level":4,"area_code":"431222247230","zip_code":"419612","city_code":"0745","name":"\u660e\u4e2d\u6751\u6751\u59d4\u4f1a","short_name":"\u660e\u4e2d\u6751","merger_name":"\u6e56\u5357,\u6000\u5316,\u6c85\u9675,\u8354\u6eaa,\u660e\u4e2d\u6751","pinyin":"MingZhongCun","lng":"110.461620","lat":"28.245230"},{"id":484079,"parent_id":484067,"level":4,"area_code":"431222247231","zip_code":"419612","city_code":"0745","name":"\u5b98\u576a\u6751\u6751\u59d4\u4f1a","short_name":"\u5b98\u576a\u6751","merger_name":"\u6e56\u5357,\u6000\u5316,\u6c85\u9675,\u8354\u6eaa,\u5b98\u576a\u6751","pinyin":"GuanPingCun","lng":"110.399880","lat":"28.240220"},{"id":484080,"parent_id":484067,"level":4,"area_code":"431222247232","zip_code":"419612","city_code":"0745","name":"\u7af9\u56ed\u6751\u6751\u59d4\u4f1a","short_name":"\u7af9\u56ed\u6751","merger_name":"\u6e56\u5357,\u6000\u5316,\u6c85\u9675,\u8354\u6eaa,\u7af9\u56ed\u6751","pinyin":"ZhuYuanCun","lng":"110.461620","lat":"28.245230"},{"id":484081,"parent_id":484067,"level":4,"area_code":"431222247233","zip_code":"419612","city_code":"0745","name":"\u5f20\u5176\u5773\u6751\u6751\u59d4\u4f1a","short_name":"\u5f20\u5176\u5773\u6751","merger_name":"\u6e56\u5357,\u6000\u5316,\u6c85\u9675,\u8354\u6eaa,\u5f20\u5176\u5773\u6751","pinyin":"ZhangQiAoCun","lng":"110.536470","lat":"28.170660"},{"id":484082,"parent_id":484067,"level":4,"area_code":"431222247234","zip_code":"419612","city_code":"0745","name":"\u6960\u576a\u6751\u6751\u59d4\u4f1a","short_name":"\u6960\u576a\u6751","merger_name":"\u6e56\u5357,\u6000\u5316,\u6c85\u9675,\u8354\u6eaa,\u6960\u576a\u6751","pinyin":"NanPingCun","lng":"110.478360","lat":"28.216370"},{"id":484083,"parent_id":484067,"level":4,"area_code":"431222247235","zip_code":"419612","city_code":"0745","name":"\u82a6\u6d1e\u6751\u6751\u59d4\u4f1a","short_name":"\u82a6\u6d1e\u6751","merger_name":"\u6e56\u5357,\u6000\u5316,\u6c85\u9675,\u8354\u6eaa,\u82a6\u6d1e\u6751","pinyin":"LuDongCun","lng":"110.478360","lat":"28.216370"},{"id":484084,"parent_id":483756,"level":3,"area_code":"431222248000","zip_code":"419625","city_code":"0745","name":"\u5927\u5408\u576a\u4e61","short_name":"\u5927\u5408\u576a","merger_name":"\u6e56\u5357,\u6000\u5316,\u6c85\u9675,\u5927\u5408\u576a","pinyin":"DaHePing","lng":"110.628780","lat":"28.793170"},{"id":484085,"parent_id":484084,"level":4,"area_code":"431222248202","zip_code":"419625","city_code":"0745","name":"\u4e07\u6c60\u6f6d\u6751\u6751\u59d4\u4f1a","short_name":"\u4e07\u6c60\u6f6d\u6751","merger_name":"\u6e56\u5357,\u6000\u5316,\u6c85\u9675,\u5927\u5408\u576a,\u4e07\u6c60\u6f6d\u6751","pinyin":"WanChiTanCun","lng":"110.403100","lat":"28.496860"},{"id":484086,"parent_id":484084,"level":4,"area_code":"431222248203","zip_code":"419625","city_code":"0745","name":"\u7b26\u5bb6\u5c71\u6751\u6751\u59d4\u4f1a","short_name":"\u7b26\u5bb6\u5c71\u6751","merger_name":"\u6e56\u5357,\u6000\u5316,\u6c85\u9675,\u5927\u5408\u576a,\u7b26\u5bb6\u5c71\u6751","pinyin":"FuJiaShanCun","lng":"110.453637","lat":"27.270343"},{"id":484087,"parent_id":484084,"level":4,"area_code":"431222248204","zip_code":"419625","city_code":"0745","name":"\u53cc\u6eaa\u6751\u6751\u59d4\u4f1a","short_name":"\u53cc\u6eaa\u6751","merger_name":"\u6e56\u5357,\u6000\u5316,\u6c85\u9675,\u5927\u5408\u576a,\u53cc\u6eaa\u6751","pinyin":"ShuangXiCun","lng":"110.403100","lat":"28.496860"},{"id":484088,"parent_id":484084,"level":4,"area_code":"431222248205","zip_code":"419625","city_code":"0745","name":"\u66f9\u5bb6\u576a\u6751\u6751\u59d4\u4f1a","short_name":"\u66f9\u5bb6\u576a\u6751","merger_name":"\u6e56\u5357,\u6000\u5316,\u6c85\u9675,\u5927\u5408\u576a,\u66f9\u5bb6\u576a\u6751","pinyin":"CaoJiaPingCun","lng":"110.998165","lat":"28.681106"},{"id":484089,"parent_id":484084,"level":4,"area_code":"431222248210","zip_code":"419625","city_code":"0745","name":"\u8336\u6eaa\u6751\u6751\u59d4\u4f1a","short_name":"\u8336\u6eaa\u6751","merger_name":"\u6e56\u5357,\u6000\u5316,\u6c85\u9675,\u5927\u5408\u576a,\u8336\u6eaa\u6751","pinyin":"ChaXiCun","lng":"110.403100","lat":"28.496860"},{"id":484090,"parent_id":484084,"level":4,"area_code":"431222248217","zip_code":"419625","city_code":"0745","name":"\u5e84\u5c4b\u576a\u6751\u6751\u59d4\u4f1a","short_name":"\u5e84\u5c4b\u576a\u6751","merger_name":"\u6e56\u5357,\u6000\u5316,\u6c85\u9675,\u5927\u5408\u576a,\u5e84\u5c4b\u576a\u6751","pinyin":"ZhuangWuPingCun","lng":"110.403100","lat":"28.496860"},{"id":484091,"parent_id":484084,"level":4,"area_code":"431222248219","zip_code":"419625","city_code":"0745","name":"\u9633\u5c71\u576a\u6751\u6751\u59d4\u4f1a","short_name":"\u9633\u5c71\u576a\u6751","merger_name":"\u6e56\u5357,\u6000\u5316,\u6c85\u9675,\u5927\u5408\u576a,\u9633\u5c71\u576a\u6751","pinyin":"YangShanPingCun","lng":"110.403100","lat":"28.496860"},{"id":484092,"parent_id":484084,"level":4,"area_code":"431222248222","zip_code":"419625","city_code":"0745","name":"\u5929\u4e95\u6751\u6751\u59d4\u4f1a","short_name":"\u5929\u4e95\u6751","merger_name":"\u6e56\u5357,\u6000\u5316,\u6c85\u9675,\u5927\u5408\u576a,\u5929\u4e95\u6751","pinyin":"TianJingCun","lng":"110.403100","lat":"28.496860"},{"id":484093,"parent_id":484084,"level":4,"area_code":"431222248223","zip_code":"419625","city_code":"0745","name":"\u8346\u7af9\u6eaa\u6751\u6751\u59d4\u4f1a","short_name":"\u8346\u7af9\u6eaa\u6751","merger_name":"\u6e56\u5357,\u6000\u5316,\u6c85\u9675,\u5927\u5408\u576a,\u8346\u7af9\u6eaa\u6751","pinyin":"JingZhuXiCun","lng":"110.436000","lat":"27.999570"},{"id":484094,"parent_id":484084,"level":4,"area_code":"431222248224","zip_code":"419625","city_code":"0745","name":"\u9a6c\u978d\u6f6d\u6751","short_name":"\u9a6c\u978d\u6f6d\u6751","merger_name":"\u6e56\u5357,\u6000\u5316,\u6c85\u9675,\u5927\u5408\u576a,\u9a6c\u978d\u6f6d\u6751","pinyin":"MaAnTanCun","lng":"110.625320","lat":"28.765040"},{"id":484095,"parent_id":484084,"level":4,"area_code":"431222248225","zip_code":"419625","city_code":"0745","name":"\u5927\u5408\u576a\u6751","short_name":"\u5927\u5408\u576a\u6751","merger_name":"\u6e56\u5357,\u6000\u5316,\u6c85\u9675,\u5927\u5408\u576a,\u5927\u5408\u576a\u6751","pinyin":"DaHePingCun","lng":"110.626890","lat":"28.799410"},{"id":484096,"parent_id":484084,"level":4,"area_code":"431222248226","zip_code":"419625","city_code":"0745","name":"\u5ed6\u5bb6\u576a\u6751","short_name":"\u5ed6\u5bb6\u576a\u6751","merger_name":"\u6e56\u5357,\u6000\u5316,\u6c85\u9675,\u5927\u5408\u576a,\u5ed6\u5bb6\u576a\u6751","pinyin":"LiaoJiaPingCun","lng":"110.621420","lat":"28.835670"},{"id":484097,"parent_id":484084,"level":4,"area_code":"431222248227","zip_code":"419625","city_code":"0745","name":"\u56e2\u576a\u6751","short_name":"\u56e2\u576a\u6751","merger_name":"\u6e56\u5357,\u6000\u5316,\u6c85\u9675,\u5927\u5408\u576a,\u56e2\u576a\u6751","pinyin":"TuanPingCun","lng":"110.581580","lat":"28.820740"},{"id":484098,"parent_id":484084,"level":4,"area_code":"431222248228","zip_code":"419625","city_code":"0745","name":"\u9ec4\u72ee\u57ad\u6751","short_name":"\u9ec4\u72ee\u57ad\u6751","merger_name":"\u6e56\u5357,\u6000\u5316,\u6c85\u9675,\u5927\u5408\u576a,\u9ec4\u72ee\u57ad\u6751","pinyin":"HuangShiYaCun","lng":"110.664690","lat":"28.827380"},{"id":484099,"parent_id":484084,"level":4,"area_code":"431222248229","zip_code":"419625","city_code":"0745","name":"\u4e03\u7532\u6eaa\u6751","short_name":"\u4e03\u7532\u6eaa\u6751","merger_name":"\u6e56\u5357,\u6000\u5316,\u6c85\u9675,\u5927\u5408\u576a,\u4e03\u7532\u6eaa\u6751","pinyin":"QiJiaXiCun","lng":"110.654250","lat":"28.863040"},{"id":484100,"parent_id":483756,"level":3,"area_code":"431222250000","zip_code":"419603","city_code":"0745","name":"\u9a6c\u5e95\u9a7f\u4e61","short_name":"\u9a6c\u5e95\u9a7f","merger_name":"\u6e56\u5357,\u6000\u5316,\u6c85\u9675,\u9a6c\u5e95\u9a7f","pinyin":"MaDiYi","lng":"110.655950","lat":"28.469320"},{"id":484101,"parent_id":484100,"level":4,"area_code":"431222250200","zip_code":"419603","city_code":"0745","name":"\u7267\u9a6c\u6eaa\u6751\u6751\u59d4\u4f1a","short_name":"\u7267\u9a6c\u6eaa\u6751","merger_name":"\u6e56\u5357,\u6000\u5316,\u6c85\u9675,\u9a6c\u5e95\u9a7f,\u7267\u9a6c\u6eaa\u6751","pinyin":"MuMaXiCun","lng":"110.655950","lat":"28.469320"},{"id":484102,"parent_id":484100,"level":4,"area_code":"431222250201","zip_code":"419603","city_code":"0745","name":"\u989c\u5bb6\u6751\u6751\u59d4\u4f1a","short_name":"\u989c\u5bb6\u6751","merger_name":"\u6e56\u5357,\u6000\u5316,\u6c85\u9675,\u9a6c\u5e95\u9a7f,\u989c\u5bb6\u6751","pinyin":"YanJiaCun","lng":"110.998165","lat":"28.681106"},{"id":484103,"parent_id":484100,"level":4,"area_code":"431222250202","zip_code":"419603","city_code":"0745","name":"\u9a6c\u5e95\u9a7f\u6751\u6751\u59d4\u4f1a","short_name":"\u9a6c\u5e95\u9a7f\u6751","merger_name":"\u6e56\u5357,\u6000\u5316,\u6c85\u9675,\u9a6c\u5e95\u9a7f,\u9a6c\u5e95\u9a7f\u6751","pinyin":"MaDiYiCun","lng":"110.655950","lat":"28.469320"},{"id":484104,"parent_id":484100,"level":4,"area_code":"431222250203","zip_code":"419603","city_code":"0745","name":"\u6587\u660c\u576a\u6751\u6751\u59d4\u4f1a","short_name":"\u6587\u660c\u576a\u6751","merger_name":"\u6e56\u5357,\u6000\u5316,\u6c85\u9675,\u9a6c\u5e95\u9a7f,\u6587\u660c\u576a\u6751","pinyin":"WenChangPingCun","lng":"110.655950","lat":"28.469320"},{"id":484105,"parent_id":484100,"level":4,"area_code":"431222250206","zip_code":"419601","city_code":"0745","name":"\u767d\u52a1\u6eaa\u6751\u6751\u59d4\u4f1a","short_name":"\u767d\u52a1\u6eaa\u6751","merger_name":"\u6e56\u5357,\u6000\u5316,\u6c85\u9675,\u9a6c\u5e95\u9a7f,\u767d\u52a1\u6eaa\u6751","pinyin":"BaiWuXiCun","lng":"110.655950","lat":"28.469320"},{"id":484106,"parent_id":484100,"level":4,"area_code":"431222250208","zip_code":"419603","city_code":"0745","name":"\u9ed1\u6d1e\u6eaa\u6751\u6751\u59d4\u4f1a","short_name":"\u9ed1\u6d1e\u6eaa\u6751","merger_name":"\u6e56\u5357,\u6000\u5316,\u6c85\u9675,\u9a6c\u5e95\u9a7f,\u9ed1\u6d1e\u6eaa\u6751","pinyin":"HeiDongXiCun","lng":"110.655950","lat":"28.469320"},{"id":484107,"parent_id":484100,"level":4,"area_code":"431222250209","zip_code":"419603","city_code":"0745","name":"\u576a\u6eaa\u6751\u6751\u59d4\u4f1a","short_name":"\u576a\u6eaa\u6751","merger_name":"\u6e56\u5357,\u6000\u5316,\u6c85\u9675,\u9a6c\u5e95\u9a7f,\u576a\u6eaa\u6751","pinyin":"PingXiCun","lng":"110.655950","lat":"28.469320"},{"id":484108,"parent_id":484100,"level":4,"area_code":"431222250213","zip_code":"419603","city_code":"0745","name":"\u5954\u6eaa\u6751\u6751\u59d4\u4f1a","short_name":"\u5954\u6eaa\u6751","merger_name":"\u6e56\u5357,\u6000\u5316,\u6c85\u9675,\u9a6c\u5e95\u9a7f,\u5954\u6eaa\u6751","pinyin":"BenXiCun","lng":"110.711073","lat":"28.378572"},{"id":484109,"parent_id":484100,"level":4,"area_code":"431222250214","zip_code":"419603","city_code":"0745","name":"\u559c\u7709\u6751\u6751\u59d4\u4f1a","short_name":"\u559c\u7709\u6751","merger_name":"\u6e56\u5357,\u6000\u5316,\u6c85\u9675,\u9a6c\u5e95\u9a7f,\u559c\u7709\u6751","pinyin":"XiMeiCun","lng":"110.655950","lat":"28.469320"},{"id":484110,"parent_id":484100,"level":4,"area_code":"431222250221","zip_code":"419606","city_code":"0745","name":"\u4e1c\u6eaa\u6751\u6751\u59d4\u4f1a","short_name":"\u4e1c\u6eaa\u6751","merger_name":"\u6e56\u5357,\u6000\u5316,\u6c85\u9675,\u9a6c\u5e95\u9a7f,\u4e1c\u6eaa\u6751","pinyin":"DongXiCun","lng":"110.655950","lat":"28.469320"},{"id":484111,"parent_id":484100,"level":4,"area_code":"431222250225","zip_code":"419603","city_code":"0745","name":"\u738b\u5bb6\u6751\u6751\u59d4\u4f1a","short_name":"\u738b\u5bb6\u6751","merger_name":"\u6e56\u5357,\u6000\u5316,\u6c85\u9675,\u9a6c\u5e95\u9a7f,\u738b\u5bb6\u6751","pinyin":"WangJiaCun","lng":"110.655950","lat":"28.469320"},{"id":484112,"parent_id":484100,"level":4,"area_code":"431222250227","zip_code":"419606","city_code":"0745","name":"\u957f\u754c\u6751\u6751\u59d4\u4f1a","short_name":"\u957f\u754c\u6751","merger_name":"\u6e56\u5357,\u6000\u5316,\u6c85\u9675,\u9a6c\u5e95\u9a7f,\u957f\u754c\u6751","pinyin":"ZhangJieCun","lng":"110.655950","lat":"28.469320"},{"id":484113,"parent_id":484100,"level":4,"area_code":"431222250228","zip_code":"419699","city_code":"0745","name":"\u6bdb\u576a\u6751","short_name":"\u6bdb\u576a\u6751","merger_name":"\u6e56\u5357,\u6000\u5316,\u6c85\u9675,\u9a6c\u5e95\u9a7f,\u6bdb\u576a\u6751","pinyin":"MaoPingCun","lng":"110.657630","lat":"28.471270"},{"id":484114,"parent_id":484100,"level":4,"area_code":"431222250229","zip_code":"419603","city_code":"0745","name":"\u65b9\u5b50\u57ad\u6751","short_name":"\u65b9\u5b50\u57ad\u6751","merger_name":"\u6e56\u5357,\u6000\u5316,\u6c85\u9675,\u9a6c\u5e95\u9a7f,\u65b9\u5b50\u57ad\u6751","pinyin":"FangZiYaCun","lng":"110.657630","lat":"28.471270"},{"id":484115,"parent_id":484100,"level":4,"area_code":"431222250230","zip_code":"419603","city_code":"0745","name":"\u69a8\u576a\u6751","short_name":"\u69a8\u576a\u6751","merger_name":"\u6e56\u5357,\u6000\u5316,\u6c85\u9675,\u9a6c\u5e95\u9a7f,\u69a8\u576a\u6751","pinyin":"ZhaPingCun","lng":"110.595130","lat":"28.518870"},{"id":484116,"parent_id":484100,"level":4,"area_code":"431222250231","zip_code":"419603","city_code":"0745","name":"\u5c0f\u5854\u6751","short_name":"\u5c0f\u5854\u6751","merger_name":"\u6e56\u5357,\u6000\u5316,\u6c85\u9675,\u9a6c\u5e95\u9a7f,\u5c0f\u5854\u6751","pinyin":"XiaoTaCun","lng":"110.647370","lat":"28.543710"},{"id":484117,"parent_id":484100,"level":4,"area_code":"431222250232","zip_code":"419603","city_code":"0745","name":"\u6d1e\u5934\u6751","short_name":"\u6d1e\u5934\u6751","merger_name":"\u6e56\u5357,\u6000\u5316,\u6c85\u9675,\u9a6c\u5e95\u9a7f,\u6d1e\u5934\u6751","pinyin":"DongTouCun","lng":"110.615250","lat":"28.489920"},{"id":484118,"parent_id":483756,"level":3,"area_code":"431222251000","zip_code":"419623","city_code":"0745","name":"\u5317\u6eb6\u4e61","short_name":"\u5317\u6eb6","merger_name":"\u6e56\u5357,\u6000\u5316,\u6c85\u9675,\u5317\u6eb6","pinyin":"BeiRong","lng":"110.571150","lat":"28.643460"},{"id":484119,"parent_id":484118,"level":4,"area_code":"431222251202","zip_code":"419623","city_code":"0745","name":"\u6768\u5bb6\u6f6d\u6751\u6751\u59d4\u4f1a","short_name":"\u6768\u5bb6\u6f6d\u6751","merger_name":"\u6e56\u5357,\u6000\u5316,\u6c85\u9675,\u5317\u6eb6,\u6768\u5bb6\u6f6d\u6751","pinyin":"YangJiaTanCun","lng":"110.403100","lat":"28.496860"},{"id":484120,"parent_id":484118,"level":4,"area_code":"431222251214","zip_code":"419623","city_code":"0745","name":"\u6591\u7af9\u6eaa\u6751\u6751\u59d4\u4f1a","short_name":"\u6591\u7af9\u6eaa\u6751","merger_name":"\u6e56\u5357,\u6000\u5316,\u6c85\u9675,\u5317\u6eb6,\u6591\u7af9\u6eaa\u6751","pinyin":"BanZhuXiCun","lng":"110.453637","lat":"27.270343"},{"id":484121,"parent_id":484118,"level":4,"area_code":"431222251219","zip_code":"419623","city_code":"0745","name":"\u843d\u576a\u6751\u6751\u59d4\u4f1a","short_name":"\u843d\u576a\u6751","merger_name":"\u6e56\u5357,\u6000\u5316,\u6c85\u9675,\u5317\u6eb6,\u843d\u576a\u6751","pinyin":"LuoPingCun","lng":"110.538430","lat":"28.690300"},{"id":484122,"parent_id":484118,"level":4,"area_code":"431222251225","zip_code":"419623","city_code":"0745","name":"\u8983\u660e\u5934\u6751\u6751\u59d4\u4f1a","short_name":"\u8983\u660e\u5934\u6751","merger_name":"\u6e56\u5357,\u6000\u5316,\u6c85\u9675,\u5317\u6eb6,\u8983\u660e\u5934\u6751","pinyin":"TanMingTouCun","lng":"110.403100","lat":"28.496860"},{"id":484123,"parent_id":484118,"level":4,"area_code":"431222251227","zip_code":"419623","city_code":"0745","name":"\u86df\u53e3\u6751\u6751\u59d4\u4f1a","short_name":"\u86df\u53e3\u6751","merger_name":"\u6e56\u5357,\u6000\u5316,\u6c85\u9675,\u5317\u6eb6,\u86df\u53e3\u6751","pinyin":"JiaoKouCun","lng":"110.403100","lat":"28.496860"},{"id":484124,"parent_id":484118,"level":4,"area_code":"431222251228","zip_code":"419623","city_code":"0745","name":"\u5927\u6dc7\u53e3\u6751\u6751\u59d4\u4f1a","short_name":"\u5927\u6dc7\u53e3\u6751","merger_name":"\u6e56\u5357,\u6000\u5316,\u6c85\u9675,\u5317\u6eb6,\u5927\u6dc7\u53e3\u6751","pinyin":"DaQiKouCun","lng":"110.453637","lat":"27.270343"},{"id":484125,"parent_id":484118,"level":4,"area_code":"431222251229","zip_code":"419623","city_code":"0745","name":"\u4e09\u516b\u6751\u6751\u59d4\u4f1a","short_name":"\u4e09\u516b\u6751","merger_name":"\u6e56\u5357,\u6000\u5316,\u6c85\u9675,\u5317\u6eb6,\u4e09\u516b\u6751","pinyin":"SanBaCun","lng":"109.400800","lat":"27.361480"},{"id":484126,"parent_id":484118,"level":4,"area_code":"431222251230","zip_code":"419623","city_code":"0745","name":"\u5f20\u671d\u57ad\u6751\u6751\u59d4\u4f1a","short_name":"\u5f20\u671d\u57ad\u6751","merger_name":"\u6e56\u5357,\u6000\u5316,\u6c85\u9675,\u5317\u6eb6,\u5f20\u671d\u57ad\u6751","pinyin":"ZhangChaoYaCun","lng":"110.517550","lat":"28.666440"},{"id":484127,"parent_id":484118,"level":4,"area_code":"431222251231","zip_code":"419623","city_code":"0745","name":"\u6731\u7ea2\u6eaa\u6751\u6751\u59d4\u4f1a","short_name":"\u6731\u7ea2\u6eaa\u6751","merger_name":"\u6e56\u5357,\u6000\u5316,\u6c85\u9675,\u5317\u6eb6,\u6731\u7ea2\u6eaa\u6751","pinyin":"ZhuHongXiCun","lng":"110.576900","lat":"28.642460"},{"id":484128,"parent_id":484118,"level":4,"area_code":"431222251232","zip_code":"419623","city_code":"0745","name":"\u6d1e\u4e0a\u576a\u6751\u6751\u59d4\u4f1a","short_name":"\u6d1e\u4e0a\u576a\u6751","merger_name":"\u6e56\u5357,\u6000\u5316,\u6c85\u9675,\u5317\u6eb6,\u6d1e\u4e0a\u576a\u6751","pinyin":"DongShangPingCun","lng":"110.403100","lat":"28.496860"},{"id":484129,"parent_id":484118,"level":4,"area_code":"431222251233","zip_code":"419623","city_code":"0745","name":"\u78a3\u6ee9\u6751\u6751\u59d4\u4f1a","short_name":"\u78a3\u6ee9\u6751","merger_name":"\u6e56\u5357,\u6000\u5316,\u6c85\u9675,\u5317\u6eb6,\u78a3\u6ee9\u6751","pinyin":"JieTanCun","lng":"110.453637","lat":"27.270343"},{"id":484130,"parent_id":484118,"level":4,"area_code":"431222251234","zip_code":"419623","city_code":"0745","name":"\u8463\u5c71\u6eaa\u6751\u6751\u59d4\u4f1a","short_name":"\u8463\u5c71\u6eaa\u6751","merger_name":"\u6e56\u5357,\u6000\u5316,\u6c85\u9675,\u5317\u6eb6,\u8463\u5c71\u6eaa\u6751","pinyin":"DongShanXiCun","lng":"110.453637","lat":"27.270343"},{"id":484131,"parent_id":484118,"level":4,"area_code":"431222251235","zip_code":"419623","city_code":"0745","name":"\u7af9\u57ad\u6751\u6751\u59d4\u4f1a","short_name":"\u7af9\u57ad\u6751","merger_name":"\u6e56\u5357,\u6000\u5316,\u6c85\u9675,\u5317\u6eb6,\u7af9\u57ad\u6751","pinyin":"ZhuYaCun","lng":"110.453637","lat":"27.270343"},{"id":484132,"parent_id":484118,"level":4,"area_code":"431222251236","zip_code":"419623","city_code":"0745","name":"\u6850\u6eaa\u6d6a\u6751\u6751\u59d4\u4f1a","short_name":"\u6850\u6eaa\u6d6a\u6751","merger_name":"\u6e56\u5357,\u6000\u5316,\u6c85\u9675,\u5317\u6eb6,\u6850\u6eaa\u6d6a\u6751","pinyin":"TongXiLangCun","lng":"110.554650","lat":"28.744900"},{"id":484133,"parent_id":483756,"level":3,"area_code":"431222252000","zip_code":"419618","city_code":"0745","name":"\u4e8c\u9149\u4e61","short_name":"\u4e8c\u9149","merger_name":"\u6e56\u5357,\u6000\u5316,\u6c85\u9675,\u4e8c\u9149","pinyin":"ErYou","lng":"110.283190","lat":"28.522870"},{"id":484134,"parent_id":484133,"level":4,"area_code":"431222252203","zip_code":"419618","city_code":"0745","name":"\u534a\u6eaa\u6751\u6751\u59d4\u4f1a","short_name":"\u534a\u6eaa\u6751","merger_name":"\u6e56\u5357,\u6000\u5316,\u6c85\u9675,\u4e8c\u9149,\u534a\u6eaa\u6751","pinyin":"BanXiCun","lng":"110.403100","lat":"28.496860"},{"id":484135,"parent_id":484133,"level":4,"area_code":"431222252204","zip_code":"419618","city_code":"0745","name":"\u6768\u67f3\u57ad\u6751\u6751\u59d4\u4f1a","short_name":"\u6768\u67f3\u57ad\u6751","merger_name":"\u6e56\u5357,\u6000\u5316,\u6c85\u9675,\u4e8c\u9149,\u6768\u67f3\u57ad\u6751","pinyin":"YangLiuYaCun","lng":"110.277340","lat":"28.604320"},{"id":484136,"parent_id":484133,"level":4,"area_code":"431222252207","zip_code":"419618","city_code":"0745","name":"\u6850\u6728\u6eaa\u6751\u6751\u59d4\u4f1a","short_name":"\u6850\u6728\u6eaa\u6751","merger_name":"\u6e56\u5357,\u6000\u5316,\u6c85\u9675,\u4e8c\u9149,\u6850\u6728\u6eaa\u6751","pinyin":"TongMuXiCun","lng":"110.236810","lat":"28.630200"},{"id":484137,"parent_id":484133,"level":4,"area_code":"431222252208","zip_code":"419618","city_code":"0745","name":"\u8840\u6c34\u6f6d\u6751\u6751\u59d4\u4f1a","short_name":"\u8840\u6c34\u6f6d\u6751","merger_name":"\u6e56\u5357,\u6000\u5316,\u6c85\u9675,\u4e8c\u9149,\u8840\u6c34\u6f6d\u6751","pinyin":"XueShuiTanCun","lng":"110.241330","lat":"28.500740"},{"id":484138,"parent_id":484133,"level":4,"area_code":"431222252209","zip_code":"419618","city_code":"0745","name":"\u5e99\u576a\u6751\u6751\u59d4\u4f1a","short_name":"\u5e99\u576a\u6751","merger_name":"\u6e56\u5357,\u6000\u5316,\u6c85\u9675,\u4e8c\u9149,\u5e99\u576a\u6751","pinyin":"MiaoPingCun","lng":"110.241330","lat":"28.500740"},{"id":484139,"parent_id":484133,"level":4,"area_code":"431222252211","zip_code":"419618","city_code":"0745","name":"\u592a\u5e73\u5b89\u6751\u6751\u59d4\u4f1a","short_name":"\u592a\u5e73\u5b89\u6751","merger_name":"\u6e56\u5357,\u6000\u5316,\u6c85\u9675,\u4e8c\u9149,\u592a\u5e73\u5b89\u6751","pinyin":"TaiPingAnCun","lng":"110.403100","lat":"28.496860"},{"id":484140,"parent_id":484133,"level":4,"area_code":"431222252222","zip_code":"419618","city_code":"0745","name":"\u6e05\u6c34\u576a\u6751\u6751\u59d4\u4f1a","short_name":"\u6e05\u6c34\u576a\u6751","merger_name":"\u6e56\u5357,\u6000\u5316,\u6c85\u9675,\u4e8c\u9149,\u6e05\u6c34\u576a\u6751","pinyin":"QingShuiPingCun","lng":"110.215450","lat":"28.521480"},{"id":484141,"parent_id":484133,"level":4,"area_code":"431222252224","zip_code":"419618","city_code":"0745","name":"\u83b2\u82b1\u6c60\u6751\u6751\u59d4\u4f1a","short_name":"\u83b2\u82b1\u6c60\u6751","merger_name":"\u6e56\u5357,\u6000\u5316,\u6c85\u9675,\u4e8c\u9149,\u83b2\u82b1\u6c60\u6751","pinyin":"LianHuaChiCun","lng":"110.237740","lat":"28.547630"},{"id":484142,"parent_id":484133,"level":4,"area_code":"431222252233","zip_code":"419618","city_code":"0745","name":"\u7530\u5773\u6751\u6751\u59d4\u4f1a","short_name":"\u7530\u5773\u6751","merger_name":"\u6e56\u5357,\u6000\u5316,\u6c85\u9675,\u4e8c\u9149,\u7530\u5773\u6751","pinyin":"TianAoCun","lng":"110.198260","lat":"28.430460"},{"id":484143,"parent_id":484133,"level":4,"area_code":"431222252234","zip_code":"419618","city_code":"0745","name":"\u7070\u6eaa\u6751\u6751\u59d4\u4f1a","short_name":"\u7070\u6eaa\u6751","merger_name":"\u6e56\u5357,\u6000\u5316,\u6c85\u9675,\u4e8c\u9149,\u7070\u6eaa\u6751","pinyin":"HuiXiCun","lng":"110.198260","lat":"28.430460"},{"id":484144,"parent_id":484133,"level":4,"area_code":"431222252235","zip_code":"419618","city_code":"0745","name":"\u8299\u51b2\u6eb6\u6751\u6751\u59d4\u4f1a","short_name":"\u8299\u51b2\u6eb6\u6751","merger_name":"\u6e56\u5357,\u6000\u5316,\u6c85\u9675,\u4e8c\u9149,\u8299\u51b2\u6eb6\u6751","pinyin":"FuChongRongCun","lng":"110.198260","lat":"28.430460"},{"id":484145,"parent_id":484133,"level":4,"area_code":"431222252241","zip_code":"419618","city_code":"0745","name":"\u82a6\u576a\u6751\u6751\u59d4\u4f1a","short_name":"\u82a6\u576a\u6751","merger_name":"\u6e56\u5357,\u6000\u5316,\u6c85\u9675,\u4e8c\u9149,\u82a6\u576a\u6751","pinyin":"LuPingCun","lng":"110.403100","lat":"28.496860"},{"id":484146,"parent_id":484133,"level":4,"area_code":"431222252243","zip_code":"419618","city_code":"0745","name":"\u4e03\u5bb6\u6751\u6751\u59d4\u4f1a","short_name":"\u4e03\u5bb6\u6751","merger_name":"\u6e56\u5357,\u6000\u5316,\u6c85\u9675,\u4e8c\u9149,\u4e03\u5bb6\u6751","pinyin":"QiJiaCun","lng":"110.241330","lat":"28.500740"},{"id":484147,"parent_id":484133,"level":4,"area_code":"431222252244","zip_code":"419618","city_code":"0745","name":"\u8336\u6eaa\u6751\u6751\u59d4\u4f1a","short_name":"\u8336\u6eaa\u6751","merger_name":"\u6e56\u5357,\u6000\u5316,\u6c85\u9675,\u4e8c\u9149,\u8336\u6eaa\u6751","pinyin":"ChaXiCun","lng":"110.575500","lat":"28.903360"},{"id":484148,"parent_id":484133,"level":4,"area_code":"431222252245","zip_code":"419618","city_code":"0745","name":"\u6eaa\u5730\u576a\u6751\u6751\u59d4\u4f1a","short_name":"\u6eaa\u5730\u576a\u6751","merger_name":"\u6e56\u5357,\u6000\u5316,\u6c85\u9675,\u4e8c\u9149,\u6eaa\u5730\u576a\u6751","pinyin":"XiDiPingCun","lng":"110.241330","lat":"28.500740"},{"id":484149,"parent_id":484133,"level":4,"area_code":"431222252246","zip_code":"419618","city_code":"0745","name":"\u624e\u576a\u6751\u6751\u59d4\u4f1a","short_name":"\u624e\u576a\u6751","merger_name":"\u6e56\u5357,\u6000\u5316,\u6c85\u9675,\u4e8c\u9149,\u624e\u576a\u6751","pinyin":"ZhaPingCun","lng":"110.258310","lat":"28.456400"},{"id":484150,"parent_id":484133,"level":4,"area_code":"431222252248","zip_code":"419618","city_code":"0745","name":"\u6208\u6d1e\u6751\u6751\u59d4\u4f1a","short_name":"\u6208\u6d1e\u6751","merger_name":"\u6e56\u5357,\u6000\u5316,\u6c85\u9675,\u4e8c\u9149,\u6208\u6d1e\u6751","pinyin":"GeDongCun","lng":"110.198260","lat":"28.430460"},{"id":484151,"parent_id":484133,"level":4,"area_code":"431222252249","zip_code":"419618","city_code":"0745","name":"\u56db\u65b9\u6eaa\u6751\u6751\u59d4\u4f1a","short_name":"\u56db\u65b9\u6eaa\u6751","merger_name":"\u6e56\u5357,\u6000\u5316,\u6c85\u9675,\u4e8c\u9149,\u56db\u65b9\u6eaa\u6751","pinyin":"SiFangXiCun","lng":"110.351040","lat":"28.578060"},{"id":484152,"parent_id":484133,"level":4,"area_code":"431222252250","zip_code":"419618","city_code":"0745","name":"\u4e4c\u5bbf\u6751\u6751\u59d4\u4f1a","short_name":"\u4e4c\u5bbf\u6751","merger_name":"\u6e56\u5357,\u6000\u5316,\u6c85\u9675,\u4e8c\u9149,\u4e4c\u5bbf\u6751","pinyin":"WuSuCun","lng":"110.241330","lat":"28.500740"},{"id":484153,"parent_id":484133,"level":4,"area_code":"431222252251","zip_code":"419618","city_code":"0745","name":"\u6d2a\u6811\u576a\u6751\u6751\u59d4\u4f1a","short_name":"\u6d2a\u6811\u576a\u6751","merger_name":"\u6e56\u5357,\u6000\u5316,\u6c85\u9675,\u4e8c\u9149,\u6d2a\u6811\u576a\u6751","pinyin":"HongShuPingCun","lng":"110.312690","lat":"28.542260"},{"id":484154,"parent_id":484133,"level":4,"area_code":"431222252252","zip_code":"419618","city_code":"0745","name":"\u56db\u65b9\u576a\u6751\u6751\u59d4\u4f1a","short_name":"\u56db\u65b9\u576a\u6751","merger_name":"\u6e56\u5357,\u6000\u5316,\u6c85\u9675,\u4e8c\u9149,\u56db\u65b9\u576a\u6751","pinyin":"SiFangPingCun","lng":"110.334350","lat":"28.565870"},{"id":484155,"parent_id":484133,"level":4,"area_code":"431222252253","zip_code":"419618","city_code":"0745","name":"\u9ad8\u7af9\u576a\u6751\u6751\u59d4\u4f1a","short_name":"\u9ad8\u7af9\u576a\u6751","merger_name":"\u6e56\u5357,\u6000\u5316,\u6c85\u9675,\u4e8c\u9149,\u9ad8\u7af9\u576a\u6751","pinyin":"GaoZhuPingCun","lng":"110.228790","lat":"28.525070"},{"id":484156,"parent_id":484133,"level":4,"area_code":"431222252254","zip_code":"419618","city_code":"0745","name":"\u843d\u9e64\u576a\u6751","short_name":"\u843d\u9e64\u576a\u6751","merger_name":"\u6e56\u5357,\u6000\u5316,\u6c85\u9675,\u4e8c\u9149,\u843d\u9e64\u576a\u6751","pinyin":"LuoHePingCun","lng":"110.318909","lat":"28.576656"},{"id":484157,"parent_id":484133,"level":4,"area_code":"431222252255","zip_code":"419618","city_code":"0745","name":"\u4e09\u6eaa\u6751","short_name":"\u4e09\u6eaa\u6751","merger_name":"\u6e56\u5357,\u6000\u5316,\u6c85\u9675,\u4e8c\u9149,\u4e09\u6eaa\u6751","pinyin":"SanXiCun","lng":"109.691570","lat":"27.025120"},{"id":484158,"parent_id":484133,"level":4,"area_code":"431222252256","zip_code":"419618","city_code":"0745","name":"\u9ec4\u6ce5\u7530\u6751","short_name":"\u9ec4\u6ce5\u7530\u6751","merger_name":"\u6e56\u5357,\u6000\u5316,\u6c85\u9675,\u4e8c\u9149,\u9ec4\u6ce5\u7530\u6751","pinyin":"HuangNiTianCun","lng":"110.181600","lat":"28.488660"},{"id":484159,"parent_id":484133,"level":4,"area_code":"431222252257","zip_code":"419618","city_code":"0745","name":"\u9149\u6eaa\u53e3\u6751","short_name":"\u9149\u6eaa\u53e3\u6751","merger_name":"\u6e56\u5357,\u6000\u5316,\u6c85\u9675,\u4e8c\u9149,\u9149\u6eaa\u53e3\u6751","pinyin":"YouXiKouCun","lng":"110.527350","lat":"28.367460"},{"id":484160,"parent_id":484133,"level":4,"area_code":"431222252258","zip_code":"419618","city_code":"0745","name":"\u65bd\u6eaa\u6751","short_name":"\u65bd\u6eaa\u6751","merger_name":"\u6e56\u5357,\u6000\u5316,\u6c85\u9675,\u4e8c\u9149,\u65bd\u6eaa\u6751","pinyin":"ShiXiCun","lng":"110.211310","lat":"28.550150"},{"id":484161,"parent_id":484133,"level":4,"area_code":"431222252259","zip_code":"419618","city_code":"0745","name":"\u65e9\u6e56\u6751","short_name":"\u65e9\u6e56\u6751","merger_name":"\u6e56\u5357,\u6000\u5316,\u6c85\u9675,\u4e8c\u9149,\u65e9\u6e56\u6751","pinyin":"ZaoHuCun","lng":"109.672370","lat":"26.600770"},{"id":484162,"parent_id":484133,"level":4,"area_code":"431222252260","zip_code":"419618","city_code":"0745","name":"\u68cb\u576a\u6751","short_name":"\u68cb\u576a\u6751","merger_name":"\u6e56\u5357,\u6000\u5316,\u6c85\u9675,\u4e8c\u9149,\u68cb\u576a\u6751","pinyin":"QiPingCun","lng":"110.196790","lat":"28.430010"},{"id":484163,"parent_id":484133,"level":4,"area_code":"431222252261","zip_code":"419618","city_code":"0745","name":"\u957f\u5761\u6751","short_name":"\u957f\u5761\u6751","merger_name":"\u6e56\u5357,\u6000\u5316,\u6c85\u9675,\u4e8c\u9149,\u957f\u5761\u6751","pinyin":"ZhangPoCun","lng":"110.760350","lat":"27.956100"},{"id":484164,"parent_id":483756,"level":3,"area_code":"431222253000","zip_code":"419616","city_code":"0745","name":"\u76d8\u53e4\u4e61","short_name":"\u76d8\u53e4","merger_name":"\u6e56\u5357,\u6000\u5316,\u6c85\u9675,\u76d8\u53e4","pinyin":"PanGu","lng":"110.306440","lat":"28.344431"},{"id":484165,"parent_id":484164,"level":4,"area_code":"431222253203","zip_code":"419616","city_code":"0745","name":"\u8354\u6eaa\u53e3\u6751\u6751\u59d4\u4f1a","short_name":"\u8354\u6eaa\u53e3\u6751","merger_name":"\u6e56\u5357,\u6000\u5316,\u6c85\u9675,\u76d8\u53e4,\u8354\u6eaa\u53e3\u6751","pinyin":"LiXiKouCun","lng":"110.277560","lat":"28.298460"},{"id":484166,"parent_id":484164,"level":4,"area_code":"431222253212","zip_code":"419617","city_code":"0745","name":"\u8463\u5bb6\u576a\u6751\u6751\u59d4\u4f1a","short_name":"\u8463\u5bb6\u576a\u6751","merger_name":"\u6e56\u5357,\u6000\u5316,\u6c85\u9675,\u76d8\u53e4,\u8463\u5bb6\u576a\u6751","pinyin":"DongJiaPingCun","lng":"110.277560","lat":"28.298460"},{"id":484167,"parent_id":484164,"level":4,"area_code":"431222253213","zip_code":"419617","city_code":"0745","name":"\u4e09\u6d32\u6751\u6751\u59d4\u4f1a","short_name":"\u4e09\u6d32\u6751","merger_name":"\u6e56\u5357,\u6000\u5316,\u6c85\u9675,\u76d8\u53e4,\u4e09\u6d32\u6751","pinyin":"SanZhouCun","lng":"110.306440","lat":"28.344431"},{"id":484168,"parent_id":484164,"level":4,"area_code":"431222253214","zip_code":"419617","city_code":"0745","name":"\u7ea2\u5ca9\u6751\u6751\u59d4\u4f1a","short_name":"\u7ea2\u5ca9\u6751","merger_name":"\u6e56\u5357,\u6000\u5316,\u6c85\u9675,\u76d8\u53e4,\u7ea2\u5ca9\u6751","pinyin":"HongYanCun","lng":"110.618401","lat":"27.395983"},{"id":484169,"parent_id":484164,"level":4,"area_code":"431222253219","zip_code":"419617","city_code":"0745","name":"\u9752\u6728\u6751\u6751\u59d4\u4f1a","short_name":"\u9752\u6728\u6751","merger_name":"\u6e56\u5357,\u6000\u5316,\u6c85\u9675,\u76d8\u53e4,\u9752\u6728\u6751","pinyin":"QingMuCun","lng":"110.196460","lat":"28.270390"},{"id":484170,"parent_id":484164,"level":4,"area_code":"431222253222","zip_code":"419617","city_code":"0745","name":"\u5b89\u9f99\u5934\u6751\u6751\u59d4\u4f1a","short_name":"\u5b89\u9f99\u5934\u6751","merger_name":"\u6e56\u5357,\u6000\u5316,\u6c85\u9675,\u76d8\u53e4,\u5b89\u9f99\u5934\u6751","pinyin":"AnLongTouCun","lng":"110.277560","lat":"28.298460"},{"id":484171,"parent_id":484164,"level":4,"area_code":"431222253223","zip_code":"419617","city_code":"0745","name":"\u8212\u6eaa\u53e3\u6751\u6751\u59d4\u4f1a","short_name":"\u8212\u6eaa\u53e3\u6751","merger_name":"\u6e56\u5357,\u6000\u5316,\u6c85\u9675,\u76d8\u53e4,\u8212\u6eaa\u53e3\u6751","pinyin":"ShuXiKouCun","lng":"110.277560","lat":"28.298460"},{"id":484172,"parent_id":484164,"level":4,"area_code":"431222253224","zip_code":"419616","city_code":"0745","name":"\u76d8\u53e4\u6751\u6751\u59d4\u4f1a","short_name":"\u76d8\u53e4\u6751","merger_name":"\u6e56\u5357,\u6000\u5316,\u6c85\u9675,\u76d8\u53e4,\u76d8\u53e4\u6751","pinyin":"PanGuCun","lng":"110.306440","lat":"28.344431"},{"id":484173,"parent_id":484164,"level":4,"area_code":"431222253225","zip_code":"419616","city_code":"0745","name":"\u6842\u82b1\u6eaa\u6751\u6751\u59d4\u4f1a","short_name":"\u6842\u82b1\u6eaa\u6751","merger_name":"\u6e56\u5357,\u6000\u5316,\u6c85\u9675,\u76d8\u53e4,\u6842\u82b1\u6eaa\u6751","pinyin":"GuiHuaXiCun","lng":"109.898720","lat":"26.443150"},{"id":484174,"parent_id":484164,"level":4,"area_code":"431222253226","zip_code":"419616","city_code":"0745","name":"\u53cc\u6eaa\u6751\u6751\u59d4\u4f1a","short_name":"\u53cc\u6eaa\u6751","merger_name":"\u6e56\u5357,\u6000\u5316,\u6c85\u9675,\u76d8\u53e4,\u53cc\u6eaa\u6751","pinyin":"ShuangXiCun","lng":"109.868426","lat":"27.236474"},{"id":484175,"parent_id":484164,"level":4,"area_code":"431222253227","zip_code":"419616","city_code":"0745","name":"\u5cad\u5934\u6751\u6751\u59d4\u4f1a","short_name":"\u5cad\u5934\u6751","merger_name":"\u6e56\u5357,\u6000\u5316,\u6c85\u9675,\u76d8\u53e4,\u5cad\u5934\u6751","pinyin":"LingTouCun","lng":"110.306440","lat":"28.344431"},{"id":484176,"parent_id":484164,"level":4,"area_code":"431222253228","zip_code":"419615","city_code":"0745","name":"\u8df3\u5ca9\u6751\u6751\u59d4\u4f1a","short_name":"\u8df3\u5ca9\u6751","merger_name":"\u6e56\u5357,\u6000\u5316,\u6c85\u9675,\u76d8\u53e4,\u8df3\u5ca9\u6751","pinyin":"TiaoYanCun","lng":"110.348540","lat":"28.435590"},{"id":484177,"parent_id":484164,"level":4,"area_code":"431222253229","zip_code":"419616","city_code":"0745","name":"\u6728\u6d32\u6751\u6751\u59d4\u4f1a","short_name":"\u6728\u6d32\u6751","merger_name":"\u6e56\u5357,\u6000\u5316,\u6c85\u9675,\u76d8\u53e4,\u6728\u6d32\u6751","pinyin":"MuZhouCun","lng":"110.267700","lat":"27.980330"},{"id":484178,"parent_id":484164,"level":4,"area_code":"431222253231","zip_code":"419616","city_code":"0745","name":"\u6eaa\u95e8\u6865\u6751\u6751\u59d4\u4f1a","short_name":"\u6eaa\u95e8\u6865\u6751","merger_name":"\u6e56\u5357,\u6000\u5316,\u6c85\u9675,\u76d8\u53e4,\u6eaa\u95e8\u6865\u6751","pinyin":"XiMenQiaoCun","lng":"109.195560","lat":"27.372280"},{"id":484179,"parent_id":484164,"level":4,"area_code":"431222253232","zip_code":"419616","city_code":"0745","name":"\u6768\u6eaa\u6751\u6751\u59d4\u4f1a","short_name":"\u6768\u6eaa\u6751","merger_name":"\u6e56\u5357,\u6000\u5316,\u6c85\u9675,\u76d8\u53e4,\u6768\u6eaa\u6751","pinyin":"YangXiCun","lng":"110.277560","lat":"28.298460"},{"id":484180,"parent_id":484164,"level":4,"area_code":"431222253233","zip_code":"419616","city_code":"0745","name":"\u5c0f\u6f8e\u6751","short_name":"\u5c0f\u6f8e\u6751","merger_name":"\u6e56\u5357,\u6000\u5316,\u6c85\u9675,\u76d8\u53e4,\u5c0f\u6f8e\u6751","pinyin":"XiaoPengCun","lng":"110.306440","lat":"28.344431"},{"id":484181,"parent_id":483454,"level":2,"area_code":"431223000000","zip_code":"419500","city_code":"0745","name":"\u8fb0\u6eaa\u53bf","short_name":"\u8fb0\u6eaa","merger_name":"\u6e56\u5357,\u6000\u5316,\u8fb0\u6eaa","pinyin":"ChenXi","lng":"110.183917","lat":"28.006336"},{"id":484182,"parent_id":484181,"level":3,"area_code":"431223100000","zip_code":"419599","city_code":"0745","name":"\u8fb0\u9633\u9547","short_name":"\u8fb0\u9633","merger_name":"\u6e56\u5357,\u6000\u5316,\u8fb0\u6eaa,\u8fb0\u9633","pinyin":"ChenYang","lng":"110.212000","lat":"28.016060"},{"id":484183,"parent_id":484182,"level":4,"area_code":"431223100001","zip_code":"419507","city_code":"0745","name":"\u4e39\u5c71\u793e\u533a","short_name":"\u4e39\u5c71","merger_name":"\u6e56\u5357,\u6000\u5316,\u8fb0\u6eaa,\u8fb0\u9633,\u4e39\u5c71","pinyin":"DanShan","lng":"110.195068","lat":"28.009954"},{"id":484184,"parent_id":484182,"level":4,"area_code":"431223100002","zip_code":"419599","city_code":"0745","name":"\u67f3\u6811\u6e7e\u793e\u533a","short_name":"\u67f3\u6811\u6e7e","merger_name":"\u6e56\u5357,\u6000\u5316,\u8fb0\u6eaa,\u8fb0\u9633,\u67f3\u6811\u6e7e","pinyin":"LiuShuWan","lng":"110.185740","lat":"28.005490"},{"id":484185,"parent_id":484182,"level":4,"area_code":"431223100008","zip_code":"419599","city_code":"0745","name":"\u9f99\u5934\u4e95\u793e\u533a","short_name":"\u9f99\u5934\u4e95","merger_name":"\u6e56\u5357,\u6000\u5316,\u8fb0\u6eaa,\u8fb0\u9633,\u9f99\u5934\u4e95","pinyin":"LongTouJing","lng":"110.187019","lat":"28.005041"},{"id":484186,"parent_id":484182,"level":4,"area_code":"431223100010","zip_code":"419599","city_code":"0745","name":"\u4e1c\u98ce\u793e\u533a","short_name":"\u4e1c\u98ce","merger_name":"\u6e56\u5357,\u6000\u5316,\u8fb0\u6eaa,\u8fb0\u9633,\u4e1c\u98ce","pinyin":"DongFeng","lng":"110.547290","lat":"27.413440"},{"id":484187,"parent_id":484182,"level":4,"area_code":"431223100013","zip_code":"419599","city_code":"0745","name":"\u594e\u661f\u9601\u793e\u533a","short_name":"\u594e\u661f\u9601","merger_name":"\u6e56\u5357,\u6000\u5316,\u8fb0\u6eaa,\u8fb0\u9633,\u594e\u661f\u9601","pinyin":"KuiXingGe","lng":"110.188972","lat":"28.004595"},{"id":484188,"parent_id":484182,"level":4,"area_code":"431223100014","zip_code":"419599","city_code":"0745","name":"\u4e1c\u661f\u793e\u533a","short_name":"\u4e1c\u661f","merger_name":"\u6e56\u5357,\u6000\u5316,\u8fb0\u6eaa,\u8fb0\u9633,\u4e1c\u661f","pinyin":"DongXing","lng":"110.198273","lat":"28.008307"},{"id":484189,"parent_id":484182,"level":4,"area_code":"431223100200","zip_code":"419599","city_code":"0745","name":"\u6850\u6e7e\u6eaa\u6751","short_name":"\u6850\u6e7e\u6eaa\u6751","merger_name":"\u6e56\u5357,\u6000\u5316,\u8fb0\u6eaa,\u8fb0\u9633,\u6850\u6e7e\u6eaa\u6751","pinyin":"TongWanXiCun","lng":"110.181700","lat":"27.992500"},{"id":484190,"parent_id":484182,"level":4,"area_code":"431223100204","zip_code":"419599","city_code":"0745","name":"\u9646\u5bb6\u6e7e\u6751","short_name":"\u9646\u5bb6\u6e7e\u6751","merger_name":"\u6e56\u5357,\u6000\u5316,\u8fb0\u6eaa,\u8fb0\u9633,\u9646\u5bb6\u6e7e\u6751","pinyin":"LuJiaWanCun","lng":"110.161320","lat":"28.030570"},{"id":484191,"parent_id":484182,"level":4,"area_code":"431223100207","zip_code":"419599","city_code":"0745","name":"\u5f20\u5bb6\u6e9c\u6751","short_name":"\u5f20\u5bb6\u6e9c\u6751","merger_name":"\u6e56\u5357,\u6000\u5316,\u8fb0\u6eaa,\u8fb0\u9633,\u5f20\u5bb6\u6e9c\u6751","pinyin":"ZhangJiaLiuCun","lng":"110.153540","lat":"28.034700"},{"id":484192,"parent_id":484182,"level":4,"area_code":"431223100208","zip_code":"419599","city_code":"0745","name":"\u519b\u5c6f\u6751","short_name":"\u519b\u5c6f\u6751","merger_name":"\u6e56\u5357,\u6000\u5316,\u8fb0\u6eaa,\u8fb0\u9633,\u519b\u5c6f\u6751","pinyin":"JunTunCun","lng":"110.151360","lat":"28.047740"},{"id":484193,"parent_id":484182,"level":4,"area_code":"431223100209","zip_code":"419599","city_code":"0745","name":"\u738b\u5bb6\u576a\u6751","short_name":"\u738b\u5bb6\u576a\u6751","merger_name":"\u6e56\u5357,\u6000\u5316,\u8fb0\u6eaa,\u8fb0\u9633,\u738b\u5bb6\u576a\u6751","pinyin":"WangJiaPingCun","lng":"110.231660","lat":"28.034190"},{"id":484194,"parent_id":484182,"level":4,"area_code":"431223100210","zip_code":"419599","city_code":"0745","name":"\u9526\u5ca9\u6751","short_name":"\u9526\u5ca9\u6751","merger_name":"\u6e56\u5357,\u6000\u5316,\u8fb0\u6eaa,\u8fb0\u9633,\u9526\u5ca9\u6751","pinyin":"JinYanCun","lng":"110.174743","lat":"28.021988"},{"id":484195,"parent_id":484182,"level":4,"area_code":"431223100211","zip_code":"419599","city_code":"0745","name":"\u6c99\u576a\u6751","short_name":"\u6c99\u576a\u6751","merger_name":"\u6e56\u5357,\u6000\u5316,\u8fb0\u6eaa,\u8fb0\u9633,\u6c99\u576a\u6751","pinyin":"ShaPingCun","lng":"110.221120","lat":"28.050590"},{"id":484196,"parent_id":484182,"level":4,"area_code":"431223100212","zip_code":"419507","city_code":"0745","name":"\u5927\u576a\u6751","short_name":"\u5927\u576a\u6751","merger_name":"\u6e56\u5357,\u6000\u5316,\u8fb0\u6eaa,\u8fb0\u9633,\u5927\u576a\u6751","pinyin":"DaPingCun","lng":"110.256860","lat":"28.052870"},{"id":484197,"parent_id":484182,"level":4,"area_code":"431223100213","zip_code":"419599","city_code":"0745","name":"\u5468\u5bb6\u4eba\u6751","short_name":"\u5468\u5bb6\u4eba\u6751","merger_name":"\u6e56\u5357,\u6000\u5316,\u8fb0\u6eaa,\u8fb0\u9633,\u5468\u5bb6\u4eba\u6751","pinyin":"ZhouJiaRenCun","lng":"110.253420","lat":"28.075280"},{"id":484198,"parent_id":484182,"level":4,"area_code":"431223100214","zip_code":"419599","city_code":"0745","name":"\u989c\u5bb6\u4eba\u6751","short_name":"\u989c\u5bb6\u4eba\u6751","merger_name":"\u6e56\u5357,\u6000\u5316,\u8fb0\u6eaa,\u8fb0\u9633,\u989c\u5bb6\u4eba\u6751","pinyin":"YanJiaRenCun","lng":"110.263580","lat":"28.084910"},{"id":484199,"parent_id":484182,"level":4,"area_code":"431223100215","zip_code":"419599","city_code":"0745","name":"\u516d\u5f13\u5858\u6751","short_name":"\u516d\u5f13\u5858\u6751","merger_name":"\u6e56\u5357,\u6000\u5316,\u8fb0\u6eaa,\u8fb0\u9633,\u516d\u5f13\u5858\u6751","pinyin":"LiuGongTangCun","lng":"110.213310","lat":"28.003690"},{"id":484200,"parent_id":484182,"level":4,"area_code":"431223100216","zip_code":"419599","city_code":"0745","name":"\u67d8\u576a\u6751","short_name":"\u67d8\u576a\u6751","merger_name":"\u6e56\u5357,\u6000\u5316,\u8fb0\u6eaa,\u8fb0\u9633,\u67d8\u576a\u6751","pinyin":"ZhePingCun","lng":"110.202860","lat":"28.014280"},{"id":484201,"parent_id":484182,"level":4,"area_code":"431223100217","zip_code":"419599","city_code":"0745","name":"\u5927\u4f0f\u6f6d\u6751","short_name":"\u5927\u4f0f\u6f6d\u6751","merger_name":"\u6e56\u5357,\u6000\u5316,\u8fb0\u6eaa,\u8fb0\u9633,\u5927\u4f0f\u6f6d\u6751","pinyin":"DaFuTanCun","lng":"110.203380","lat":"28.004150"},{"id":484202,"parent_id":484182,"level":4,"area_code":"431223100218","zip_code":"419599","city_code":"0745","name":"\u6ce1\u6f6d\u6751","short_name":"\u6ce1\u6f6d\u6751","merger_name":"\u6e56\u5357,\u6000\u5316,\u8fb0\u6eaa,\u8fb0\u9633,\u6ce1\u6f6d\u6751","pinyin":"PaoTanCun","lng":"110.210460","lat":"27.997530"},{"id":484203,"parent_id":484182,"level":4,"area_code":"431223100219","zip_code":"419599","city_code":"0745","name":"\u957f\u51b2\u6751","short_name":"\u957f\u51b2\u6751","merger_name":"\u6e56\u5357,\u6000\u5316,\u8fb0\u6eaa,\u8fb0\u9633,\u957f\u51b2\u6751","pinyin":"ZhangChongCun","lng":"110.195080","lat":"28.043310"},{"id":484204,"parent_id":484182,"level":4,"area_code":"431223100220","zip_code":"419599","city_code":"0745","name":"\u6851\u6728\u6865\u6751","short_name":"\u6851\u6728\u6865\u6751","merger_name":"\u6e56\u5357,\u6000\u5316,\u8fb0\u6eaa,\u8fb0\u9633,\u6851\u6728\u6865\u6751","pinyin":"SangMuQiaoCun","lng":"110.210270","lat":"28.028790"},{"id":484205,"parent_id":484181,"level":3,"area_code":"431223101000","zip_code":"419503","city_code":"0745","name":"\u5b5d\u576a\u9547","short_name":"\u5b5d\u576a","merger_name":"\u6e56\u5357,\u6000\u5316,\u8fb0\u6eaa,\u5b5d\u576a","pinyin":"XiaoPing","lng":"110.207660","lat":"28.082230"},{"id":484206,"parent_id":484205,"level":4,"area_code":"431223101002","zip_code":"419503","city_code":"0745","name":"\u53f7\u6e7e\u576a\u793e\u533a","short_name":"\u53f7\u6e7e\u576a","merger_name":"\u6e56\u5357,\u6000\u5316,\u8fb0\u6eaa,\u5b5d\u576a,\u53f7\u6e7e\u576a","pinyin":"HaoWanPing","lng":"110.207504","lat":"28.081524"},{"id":484207,"parent_id":484205,"level":4,"area_code":"431223101003","zip_code":"419503","city_code":"0745","name":"\u674e\u5bb6\u576a\u793e\u533a","short_name":"\u674e\u5bb6\u576a","merger_name":"\u6e56\u5357,\u6000\u5316,\u8fb0\u6eaa,\u5b5d\u576a,\u674e\u5bb6\u576a","pinyin":"LiJiaPing","lng":"110.201930","lat":"28.009870"},{"id":484208,"parent_id":484205,"level":4,"area_code":"431223101007","zip_code":"419503","city_code":"0745","name":"\u5b5d\u576a\u7164\u77ff\u793e\u533a","short_name":"\u5b5d\u576a\u7164\u77ff","merger_name":"\u6e56\u5357,\u6000\u5316,\u8fb0\u6eaa,\u5b5d\u576a,\u5b5d\u576a\u7164\u77ff","pinyin":"XiaoPingMeiKuang","lng":"110.201930","lat":"28.009870"},{"id":484209,"parent_id":484205,"level":4,"area_code":"431223101008","zip_code":"419503","city_code":"0745","name":"\u7ea2\u654f\u793e\u533a","short_name":"\u7ea2\u654f","merger_name":"\u6e56\u5357,\u6000\u5316,\u8fb0\u6eaa,\u5b5d\u576a,\u7ea2\u654f","pinyin":"HongMin","lng":"110.203920","lat":"28.016570"},{"id":484210,"parent_id":484205,"level":4,"area_code":"431223101200","zip_code":"419503","city_code":"0745","name":"\u5343\u91cc\u576a\u6751","short_name":"\u5343\u91cc\u576a\u6751","merger_name":"\u6e56\u5357,\u6000\u5316,\u8fb0\u6eaa,\u5b5d\u576a,\u5343\u91cc\u576a\u6751","pinyin":"QianLiPingCun","lng":"110.151470","lat":"28.086860"},{"id":484211,"parent_id":484205,"level":4,"area_code":"431223101203","zip_code":"419503","city_code":"0745","name":"\u65b9\u7530\u6751","short_name":"\u65b9\u7530\u6751","merger_name":"\u6e56\u5357,\u6000\u5316,\u8fb0\u6eaa,\u5b5d\u576a,\u65b9\u7530\u6751","pinyin":"FangTianCun","lng":"110.167420","lat":"28.077530"},{"id":484212,"parent_id":484205,"level":4,"area_code":"431223101205","zip_code":"419503","city_code":"0745","name":"\u53e4\u5be8\u6751","short_name":"\u53e4\u5be8\u6751","merger_name":"\u6e56\u5357,\u6000\u5316,\u8fb0\u6eaa,\u5b5d\u576a,\u53e4\u5be8\u6751","pinyin":"GuZhaiCun","lng":"110.179620","lat":"28.082400"},{"id":484213,"parent_id":484205,"level":4,"area_code":"431223101208","zip_code":"419503","city_code":"0745","name":"\u6c5f\u4e1c\u6751","short_name":"\u6c5f\u4e1c\u6751","merger_name":"\u6e56\u5357,\u6000\u5316,\u8fb0\u6eaa,\u5b5d\u576a,\u6c5f\u4e1c\u6751","pinyin":"JiangDongCun","lng":"109.964110","lat":"26.951710"},{"id":484214,"parent_id":484205,"level":4,"area_code":"431223101210","zip_code":"419503","city_code":"0745","name":"\u5f53\u6c5f\u6d32\u6751","short_name":"\u5f53\u6c5f\u6d32\u6751","merger_name":"\u6e56\u5357,\u6000\u5316,\u8fb0\u6eaa,\u5b5d\u576a,\u5f53\u6c5f\u6d32\u6751","pinyin":"DangJiangZhouCun","lng":"110.129720","lat":"28.064810"},{"id":484215,"parent_id":484205,"level":4,"area_code":"431223101212","zip_code":"419503","city_code":"0745","name":"\u6e14\u6f6d\u6751","short_name":"\u6e14\u6f6d\u6751","merger_name":"\u6e56\u5357,\u6000\u5316,\u8fb0\u6eaa,\u5b5d\u576a,\u6e14\u6f6d\u6751","pinyin":"YuTanCun","lng":"110.156070","lat":"28.052550"},{"id":484216,"parent_id":484205,"level":4,"area_code":"431223101213","zip_code":"419503","city_code":"0745","name":"\u6d1e\u6f6d\u6751","short_name":"\u6d1e\u6f6d\u6751","merger_name":"\u6e56\u5357,\u6000\u5316,\u8fb0\u6eaa,\u5b5d\u576a,\u6d1e\u6f6d\u6751","pinyin":"DongTanCun","lng":"110.176380","lat":"28.051630"},{"id":484217,"parent_id":484205,"level":4,"area_code":"431223101216","zip_code":"419503","city_code":"0745","name":"\u6749\u5773\u6751","short_name":"\u6749\u5773\u6751","merger_name":"\u6e56\u5357,\u6000\u5316,\u8fb0\u6eaa,\u5b5d\u576a,\u6749\u5773\u6751","pinyin":"ShanAoCun","lng":"110.195270","lat":"28.063620"},{"id":484218,"parent_id":484205,"level":4,"area_code":"431223101217","zip_code":"419503","city_code":"0745","name":"\u7403\u5c94\u6751","short_name":"\u7403\u5c94\u6751","merger_name":"\u6e56\u5357,\u6000\u5316,\u8fb0\u6eaa,\u5b5d\u576a,\u7403\u5c94\u6751","pinyin":"QiuChaCun","lng":"110.161570","lat":"28.092240"},{"id":484219,"parent_id":484205,"level":4,"area_code":"431223101218","zip_code":"419503","city_code":"0745","name":"\u53cc\u6c34\u6751","short_name":"\u53cc\u6c34\u6751","merger_name":"\u6e56\u5357,\u6000\u5316,\u8fb0\u6eaa,\u5b5d\u576a,\u53cc\u6c34\u6751","pinyin":"ShuangShuiCun","lng":"110.256950","lat":"28.143420"},{"id":484220,"parent_id":484205,"level":4,"area_code":"431223101219","zip_code":"419503","city_code":"0745","name":"\u7f57\u4f9d\u6eaa\u6751","short_name":"\u7f57\u4f9d\u6eaa\u6751","merger_name":"\u6e56\u5357,\u6000\u5316,\u8fb0\u6eaa,\u5b5d\u576a,\u7f57\u4f9d\u6eaa\u6751","pinyin":"LuoYiXiCun","lng":"110.191770","lat":"28.112010"},{"id":484221,"parent_id":484205,"level":4,"area_code":"431223101220","zip_code":"419503","city_code":"0745","name":"\u576a\u91cc\u6751","short_name":"\u576a\u91cc\u6751","merger_name":"\u6e56\u5357,\u6000\u5316,\u8fb0\u6eaa,\u5b5d\u576a,\u576a\u91cc\u6751","pinyin":"PingLiCun","lng":"110.226390","lat":"28.141280"},{"id":484222,"parent_id":484205,"level":4,"area_code":"431223101221","zip_code":"419503","city_code":"0745","name":"\u5858\u91cc\u6751","short_name":"\u5858\u91cc\u6751","merger_name":"\u6e56\u5357,\u6000\u5316,\u8fb0\u6eaa,\u5b5d\u576a,\u5858\u91cc\u6751","pinyin":"TangLiCun","lng":"110.208640","lat":"28.109520"},{"id":484223,"parent_id":484205,"level":4,"area_code":"431223101222","zip_code":"419503","city_code":"0745","name":"\u6eaa\u53e3\u65b0\u6751","short_name":"\u6eaa\u53e3\u65b0\u6751","merger_name":"\u6e56\u5357,\u6000\u5316,\u8fb0\u6eaa,\u5b5d\u576a,\u6eaa\u53e3\u65b0\u6751","pinyin":"XiKouXinCun","lng":"110.170670","lat":"28.129050"},{"id":484224,"parent_id":484205,"level":4,"area_code":"431223101223","zip_code":"419503","city_code":"0745","name":"\u4e2d\u6eaa\u6751","short_name":"\u4e2d\u6eaa\u6751","merger_name":"\u6e56\u5357,\u6000\u5316,\u8fb0\u6eaa,\u5b5d\u576a,\u4e2d\u6eaa\u6751","pinyin":"ZhongXiCun","lng":"110.207360","lat":"28.120920"},{"id":484225,"parent_id":484205,"level":4,"area_code":"431223101224","zip_code":"419503","city_code":"0745","name":"\u677f\u6865\u6751","short_name":"\u677f\u6865\u6751","merger_name":"\u6e56\u5357,\u6000\u5316,\u8fb0\u6eaa,\u5b5d\u576a,\u677f\u6865\u6751","pinyin":"BanQiaoCun","lng":"110.225390","lat":"28.136180"},{"id":484226,"parent_id":484181,"level":3,"area_code":"431223102000","zip_code":"419503","city_code":"0745","name":"\u7530\u6e7e\u9547","short_name":"\u7530\u6e7e","merger_name":"\u6e56\u5357,\u6000\u5316,\u8fb0\u6eaa,\u7530\u6e7e","pinyin":"TianWan","lng":"110.236030","lat":"28.099650"},{"id":484227,"parent_id":484226,"level":4,"area_code":"431223102001","zip_code":"419503","city_code":"0745","name":"\u7530\u6e7e\u793e\u533a","short_name":"\u7530\u6e7e","merger_name":"\u6e56\u5357,\u6000\u5316,\u8fb0\u6eaa,\u7530\u6e7e,\u7530\u6e7e","pinyin":"TianWan","lng":"110.901940","lat":"28.761870"},{"id":484228,"parent_id":484226,"level":4,"area_code":"431223102200","zip_code":"419503","city_code":"0745","name":"\u4e4c\u91d1\u6751","short_name":"\u4e4c\u91d1\u6751","merger_name":"\u6e56\u5357,\u6000\u5316,\u8fb0\u6eaa,\u7530\u6e7e,\u4e4c\u91d1\u6751","pinyin":"WuJinCun","lng":"110.200230","lat":"28.098740"},{"id":484229,"parent_id":484226,"level":4,"area_code":"431223102202","zip_code":"419503","city_code":"0745","name":"\u7530\u6e7e\u6751","short_name":"\u7530\u6e7e\u6751","merger_name":"\u6e56\u5357,\u6000\u5316,\u8fb0\u6eaa,\u7530\u6e7e,\u7530\u6e7e\u6751","pinyin":"TianWanCun","lng":"110.901940","lat":"28.761870"},{"id":484230,"parent_id":484226,"level":4,"area_code":"431223102205","zip_code":"419503","city_code":"0745","name":"\u9009\u573a\u6751","short_name":"\u9009\u573a\u6751","merger_name":"\u6e56\u5357,\u6000\u5316,\u8fb0\u6eaa,\u7530\u6e7e,\u9009\u573a\u6751","pinyin":"XuanChangCun","lng":"110.332940","lat":"28.103530"},{"id":484231,"parent_id":484226,"level":4,"area_code":"431223102207","zip_code":"419503","city_code":"0745","name":"\u6768\u6885\u5773\u6751","short_name":"\u6768\u6885\u5773\u6751","merger_name":"\u6e56\u5357,\u6000\u5316,\u8fb0\u6eaa,\u7530\u6e7e,\u6768\u6885\u5773\u6751","pinyin":"YangMeiAoCun","lng":"110.253100","lat":"28.116290"},{"id":484232,"parent_id":484226,"level":4,"area_code":"431223102208","zip_code":"419503","city_code":"0745","name":"\u67ab\u9999\u5858\u6751","short_name":"\u67ab\u9999\u5858\u6751","merger_name":"\u6e56\u5357,\u6000\u5316,\u8fb0\u6eaa,\u7530\u6e7e,\u67ab\u9999\u5858\u6751","pinyin":"FengXiangTangCun","lng":"110.272970","lat":"28.124740"},{"id":484233,"parent_id":484226,"level":4,"area_code":"431223102210","zip_code":"419503","city_code":"0745","name":"\u845b\u91cc\u6751","short_name":"\u845b\u91cc\u6751","merger_name":"\u6e56\u5357,\u6000\u5316,\u8fb0\u6eaa,\u7530\u6e7e,\u845b\u91cc\u6751","pinyin":"GeLiCun","lng":"110.332890","lat":"28.154860"},{"id":484234,"parent_id":484226,"level":4,"area_code":"431223102211","zip_code":"419503","city_code":"0745","name":"\u9e21\u5ca9\u6751","short_name":"\u9e21\u5ca9\u6751","merger_name":"\u6e56\u5357,\u6000\u5316,\u8fb0\u6eaa,\u7530\u6e7e,\u9e21\u5ca9\u6751","pinyin":"JiYanCun","lng":"110.348260","lat":"28.146450"},{"id":484235,"parent_id":484226,"level":4,"area_code":"431223102212","zip_code":"419503","city_code":"0745","name":"\u91d1\u576a\u6751","short_name":"\u91d1\u576a\u6751","merger_name":"\u6e56\u5357,\u6000\u5316,\u8fb0\u6eaa,\u7530\u6e7e,\u91d1\u576a\u6751","pinyin":"JinPingCun","lng":"110.443920","lat":"27.488880"},{"id":484236,"parent_id":484226,"level":4,"area_code":"431223102213","zip_code":"419503","city_code":"0745","name":"\u94fa\u91cc\u6751","short_name":"\u94fa\u91cc\u6751","merger_name":"\u6e56\u5357,\u6000\u5316,\u8fb0\u6eaa,\u7530\u6e7e,\u94fa\u91cc\u6751","pinyin":"PuLiCun","lng":"110.231880","lat":"28.094520"},{"id":484237,"parent_id":484181,"level":3,"area_code":"431223103000","zip_code":"419512","city_code":"0745","name":"\u706b\u9a6c\u51b2\u9547","short_name":"\u706b\u9a6c","merger_name":"\u6e56\u5357,\u6000\u5316,\u8fb0\u6eaa,\u706b\u9a6c","pinyin":"HuoMa","lng":"110.240440","lat":"27.877870"},{"id":484238,"parent_id":484237,"level":4,"area_code":"431223103001","zip_code":"419512","city_code":"0745","name":"\u706b\u9a6c\u51b2\u793e\u533a","short_name":"\u706b\u9a6c\u51b2","merger_name":"\u6e56\u5357,\u6000\u5316,\u8fb0\u6eaa,\u706b\u9a6c,\u706b\u9a6c\u51b2","pinyin":"HuoMaChong","lng":"110.243020","lat":"27.875290"},{"id":484239,"parent_id":484237,"level":4,"area_code":"431223103002","zip_code":"419512","city_code":"0745","name":"\u5bfa\u524d\u793e\u533a","short_name":"\u5bfa\u524d","merger_name":"\u6e56\u5357,\u6000\u5316,\u8fb0\u6eaa,\u706b\u9a6c,\u5bfa\u524d","pinyin":"SiQian","lng":"110.200888","lat":"27.822706"},{"id":484240,"parent_id":484237,"level":4,"area_code":"431223103206","zip_code":"419512","city_code":"0745","name":"\u4e07\u5bff\u6751","short_name":"\u4e07\u5bff\u6751","merger_name":"\u6e56\u5357,\u6000\u5316,\u8fb0\u6eaa,\u706b\u9a6c,\u4e07\u5bff\u6751","pinyin":"WanShouCun","lng":"110.247200","lat":"27.879730"},{"id":484241,"parent_id":484237,"level":4,"area_code":"431223103207","zip_code":"419512","city_code":"0745","name":"\u7f57\u5bb6\u6e7e\u6751","short_name":"\u7f57\u5bb6\u6e7e\u6751","merger_name":"\u6e56\u5357,\u6000\u5316,\u8fb0\u6eaa,\u706b\u9a6c,\u7f57\u5bb6\u6e7e\u6751","pinyin":"LuoJiaWanCun","lng":"110.254970","lat":"27.893960"},{"id":484242,"parent_id":484237,"level":4,"area_code":"431223103208","zip_code":"419512","city_code":"0745","name":"\u5c71\u5858\u9a7f\u6751","short_name":"\u5c71\u5858\u9a7f\u6751","merger_name":"\u6e56\u5357,\u6000\u5316,\u8fb0\u6eaa,\u706b\u9a6c,\u5c71\u5858\u9a7f\u6751","pinyin":"ShanTangYiCun","lng":"110.222670","lat":"27.894470"},{"id":484243,"parent_id":484237,"level":4,"area_code":"431223103209","zip_code":"419512","city_code":"0745","name":"\u5170\u5bb6\u6e7e\u6751","short_name":"\u5170\u5bb6\u6e7e\u6751","merger_name":"\u6e56\u5357,\u6000\u5316,\u8fb0\u6eaa,\u706b\u9a6c,\u5170\u5bb6\u6e7e\u6751","pinyin":"LanJiaWanCun","lng":"110.229190","lat":"27.852640"},{"id":484244,"parent_id":484237,"level":4,"area_code":"431223103210","zip_code":"419512","city_code":"0745","name":"\u90d1\u5bb6\u576a\u6751","short_name":"\u90d1\u5bb6\u576a\u6751","merger_name":"\u6e56\u5357,\u6000\u5316,\u8fb0\u6eaa,\u706b\u9a6c,\u90d1\u5bb6\u576a\u6751","pinyin":"ZhengJiaPingCun","lng":"110.223460","lat":"27.866100"},{"id":484245,"parent_id":484237,"level":4,"area_code":"431223103211","zip_code":"419512","city_code":"0745","name":"\u6c99\u5806\u6751","short_name":"\u6c99\u5806\u6751","merger_name":"\u6e56\u5357,\u6000\u5316,\u8fb0\u6eaa,\u706b\u9a6c,\u6c99\u5806\u6751","pinyin":"ShaDuiCun","lng":"109.570180","lat":"26.445300"},{"id":484246,"parent_id":484237,"level":4,"area_code":"431223103212","zip_code":"419512","city_code":"0745","name":"\u706b\u9a6c\u51b2\u6751","short_name":"\u706b\u9a6c\u51b2\u6751","merger_name":"\u6e56\u5357,\u6000\u5316,\u8fb0\u6eaa,\u706b\u9a6c,\u706b\u9a6c\u51b2\u6751","pinyin":"HuoMaChongCun","lng":"110.240150","lat":"27.878010"},{"id":484247,"parent_id":484237,"level":4,"area_code":"431223103213","zip_code":"419512","city_code":"0745","name":"\u5174\u9686\u6751","short_name":"\u5174\u9686\u6751","merger_name":"\u6e56\u5357,\u6000\u5316,\u8fb0\u6eaa,\u706b\u9a6c,\u5174\u9686\u6751","pinyin":"XingLongCun","lng":"110.248670","lat":"27.890110"},{"id":484248,"parent_id":484237,"level":4,"area_code":"431223103214","zip_code":"419512","city_code":"0745","name":"\u5927\u6865\u6751","short_name":"\u5927\u6865\u6751","merger_name":"\u6e56\u5357,\u6000\u5316,\u8fb0\u6eaa,\u706b\u9a6c,\u5927\u6865\u6751","pinyin":"DaQiaoCun","lng":"110.248920","lat":"27.905370"},{"id":484249,"parent_id":484237,"level":4,"area_code":"431223103217","zip_code":"419512","city_code":"0745","name":"\u71d5\u5b50\u6d1e\u6751","short_name":"\u71d5\u5b50\u6d1e\u6751","merger_name":"\u6e56\u5357,\u6000\u5316,\u8fb0\u6eaa,\u706b\u9a6c,\u71d5\u5b50\u6d1e\u6751","pinyin":"YanZiDongCun","lng":"110.265300","lat":"27.850190"},{"id":484250,"parent_id":484237,"level":4,"area_code":"431223103219","zip_code":"419512","city_code":"0745","name":"\u67d1\u5b50\u56ed\u6751","short_name":"\u67d1\u5b50\u56ed\u6751","merger_name":"\u6e56\u5357,\u6000\u5316,\u8fb0\u6eaa,\u706b\u9a6c,\u67d1\u5b50\u56ed\u6751","pinyin":"GanZiYuanCun","lng":"110.189510","lat":"27.881650"},{"id":484251,"parent_id":484237,"level":4,"area_code":"431223103220","zip_code":"419512","city_code":"0745","name":"\u6de1\u5bb6\u576a\u6751","short_name":"\u6de1\u5bb6\u576a\u6751","merger_name":"\u6e56\u5357,\u6000\u5316,\u8fb0\u6eaa,\u706b\u9a6c,\u6de1\u5bb6\u576a\u6751","pinyin":"DanJiaPingCun","lng":"110.205510","lat":"27.877300"},{"id":484252,"parent_id":484237,"level":4,"area_code":"431223103221","zip_code":"419512","city_code":"0745","name":"\u6843\u82b1\u576a\u6751","short_name":"\u6843\u82b1\u576a\u6751","merger_name":"\u6e56\u5357,\u6000\u5316,\u8fb0\u6eaa,\u706b\u9a6c,\u6843\u82b1\u576a\u6751","pinyin":"TaoHuaPingCun","lng":"110.197820","lat":"27.862550"},{"id":484253,"parent_id":484237,"level":4,"area_code":"431223103222","zip_code":"419512","city_code":"0745","name":"\u5bfa\u524d\u94fa\u6751","short_name":"\u5bfa\u524d\u94fa\u6751","merger_name":"\u6e56\u5357,\u6000\u5316,\u8fb0\u6eaa,\u706b\u9a6c,\u5bfa\u524d\u94fa\u6751","pinyin":"SiQianPuCun","lng":"110.240150","lat":"27.878010"},{"id":484254,"parent_id":484237,"level":4,"area_code":"431223103223","zip_code":"419512","city_code":"0745","name":"\u51c9\u6c34\u4e95\u6751","short_name":"\u51c9\u6c34\u4e95\u6751","merger_name":"\u6e56\u5357,\u6000\u5316,\u8fb0\u6eaa,\u706b\u9a6c,\u51c9\u6c34\u4e95\u6751","pinyin":"LiangShuiJingCun","lng":"110.470930","lat":"28.428260"},{"id":484255,"parent_id":484237,"level":4,"area_code":"431223103224","zip_code":"419512","city_code":"0745","name":"\u4e8c\u9f99\u6751","short_name":"\u4e8c\u9f99\u6751","merger_name":"\u6e56\u5357,\u6000\u5316,\u8fb0\u6eaa,\u706b\u9a6c,\u4e8c\u9f99\u6751","pinyin":"ErLongCun","lng":"110.228350","lat":"27.812850"},{"id":484256,"parent_id":484237,"level":4,"area_code":"431223103225","zip_code":"419512","city_code":"0745","name":"\u5c71\u5cb3\u5761\u6751","short_name":"\u5c71\u5cb3\u5761\u6751","merger_name":"\u6e56\u5357,\u6000\u5316,\u8fb0\u6eaa,\u706b\u9a6c,\u5c71\u5cb3\u5761\u6751","pinyin":"ShanYuePoCun","lng":"110.185190","lat":"27.835460"},{"id":484257,"parent_id":484237,"level":4,"area_code":"431223103226","zip_code":"419512","city_code":"0745","name":"\u987e\u5bb6\u576a\u6751","short_name":"\u987e\u5bb6\u576a\u6751","merger_name":"\u6e56\u5357,\u6000\u5316,\u8fb0\u6eaa,\u706b\u9a6c,\u987e\u5bb6\u576a\u6751","pinyin":"GuJiaPingCun","lng":"110.181600","lat":"27.818470"},{"id":484258,"parent_id":484181,"level":3,"area_code":"431223104000","zip_code":"418002","city_code":"0745","name":"\u9ec4\u6eaa\u53e3\u9547","short_name":"\u9ec4\u6eaa","merger_name":"\u6e56\u5357,\u6000\u5316,\u8fb0\u6eaa,\u9ec4\u6eaa","pinyin":"HuangXi","lng":"110.391400","lat":"27.716650"},{"id":484259,"parent_id":484258,"level":4,"area_code":"431223104001","zip_code":"419507","city_code":"0745","name":"\u9ec4\u6eaa\u53e3\u793e\u533a","short_name":"\u9ec4\u6eaa\u53e3","merger_name":"\u6e56\u5357,\u6000\u5316,\u8fb0\u6eaa,\u9ec4\u6eaa,\u9ec4\u6eaa\u53e3","pinyin":"HuangXiKou","lng":"109.828540","lat":"27.570550"},{"id":484260,"parent_id":484258,"level":4,"area_code":"431223104200","zip_code":"419507","city_code":"0745","name":"\u7f57\u65b0\u6751","short_name":"\u7f57\u65b0\u6751","merger_name":"\u6e56\u5357,\u6000\u5316,\u8fb0\u6eaa,\u9ec4\u6eaa,\u7f57\u65b0\u6751","pinyin":"LuoXinCun","lng":"110.391710","lat":"27.706000"},{"id":484261,"parent_id":484258,"level":4,"area_code":"431223104202","zip_code":"419524","city_code":"0745","name":"\u4e09\u7f8a\u7530\u6751","short_name":"\u4e09\u7f8a\u7530\u6751","merger_name":"\u6e56\u5357,\u6000\u5316,\u8fb0\u6eaa,\u9ec4\u6eaa,\u4e09\u7f8a\u7530\u6751","pinyin":"SanYangTianCun","lng":"109.828540","lat":"27.570550"},{"id":484262,"parent_id":484258,"level":4,"area_code":"431223104203","zip_code":"419507","city_code":"0745","name":"\u9ed1\u5bb6\u6eaa\u6751","short_name":"\u9ed1\u5bb6\u6eaa\u6751","merger_name":"\u6e56\u5357,\u6000\u5316,\u8fb0\u6eaa,\u9ec4\u6eaa,\u9ed1\u5bb6\u6eaa\u6751","pinyin":"HeiJiaXiCun","lng":"110.378390","lat":"27.757390"},{"id":484263,"parent_id":484258,"level":4,"area_code":"431223104204","zip_code":"419507","city_code":"0745","name":"\u8299\u84c9\u6751","short_name":"\u8299\u84c9\u6751","merger_name":"\u6e56\u5357,\u6000\u5316,\u8fb0\u6eaa,\u9ec4\u6eaa,\u8299\u84c9\u6751","pinyin":"FuRongCun","lng":"110.392470","lat":"27.747700"},{"id":484264,"parent_id":484258,"level":4,"area_code":"431223104209","zip_code":"419507","city_code":"0745","name":"\u53cc\u6eaa\u6751","short_name":"\u53cc\u6eaa\u6751","merger_name":"\u6e56\u5357,\u6000\u5316,\u8fb0\u6eaa,\u9ec4\u6eaa,\u53cc\u6eaa\u6751","pinyin":"ShuangXiCun","lng":"110.311750","lat":"27.448710"},{"id":484265,"parent_id":484258,"level":4,"area_code":"431223104211","zip_code":"419507","city_code":"0745","name":"\u5927\u6e7e\u6751","short_name":"\u5927\u6e7e\u6751","merger_name":"\u6e56\u5357,\u6000\u5316,\u8fb0\u6eaa,\u9ec4\u6eaa,\u5927\u6e7e\u6751","pinyin":"DaWanCun","lng":"110.131720","lat":"28.070210"},{"id":484266,"parent_id":484258,"level":4,"area_code":"431223104212","zip_code":"419507","city_code":"0745","name":"\u6bdb\u5bb6\u7530\u6751","short_name":"\u6bdb\u5bb6\u7530\u6751","merger_name":"\u6e56\u5357,\u6000\u5316,\u8fb0\u6eaa,\u9ec4\u6eaa,\u6bdb\u5bb6\u7530\u6751","pinyin":"MaoJiaTianCun","lng":"110.374050","lat":"27.721700"},{"id":484267,"parent_id":484258,"level":4,"area_code":"431223104213","zip_code":"419507","city_code":"0745","name":"\u9ec4\u6eaa\u53e3\u6751","short_name":"\u9ec4\u6eaa\u53e3\u6751","merger_name":"\u6e56\u5357,\u6000\u5316,\u8fb0\u6eaa,\u9ec4\u6eaa,\u9ec4\u6eaa\u53e3\u6751","pinyin":"HuangXiKouCun","lng":"109.828540","lat":"27.570550"},{"id":484268,"parent_id":484181,"level":3,"area_code":"431223105000","zip_code":"419524","city_code":"0745","name":"\u6f6d\u6e7e\u9547","short_name":"\u6f6d\u6e7e","merger_name":"\u6e56\u5357,\u6000\u5316,\u8fb0\u6eaa,\u6f6d\u6e7e","pinyin":"TanWan","lng":"110.161440","lat":"27.968370"},{"id":484269,"parent_id":484268,"level":4,"area_code":"431223105001","zip_code":"419524","city_code":"0745","name":"\u6f6d\u6e7e\u793e\u533a","short_name":"\u6f6d\u6e7e","merger_name":"\u6e56\u5357,\u6000\u5316,\u8fb0\u6eaa,\u6f6d\u6e7e,\u6f6d\u6e7e","pinyin":"TanWan","lng":"110.161440","lat":"27.968370"},{"id":484270,"parent_id":484268,"level":4,"area_code":"431223105200","zip_code":"419524","city_code":"0745","name":"\u6768\u6eaa\u6751","short_name":"\u6768\u6eaa\u6751","merger_name":"\u6e56\u5357,\u6000\u5316,\u8fb0\u6eaa,\u6f6d\u6e7e,\u6768\u6eaa\u6751","pinyin":"YangXiCun","lng":"110.086190","lat":"27.960750"},{"id":484271,"parent_id":484268,"level":4,"area_code":"431223105202","zip_code":"419524","city_code":"0745","name":"\u6749\u6797\u6751","short_name":"\u6749\u6797\u6751","merger_name":"\u6e56\u5357,\u6000\u5316,\u8fb0\u6eaa,\u6f6d\u6e7e,\u6749\u6797\u6751","pinyin":"ShanLinCun","lng":"110.106310","lat":"27.965440"},{"id":484272,"parent_id":484268,"level":4,"area_code":"431223105204","zip_code":"419524","city_code":"0745","name":"\u67cf\u6797\u6751","short_name":"\u67cf\u6797\u6751","merger_name":"\u6e56\u5357,\u6000\u5316,\u8fb0\u6eaa,\u6f6d\u6e7e,\u67cf\u6797\u6751","pinyin":"BoLinCun","lng":"110.113360","lat":"27.976530"},{"id":484273,"parent_id":484268,"level":4,"area_code":"431223105207","zip_code":"419524","city_code":"0745","name":"\u8983\u5bb6\u5858\u6751","short_name":"\u8983\u5bb6\u5858\u6751","merger_name":"\u6e56\u5357,\u6000\u5316,\u8fb0\u6eaa,\u6f6d\u6e7e,\u8983\u5bb6\u5858\u6751","pinyin":"TanJiaTangCun","lng":"110.126800","lat":"27.985950"},{"id":484274,"parent_id":484268,"level":4,"area_code":"431223105211","zip_code":"419524","city_code":"0745","name":"\u9ebb\u7530\u6751","short_name":"\u9ebb\u7530\u6751","merger_name":"\u6e56\u5357,\u6000\u5316,\u8fb0\u6eaa,\u6f6d\u6e7e,\u9ebb\u7530\u6751","pinyin":"MaTianCun","lng":"110.165190","lat":"28.007530"},{"id":484275,"parent_id":484268,"level":4,"area_code":"431223105213","zip_code":"419524","city_code":"0745","name":"\u9a6c\u8def\u576a\u6751","short_name":"\u9a6c\u8def\u576a\u6751","merger_name":"\u6e56\u5357,\u6000\u5316,\u8fb0\u6eaa,\u6f6d\u6e7e,\u9a6c\u8def\u576a\u6751","pinyin":"MaLuPingCun","lng":"110.174310","lat":"27.981270"},{"id":484276,"parent_id":484268,"level":4,"area_code":"431223105214","zip_code":"419524","city_code":"0745","name":"\u5357\u5e84\u576a\u6751","short_name":"\u5357\u5e84\u576a\u6751","merger_name":"\u6e56\u5357,\u6000\u5316,\u8fb0\u6eaa,\u6f6d\u6e7e,\u5357\u5e84\u576a\u6751","pinyin":"NanZhuangPingCun","lng":"110.183510","lat":"27.986130"},{"id":484277,"parent_id":484268,"level":4,"area_code":"431223105216","zip_code":"419524","city_code":"0745","name":"\u77f3\u724c\u6751","short_name":"\u77f3\u724c\u6751","merger_name":"\u6e56\u5357,\u6000\u5316,\u8fb0\u6eaa,\u6f6d\u6e7e,\u77f3\u724c\u6751","pinyin":"ShiPaiCun","lng":"110.180040","lat":"27.956650"},{"id":484278,"parent_id":484268,"level":4,"area_code":"431223105217","zip_code":"419524","city_code":"0745","name":"\u4e09\u7532\u5858\u6751","short_name":"\u4e09\u7532\u5858\u6751","merger_name":"\u6e56\u5357,\u6000\u5316,\u8fb0\u6eaa,\u6f6d\u6e7e,\u4e09\u7532\u5858\u6751","pinyin":"SanJiaTangCun","lng":"110.160170","lat":"27.961990"},{"id":484279,"parent_id":484268,"level":4,"area_code":"431223105218","zip_code":"419524","city_code":"0745","name":"\u6865\u6e7e\u6751","short_name":"\u6865\u6e7e\u6751","merger_name":"\u6e56\u5357,\u6000\u5316,\u8fb0\u6eaa,\u6f6d\u6e7e,\u6865\u6e7e\u6751","pinyin":"QiaoWanCun","lng":"110.155190","lat":"27.963590"},{"id":484280,"parent_id":484268,"level":4,"area_code":"431223105219","zip_code":"419524","city_code":"0745","name":"\u6768\u9f99\u6751","short_name":"\u6768\u9f99\u6751","merger_name":"\u6e56\u5357,\u6000\u5316,\u8fb0\u6eaa,\u6f6d\u6e7e,\u6768\u9f99\u6751","pinyin":"YangLongCun","lng":"110.112310","lat":"27.895020"},{"id":484281,"parent_id":484268,"level":4,"area_code":"431223105220","zip_code":"419524","city_code":"0745","name":"\u62a5\u6728\u6d1e\u6751","short_name":"\u62a5\u6728\u6d1e\u6751","merger_name":"\u6e56\u5357,\u6000\u5316,\u8fb0\u6eaa,\u6f6d\u6e7e,\u62a5\u6728\u6d1e\u6751","pinyin":"BaoMuDongCun","lng":"110.147020","lat":"27.929310"},{"id":484282,"parent_id":484268,"level":4,"area_code":"431223105221","zip_code":"419524","city_code":"0745","name":"\u53cc\u6865\u6751","short_name":"\u53cc\u6865\u6751","merger_name":"\u6e56\u5357,\u6000\u5316,\u8fb0\u6eaa,\u6f6d\u6e7e,\u53cc\u6865\u6751","pinyin":"ShuangQiaoCun","lng":"110.141650","lat":"27.924670"},{"id":484283,"parent_id":484268,"level":4,"area_code":"431223105222","zip_code":"419524","city_code":"0745","name":"\u56ed\u5bb6\u576a\u6751","short_name":"\u56ed\u5bb6\u576a\u6751","merger_name":"\u6e56\u5357,\u6000\u5316,\u8fb0\u6eaa,\u6f6d\u6e7e,\u56ed\u5bb6\u576a\u6751","pinyin":"YuanJiaPingCun","lng":"110.112960","lat":"27.905930"},{"id":484284,"parent_id":484268,"level":4,"area_code":"431223105223","zip_code":"419524","city_code":"0745","name":"\u67de\u6eaa\u6751","short_name":"\u67de\u6eaa\u6751","merger_name":"\u6e56\u5357,\u6000\u5316,\u8fb0\u6eaa,\u6f6d\u6e7e,\u67de\u6eaa\u6751","pinyin":"ZhaXiCun","lng":"110.082760","lat":"27.925100"},{"id":484285,"parent_id":484268,"level":4,"area_code":"431223105224","zip_code":"419524","city_code":"0745","name":"\u957f\u5761\u65b0\u6751","short_name":"\u957f\u5761\u65b0\u6751","merger_name":"\u6e56\u5357,\u6000\u5316,\u8fb0\u6eaa,\u6f6d\u6e7e,\u957f\u5761\u65b0\u6751","pinyin":"ZhangPoXinCun","lng":"110.320530","lat":"28.040570"},{"id":484286,"parent_id":484268,"level":4,"area_code":"431223105225","zip_code":"419524","city_code":"0745","name":"\u897f\u5e84\u576a\u6751","short_name":"\u897f\u5e84\u576a\u6751","merger_name":"\u6e56\u5357,\u6000\u5316,\u8fb0\u6eaa,\u6f6d\u6e7e,\u897f\u5e84\u576a\u6751","pinyin":"XiZhuangPingCun","lng":"110.120530","lat":"27.945630"},{"id":484287,"parent_id":484268,"level":4,"area_code":"431223105226","zip_code":"419524","city_code":"0745","name":"\u86c7\u5f62\u6751","short_name":"\u86c7\u5f62\u6751","merger_name":"\u6e56\u5357,\u6000\u5316,\u8fb0\u6eaa,\u6f6d\u6e7e,\u86c7\u5f62\u6751","pinyin":"SheXingCun","lng":"110.108570","lat":"27.941010"},{"id":484288,"parent_id":484181,"level":3,"area_code":"431223106000","zip_code":"419518","city_code":"0745","name":"\u5b89\u576a\u9547","short_name":"\u5b89\u576a","merger_name":"\u6e56\u5357,\u6000\u5316,\u8fb0\u6eaa,\u5b89\u576a","pinyin":"AnPing","lng":"110.123610","lat":"27.871090"},{"id":484289,"parent_id":484288,"level":4,"area_code":"431223106002","zip_code":"419518","city_code":"0745","name":"\u5b89\u576a\u793e\u533a","short_name":"\u5b89\u576a","merger_name":"\u6e56\u5357,\u6000\u5316,\u8fb0\u6eaa,\u5b89\u576a,\u5b89\u576a","pinyin":"AnPing","lng":"110.228950","lat":"28.025160"},{"id":484290,"parent_id":484288,"level":4,"area_code":"431223106201","zip_code":"419518","city_code":"0745","name":"\u738b\u5bb6\u6d32\u6751","short_name":"\u738b\u5bb6\u6d32\u6751","merger_name":"\u6e56\u5357,\u6000\u5316,\u8fb0\u6eaa,\u5b89\u576a,\u738b\u5bb6\u6d32\u6751","pinyin":"WangJiaZhouCun","lng":"110.122240","lat":"27.883190"},{"id":484291,"parent_id":484288,"level":4,"area_code":"431223106207","zip_code":"419518","city_code":"0745","name":"\u4e5d\u5ca9\u576a\u6751","short_name":"\u4e5d\u5ca9\u576a\u6751","merger_name":"\u6e56\u5357,\u6000\u5316,\u8fb0\u6eaa,\u5b89\u576a,\u4e5d\u5ca9\u576a\u6751","pinyin":"JiuYanPingCun","lng":"110.073750","lat":"27.876310"},{"id":484292,"parent_id":484288,"level":4,"area_code":"431223106210","zip_code":"419518","city_code":"0745","name":"\u848b\u5bb6\u576a\u6751","short_name":"\u848b\u5bb6\u576a\u6751","merger_name":"\u6e56\u5357,\u6000\u5316,\u8fb0\u6eaa,\u5b89\u576a,\u848b\u5bb6\u576a\u6751","pinyin":"JiangJiaPingCun","lng":"110.111790","lat":"27.866240"},{"id":484293,"parent_id":484288,"level":4,"area_code":"431223106211","zip_code":"419518","city_code":"0745","name":"\u8fce\u9f99\u6751","short_name":"\u8fce\u9f99\u6751","merger_name":"\u6e56\u5357,\u6000\u5316,\u8fb0\u6eaa,\u5b89\u576a,\u8fce\u9f99\u6751","pinyin":"YingLongCun","lng":"110.124580","lat":"27.859320"},{"id":484294,"parent_id":484288,"level":4,"area_code":"431223106213","zip_code":"419518","city_code":"0745","name":"\u7fc1\u9e21\u576a\u6751","short_name":"\u7fc1\u9e21\u576a\u6751","merger_name":"\u6e56\u5357,\u6000\u5316,\u8fb0\u6eaa,\u5b89\u576a,\u7fc1\u9e21\u576a\u6751","pinyin":"WengJiPingCun","lng":"110.120600","lat":"27.831150"},{"id":484295,"parent_id":484288,"level":4,"area_code":"431223106214","zip_code":"419518","city_code":"0745","name":"\u86ee\u7530\u5785\u6751","short_name":"\u86ee\u7530\u5785\u6751","merger_name":"\u6e56\u5357,\u6000\u5316,\u8fb0\u6eaa,\u5b89\u576a,\u86ee\u7530\u5785\u6751","pinyin":"ManTianLongCun","lng":"110.133680","lat":"27.831570"},{"id":484296,"parent_id":484288,"level":4,"area_code":"431223106215","zip_code":"419518","city_code":"0745","name":"\u6850\u6986\u6797\u6751","short_name":"\u6850\u6986\u6797\u6751","merger_name":"\u6e56\u5357,\u6000\u5316,\u8fb0\u6eaa,\u5b89\u576a,\u6850\u6986\u6797\u6751","pinyin":"TongYuLinCun","lng":"110.130290","lat":"27.873930"},{"id":484297,"parent_id":484288,"level":4,"area_code":"431223106216","zip_code":"419518","city_code":"0745","name":"\u77f3\u9a6c\u6e7e\u6751","short_name":"\u77f3\u9a6c\u6e7e\u6751","merger_name":"\u6e56\u5357,\u6000\u5316,\u8fb0\u6eaa,\u5b89\u576a,\u77f3\u9a6c\u6e7e\u6751","pinyin":"ShiMaWanCun","lng":"110.143620","lat":"27.889190"},{"id":484298,"parent_id":484288,"level":4,"area_code":"431223106217","zip_code":"419599","city_code":"0745","name":"\u5b89\u576a\u6751","short_name":"\u5b89\u576a\u6751","merger_name":"\u6e56\u5357,\u6000\u5316,\u8fb0\u6eaa,\u5b89\u576a,\u5b89\u576a\u6751","pinyin":"AnPingCun","lng":"110.130290","lat":"27.873930"},{"id":484299,"parent_id":484288,"level":4,"area_code":"431223106218","zip_code":"419518","city_code":"0745","name":"\u8f9b\u6728\u6e7e\u6751","short_name":"\u8f9b\u6728\u6e7e\u6751","merger_name":"\u6e56\u5357,\u6000\u5316,\u8fb0\u6eaa,\u5b89\u576a,\u8f9b\u6728\u6e7e\u6751","pinyin":"XinMuWanCun","lng":"110.148820","lat":"27.868560"},