[{"id":496001,"parent_id":495987,"level":4,"area_code":"440402001014","zip_code":"519001","city_code":"0756","name":"\u67e0\u6eaa\u793e\u533a\u5c45\u6c11\u59d4\u5458\u4f1a","short_name":"\u67e0\u6eaa","merger_name":"\u5e7f\u4e1c,\u73e0\u6d77,\u9999\u6d32,\u7fe0\u9999\u529e,\u67e0\u6eaa","pinyin":"NingXi","lng":"113.542390","lat":"22.267630"},{"id":496002,"parent_id":495987,"level":4,"area_code":"440402001015","zip_code":"519001","city_code":"0756","name":"\u5b89\u5b81\u793e\u533a\u5c45\u6c11\u59d4\u5458\u4f1a","short_name":"\u5b89\u5b81","merger_name":"\u5e7f\u4e1c,\u73e0\u6d77,\u9999\u6d32,\u7fe0\u9999\u529e,\u5b89\u5b81","pinyin":"AnNing","lng":"113.549990","lat":"22.264050"},{"id":496003,"parent_id":495987,"level":4,"area_code":"440402001016","zip_code":"519000","city_code":"0756","name":"\u94b0\u6d77\u793e\u533a\u5c45\u6c11\u59d4\u5458\u4f1a","short_name":"\u94b0\u6d77","merger_name":"\u5e7f\u4e1c,\u73e0\u6d77,\u9999\u6d32,\u7fe0\u9999\u529e,\u94b0\u6d77","pinyin":"YuHai","lng":"113.562770","lat":"22.273930"},{"id":496004,"parent_id":495986,"level":3,"area_code":"440402002000","zip_code":"519000","city_code":"0756","name":"\u6885\u534e\u8857\u9053\u529e","short_name":"\u6885\u534e\u529e","merger_name":"\u5e7f\u4e1c,\u73e0\u6d77,\u9999\u6d32,\u6885\u534e\u529e","pinyin":"MeiHuaBan","lng":"113.547390","lat":"22.272000"},{"id":496005,"parent_id":496004,"level":4,"area_code":"440402002001","zip_code":"519075","city_code":"0756","name":"\u5357\u8679\u793e\u533a\u5c45\u6c11\u59d4\u5458\u4f1a","short_name":"\u5357\u8679","merger_name":"\u5e7f\u4e1c,\u73e0\u6d77,\u9999\u6d32,\u6885\u534e\u529e,\u5357\u8679","pinyin":"NanHong","lng":"113.542390","lat":"22.267630"},{"id":496006,"parent_id":496004,"level":4,"area_code":"440402002003","zip_code":"519070","city_code":"0756","name":"\u7fe0\u4e1c\u793e\u533a\u5c45\u6c11\u59d4\u5458\u4f1a","short_name":"\u7fe0\u4e1c","merger_name":"\u5e7f\u4e1c,\u73e0\u6d77,\u9999\u6d32,\u6885\u534e\u529e,\u7fe0\u4e1c","pinyin":"CuiDong","lng":"113.557290","lat":"22.271820"},{"id":496007,"parent_id":496004,"level":4,"area_code":"440402002004","zip_code":"519075","city_code":"0756","name":"\u7ea2\u5c71\u793e\u533a\u5c45\u6c11\u59d4\u5458\u4f1a","short_name":"\u7ea2\u5c71","merger_name":"\u5e7f\u4e1c,\u73e0\u6d77,\u9999\u6d32,\u6885\u534e\u529e,\u7ea2\u5c71","pinyin":"HongShan","lng":"113.541810","lat":"22.275640"},{"id":496008,"parent_id":496004,"level":4,"area_code":"440402002005","zip_code":"519060","city_code":"0756","name":"\u73af\u5c71\u793e\u533a\u5c45\u6c11\u59d4\u5458\u4f1a","short_name":"\u73af\u5c71","merger_name":"\u5e7f\u4e1c,\u73e0\u6d77,\u9999\u6d32,\u6885\u534e\u529e,\u73af\u5c71","pinyin":"HuanShan","lng":"113.575920","lat":"22.247900"},{"id":496009,"parent_id":496004,"level":4,"area_code":"440402002006","zip_code":"519085","city_code":"0756","name":"\u9e3f\u8fd0\u793e\u533a\u5c45\u6c11\u59d4\u5458\u4f1a","short_name":"\u9e3f\u8fd0","merger_name":"\u5e7f\u4e1c,\u73e0\u6d77,\u9999\u6d32,\u6885\u534e\u529e,\u9e3f\u8fd0","pinyin":"HongYun","lng":"113.524889","lat":"22.273943"},{"id":496010,"parent_id":496004,"level":4,"area_code":"440402002007","zip_code":"519070","city_code":"0756","name":"\u7fe0\u524d\u793e\u533a\u5c45\u6c11\u59d4\u5458\u4f1a","short_name":"\u7fe0\u524d","merger_name":"\u5e7f\u4e1c,\u73e0\u6d77,\u9999\u6d32,\u6885\u534e\u529e,\u7fe0\u524d","pinyin":"CuiQian","lng":"113.527790","lat":"22.254650"},{"id":496011,"parent_id":496004,"level":4,"area_code":"440402002008","zip_code":"519070","city_code":"0756","name":"\u65b0\u9999\u793e\u533a\u5c45\u6c11\u59d4\u5458\u4f1a","short_name":"\u65b0\u9999","merger_name":"\u5e7f\u4e1c,\u73e0\u6d77,\u9999\u6d32,\u6885\u534e\u529e,\u65b0\u9999","pinyin":"XinXiang","lng":"113.516700","lat":"22.272510"},{"id":496012,"parent_id":496004,"level":4,"area_code":"440402002009","zip_code":"519001","city_code":"0756","name":"\u5bcc\u534e\u793e\u533a\u5c45\u6c11\u59d4\u5458\u4f1a","short_name":"\u5bcc\u534e","merger_name":"\u5e7f\u4e1c,\u73e0\u6d77,\u9999\u6d32,\u6885\u534e\u529e,\u5bcc\u534e","pinyin":"FuHua","lng":"113.516700","lat":"22.272510"},{"id":496013,"parent_id":496004,"level":4,"area_code":"440402002010","zip_code":"519001","city_code":"0756","name":"\u5174\u53d1\u793e\u533a\u5c45\u6c11\u59d4\u5458\u4f1a","short_name":"\u5174\u53d1","merger_name":"\u5e7f\u4e1c,\u73e0\u6d77,\u9999\u6d32,\u6885\u534e\u529e,\u5174\u53d1","pinyin":"XingFa","lng":"113.541810","lat":"22.275640"},{"id":496014,"parent_id":496004,"level":4,"area_code":"440402002011","zip_code":"519070","city_code":"0756","name":"\u5357\u6751\u793e\u533a\u5c45\u6c11\u59d4\u5458\u4f1a","short_name":"\u5357\u6751","merger_name":"\u5e7f\u4e1c,\u73e0\u6d77,\u9999\u6d32,\u6885\u534e\u529e,\u5357\u6751","pinyin":"NanCun","lng":"113.527790","lat":"22.254650"},{"id":496015,"parent_id":496004,"level":4,"area_code":"440402002012","zip_code":"519075","city_code":"0756","name":"\u4e0a\u51b2\u793e\u533a\u5c45\u6c11\u59d4\u5458\u4f1a","short_name":"\u4e0a\u51b2","merger_name":"\u5e7f\u4e1c,\u73e0\u6d77,\u9999\u6d32,\u6885\u534e\u529e,\u4e0a\u51b2","pinyin":"ShangChong","lng":"113.519380","lat":"22.267230"},{"id":496016,"parent_id":496004,"level":4,"area_code":"440402002013","zip_code":"519070","city_code":"0756","name":"\u4ec1\u6052\u793e\u533a\u5c45\u6c11\u59d4\u5458\u4f1a","short_name":"\u4ec1\u6052","merger_name":"\u5e7f\u4e1c,\u73e0\u6d77,\u9999\u6d32,\u6885\u534e\u529e,\u4ec1\u6052","pinyin":"RenHeng","lng":"113.575920","lat":"22.247900"},{"id":496017,"parent_id":496004,"level":4,"area_code":"440402002014","zip_code":"519075","city_code":"0756","name":"\u521b\u4e1a\u793e\u533a\u5c45\u6c11\u59d4\u5458\u4f1a","short_name":"\u521b\u4e1a","merger_name":"\u5e7f\u4e1c,\u73e0\u6d77,\u9999\u6d32,\u6885\u534e\u529e,\u521b\u4e1a","pinyin":"ChuangYe","lng":"113.497390","lat":"22.288860"},{"id":496018,"parent_id":496004,"level":4,"area_code":"440402002015","zip_code":"519075","city_code":"0756","name":"\u656c\u4e1a\u793e\u533a\u5c45\u6c11\u59d4\u5458\u4f1a","short_name":"\u656c\u4e1a","merger_name":"\u5e7f\u4e1c,\u73e0\u6d77,\u9999\u6d32,\u6885\u534e\u529e,\u656c\u4e1a","pinyin":"JingYe","lng":"113.575920","lat":"22.247900"},{"id":496019,"parent_id":496004,"level":4,"area_code":"440402002016","zip_code":"519001","city_code":"0756","name":"\u60a6\u8bda\u793e\u533a\u5c45\u6c11\u59d4\u5458\u4f1a","short_name":"\u60a6\u8bda","merger_name":"\u5e7f\u4e1c,\u73e0\u6d77,\u9999\u6d32,\u6885\u534e\u529e,\u60a6\u8bda","pinyin":"YueCheng","lng":"113.575920","lat":"22.247900"},{"id":496020,"parent_id":496004,"level":4,"area_code":"440402002017","zip_code":"519085","city_code":"0756","name":"\u9e3f\u4e1a\u793e\u533a\u5c45\u6c11\u59d4\u5458\u4f1a","short_name":"\u9e3f\u4e1a","merger_name":"\u5e7f\u4e1c,\u73e0\u6d77,\u9999\u6d32,\u6885\u534e\u529e,\u9e3f\u4e1a","pinyin":"HongYe","lng":"113.529200","lat":"22.263290"},{"id":496021,"parent_id":495986,"level":3,"area_code":"440402003000","zip_code":"519000","city_code":"0756","name":"\u524d\u5c71\u8857\u9053\u529e","short_name":"\u524d\u5c71\u529e","merger_name":"\u5e7f\u4e1c,\u73e0\u6d77,\u9999\u6d32,\u524d\u5c71\u529e","pinyin":"QianShanBan","lng":"113.523760","lat":"22.250620"},{"id":496022,"parent_id":496021,"level":4,"area_code":"440402003001","zip_code":"519082","city_code":"0756","name":"\u4e2d\u5c71\u4ead\u793e\u533a\u5c45\u6c11\u59d4\u5458\u4f1a","short_name":"\u4e2d\u5c71\u4ead","merger_name":"\u5e7f\u4e1c,\u73e0\u6d77,\u9999\u6d32,\u524d\u5c71\u529e,\u4e2d\u5c71\u4ead","pinyin":"ZhongShanTing","lng":"113.575920","lat":"22.247900"},{"id":496023,"parent_id":496021,"level":4,"area_code":"440402003002","zip_code":"519070","city_code":"0756","name":"\u91d1\u949f\u793e\u533a\u5c45\u6c11\u59d4\u5458\u4f1a","short_name":"\u91d1\u949f","merger_name":"\u5e7f\u4e1c,\u73e0\u6d77,\u9999\u6d32,\u524d\u5c71\u529e,\u91d1\u949f","pinyin":"JinZhong","lng":"113.575920","lat":"22.247900"},{"id":496024,"parent_id":496021,"level":4,"area_code":"440402003003","zip_code":"519000","city_code":"0756","name":"\u5706\u660e\u793e\u533a\u5c45\u6c11\u59d4\u5458\u4f1a","short_name":"\u5706\u660e","merger_name":"\u5e7f\u4e1c,\u73e0\u6d77,\u9999\u6d32,\u524d\u5c71\u529e,\u5706\u660e","pinyin":"YuanMing","lng":"113.480034","lat":"22.306983"},{"id":496025,"parent_id":496021,"level":4,"area_code":"440402003005","zip_code":"519075","city_code":"0756","name":"\u6ca5\u6eaa\u793e\u533a\u5c45\u6c11\u59d4\u5458\u4f1a","short_name":"\u6ca5\u6eaa","merger_name":"\u5e7f\u4e1c,\u73e0\u6d77,\u9999\u6d32,\u524d\u5c71\u529e,\u6ca5\u6eaa","pinyin":"LiXi","lng":"113.497390","lat":"22.288860"},{"id":496026,"parent_id":496021,"level":4,"area_code":"440402003006","zip_code":"519070","city_code":"0756","name":"\u5cb1\u5c71\u793e\u533a\u5c45\u6c11\u59d4\u5458\u4f1a","short_name":"\u5cb1\u5c71","merger_name":"\u5e7f\u4e1c,\u73e0\u6d77,\u9999\u6d32,\u524d\u5c71\u529e,\u5cb1\u5c71","pinyin":"DaiShan","lng":"113.575920","lat":"22.247900"},{"id":496027,"parent_id":496021,"level":4,"area_code":"440402003007","zip_code":"519070","city_code":"0756","name":"\u83b2\u5858\u793e\u533a\u5c45\u6c11\u59d4\u5458\u4f1a","short_name":"\u83b2\u5858","merger_name":"\u5e7f\u4e1c,\u73e0\u6d77,\u9999\u6d32,\u524d\u5c71\u529e,\u83b2\u5858","pinyin":"LianTang","lng":"113.575920","lat":"22.247900"},{"id":496028,"parent_id":496021,"level":4,"area_code":"440402003008","zip_code":"519070","city_code":"0756","name":"\u7fe0\u666f\u793e\u533a\u5c45\u6c11\u59d4\u5458\u4f1a","short_name":"\u7fe0\u666f","merger_name":"\u5e7f\u4e1c,\u73e0\u6d77,\u9999\u6d32,\u524d\u5c71\u529e,\u7fe0\u666f","pinyin":"CuiJing","lng":"113.527790","lat":"22.254650"},{"id":496029,"parent_id":496021,"level":4,"area_code":"440402003009","zip_code":"519075","city_code":"0756","name":"\u798f\u6eaa\u793e\u533a\u5c45\u6c11\u59d4\u5458\u4f1a","short_name":"\u798f\u6eaa","merger_name":"\u5e7f\u4e1c,\u73e0\u6d77,\u9999\u6d32,\u524d\u5c71\u529e,\u798f\u6eaa","pinyin":"FuXi","lng":"113.510950","lat":"22.290480"},{"id":496030,"parent_id":496021,"level":4,"area_code":"440402003010","zip_code":"519060","city_code":"0756","name":"\u7ea2\u8354\u793e\u533a\u5c45\u6c11\u59d4\u5458\u4f1a","short_name":"\u7ea2\u8354","merger_name":"\u5e7f\u4e1c,\u73e0\u6d77,\u9999\u6d32,\u524d\u5c71\u529e,\u7ea2\u8354","pinyin":"HongLi","lng":"113.575920","lat":"22.247900"},{"id":496031,"parent_id":496021,"level":4,"area_code":"440402003011","zip_code":"519070","city_code":"0756","name":"\u524d\u5c71\u793e\u533a\u5c45\u6c11\u59d4\u5458\u4f1a","short_name":"\u524d\u5c71","merger_name":"\u5e7f\u4e1c,\u73e0\u6d77,\u9999\u6d32,\u524d\u5c71\u529e,\u524d\u5c71","pinyin":"QianShan","lng":"113.480250","lat":"22.306900"},{"id":496032,"parent_id":496021,"level":4,"area_code":"440402003012","zip_code":"519020","city_code":"0756","name":"\u767d\u77f3\u793e\u533a\u5c45\u6c11\u59d4\u5458\u4f1a","short_name":"\u767d\u77f3","merger_name":"\u5e7f\u4e1c,\u73e0\u6d77,\u9999\u6d32,\u524d\u5c71\u529e,\u767d\u77f3","pinyin":"BaiShi","lng":"113.575920","lat":"22.247900"},{"id":496033,"parent_id":496021,"level":4,"area_code":"440402003013","zip_code":"519070","city_code":"0756","name":"\u5170\u57d4\u793e\u533a\u5c45\u6c11\u59d4\u5458\u4f1a","short_name":"\u5170\u57d4","merger_name":"\u5e7f\u4e1c,\u73e0\u6d77,\u9999\u6d32,\u524d\u5c71\u529e,\u5170\u57d4","pinyin":"LanBu","lng":"113.575920","lat":"22.247900"},{"id":496034,"parent_id":496021,"level":4,"area_code":"440402003014","zip_code":"519070","city_code":"0756","name":"\u590f\u6751\u793e\u533a\u5c45\u6c11\u59d4\u5458\u4f1a","short_name":"\u590f\u6751","merger_name":"\u5e7f\u4e1c,\u73e0\u6d77,\u9999\u6d32,\u524d\u5c71\u529e,\u590f\u6751","pinyin":"XiaCun","lng":"113.575920","lat":"22.247900"},{"id":496035,"parent_id":496021,"level":4,"area_code":"440402003015","zip_code":"519070","city_code":"0756","name":"\u7fe0\u5fae\u793e\u533a\u5c45\u6c11\u59d4\u5458\u4f1a","short_name":"\u7fe0\u5fae","merger_name":"\u5e7f\u4e1c,\u73e0\u6d77,\u9999\u6d32,\u524d\u5c71\u529e,\u7fe0\u5fae","pinyin":"CuiWei","lng":"113.575920","lat":"22.247900"},{"id":496036,"parent_id":496021,"level":4,"area_code":"440402003016","zip_code":"519070","city_code":"0756","name":"\u9020\u8d1d\u793e\u533a\u5c45\u6c11\u59d4\u5458\u4f1a","short_name":"\u9020\u8d1d","merger_name":"\u5e7f\u4e1c,\u73e0\u6d77,\u9999\u6d32,\u524d\u5c71\u529e,\u9020\u8d1d","pinyin":"ZaoBei","lng":"113.575920","lat":"22.247900"},{"id":496037,"parent_id":496021,"level":4,"area_code":"440402003017","zip_code":"519075","city_code":"0756","name":"\u6625\u6656\u793e\u533a\u5c45\u6c11\u59d4\u5458\u4f1a","short_name":"\u6625\u6656","merger_name":"\u5e7f\u4e1c,\u73e0\u6d77,\u9999\u6d32,\u524d\u5c71\u529e,\u6625\u6656","pinyin":"ChunHui","lng":"113.575920","lat":"22.247900"},{"id":496038,"parent_id":496021,"level":4,"area_code":"440402003018","zip_code":"519075","city_code":"0756","name":"\u957f\u6c99\u793e\u533a\u5c45\u6c11\u59d4\u5458\u4f1a","short_name":"\u957f\u6c99","merger_name":"\u5e7f\u4e1c,\u73e0\u6d77,\u9999\u6d32,\u524d\u5c71\u529e,\u957f\u6c99","pinyin":"ChangSha","lng":"113.507880","lat":"22.277400"},{"id":496039,"parent_id":496021,"level":4,"area_code":"440402003019","zip_code":"519075","city_code":"0756","name":"\u6885\u6eaa\u793e\u533a\u5c45\u6c11\u59d4\u5458\u4f1a","short_name":"\u6885\u6eaa","merger_name":"\u5e7f\u4e1c,\u73e0\u6d77,\u9999\u6d32,\u524d\u5c71\u529e,\u6885\u6eaa","pinyin":"MeiXi","lng":"113.575920","lat":"22.247900"},{"id":496040,"parent_id":496021,"level":4,"area_code":"440402003020","zip_code":"519075","city_code":"0756","name":"\u4e1c\u5751\u793e\u533a\u5c45\u6c11\u59d4\u5458\u4f1a","short_name":"\u4e1c\u5751","merger_name":"\u5e7f\u4e1c,\u73e0\u6d77,\u9999\u6d32,\u524d\u5c71\u529e,\u4e1c\u5751","pinyin":"DongKeng","lng":"113.523740","lat":"22.305750"},{"id":496041,"parent_id":496021,"level":4,"area_code":"440402003021","zip_code":"519075","city_code":"0756","name":"\u5357\u6eaa\u793e\u533a\u5c45\u6c11\u59d4\u5458\u4f1a","short_name":"\u5357\u6eaa","merger_name":"\u5e7f\u4e1c,\u73e0\u6d77,\u9999\u6d32,\u524d\u5c71\u529e,\u5357\u6eaa","pinyin":"NanXi","lng":"113.502000","lat":"22.282400"},{"id":496042,"parent_id":496021,"level":4,"area_code":"440402003024","zip_code":"519075","city_code":"0756","name":"\u754c\u6d8c\u793e\u533a\u5c45\u6c11\u59d4\u5458\u4f1a","short_name":"\u754c\u6d8c","merger_name":"\u5e7f\u4e1c,\u73e0\u6d77,\u9999\u6d32,\u524d\u5c71\u529e,\u754c\u6d8c","pinyin":"JieYong","lng":"113.480250","lat":"22.306900"},{"id":496043,"parent_id":496021,"level":4,"area_code":"440402003025","zip_code":"519070","city_code":"0756","name":"\u9038\u4ed9\u793e\u533a\u5c45\u6c11\u59d4\u5458\u4f1a","short_name":"\u9038\u4ed9","merger_name":"\u5e7f\u4e1c,\u73e0\u6d77,\u9999\u6d32,\u524d\u5c71\u529e,\u9038\u4ed9","pinyin":"YiXian","lng":"113.522830","lat":"22.249070"},{"id":496044,"parent_id":496021,"level":4,"area_code":"440402003026","zip_code":"519070","city_code":"0756","name":"\u798f\u77f3\u793e\u533a\u5c45\u6c11\u59d4\u5458\u4f1a","short_name":"\u798f\u77f3","merger_name":"\u5e7f\u4e1c,\u73e0\u6d77,\u9999\u6d32,\u524d\u5c71\u529e,\u798f\u77f3","pinyin":"FuShi","lng":"113.575920","lat":"22.247900"},{"id":496045,"parent_id":496021,"level":4,"area_code":"440402003027","zip_code":"519070","city_code":"0756","name":"\u5357\u6c99\u6e7e\u793e\u533a\u5c45\u6c11\u59d4\u5458\u4f1a","short_name":"\u5357\u6c99\u6e7e","merger_name":"\u5e7f\u4e1c,\u73e0\u6d77,\u9999\u6d32,\u524d\u5c71\u529e,\u5357\u6c99\u6e7e","pinyin":"NanShaWan","lng":"113.575920","lat":"22.247900"},{"id":496046,"parent_id":495986,"level":3,"area_code":"440402004000","zip_code":"519000","city_code":"0756","name":"\u5409\u5927\u8857\u9053\u529e","short_name":"\u5409\u5927\u529e","merger_name":"\u5e7f\u4e1c,\u73e0\u6d77,\u9999\u6d32,\u5409\u5927\u529e","pinyin":"JiDaBan","lng":"113.575920","lat":"22.247900"},{"id":496047,"parent_id":496046,"level":4,"area_code":"440402004001","zip_code":"519015","city_code":"0756","name":"\u767d\u83b2\u793e\u533a\u5c45\u6c11\u59d4\u5458\u4f1a","short_name":"\u767d\u83b2","merger_name":"\u5e7f\u4e1c,\u73e0\u6d77,\u9999\u6d32,\u5409\u5927\u529e,\u767d\u83b2","pinyin":"BaiLian","lng":"113.567170","lat":"22.250420"},{"id":496048,"parent_id":496046,"level":4,"area_code":"440402004002","zip_code":"519015","city_code":"0756","name":"\u5409\u83b2\u793e\u533a\u5c45\u6c11\u59d4\u5458\u4f1a","short_name":"\u5409\u83b2","merger_name":"\u5e7f\u4e1c,\u73e0\u6d77,\u9999\u6d32,\u5409\u5927\u529e,\u5409\u83b2","pinyin":"JiLian","lng":"113.575920","lat":"22.247900"},{"id":496049,"parent_id":496046,"level":4,"area_code":"440402004004","zip_code":"519020","city_code":"0756","name":"\u83b2\u82b1\u793e\u533a\u5c45\u6c11\u59d4\u5458\u4f1a","short_name":"\u83b2\u82b1","merger_name":"\u5e7f\u4e1c,\u73e0\u6d77,\u9999\u6d32,\u5409\u5927\u529e,\u83b2\u82b1","pinyin":"LianHua","lng":"113.575920","lat":"22.247900"},{"id":496050,"parent_id":496046,"level":4,"area_code":"440402004005","zip_code":"519000","city_code":"0756","name":"\u6d77\u5927\u793e\u533a\u5c45\u6c11\u59d4\u5458\u4f1a","short_name":"\u6d77\u5927","merger_name":"\u5e7f\u4e1c,\u73e0\u6d77,\u9999\u6d32,\u5409\u5927\u529e,\u6d77\u5927","pinyin":"HaiDa","lng":"113.575920","lat":"22.247900"},{"id":496051,"parent_id":496046,"level":4,"area_code":"440402004006","zip_code":"519015","city_code":"0756","name":"\u4e5d\u6d32\u793e\u533a\u5c45\u6c11\u59d4\u5458\u4f1a","short_name":"\u4e5d\u6d32","merger_name":"\u5e7f\u4e1c,\u73e0\u6d77,\u9999\u6d32,\u5409\u5927\u529e,\u4e5d\u6d32","pinyin":"JiuZhou","lng":"113.575920","lat":"22.247900"},{"id":496052,"parent_id":496046,"level":4,"area_code":"440402004007","zip_code":"519030","city_code":"0756","name":"\u7af9\u82d1\u793e\u533a\u5c45\u6c11\u59d4\u5458\u4f1a","short_name":"\u7af9\u82d1","merger_name":"\u5e7f\u4e1c,\u73e0\u6d77,\u9999\u6d32,\u5409\u5927\u529e,\u7af9\u82d1","pinyin":"ZhuYuan","lng":"113.575920","lat":"22.247900"},{"id":496053,"parent_id":496046,"level":4,"area_code":"440402004008","zip_code":"519030","city_code":"0756","name":"\u5357\u5c71\u793e\u533a\u5c45\u6c11\u59d4\u5458\u4f1a","short_name":"\u5357\u5c71","merger_name":"\u5e7f\u4e1c,\u73e0\u6d77,\u9999\u6d32,\u5409\u5927\u529e,\u5357\u5c71","pinyin":"NanShan","lng":"113.582070","lat":"22.246750"},{"id":496054,"parent_id":496046,"level":4,"area_code":"440402004009","zip_code":"519015","city_code":"0756","name":"\u666f\u5c71\u793e\u533a\u5c45\u6c11\u59d4\u5458\u4f1a","short_name":"\u666f\u5c71","merger_name":"\u5e7f\u4e1c,\u73e0\u6d77,\u9999\u6d32,\u5409\u5927\u529e,\u666f\u5c71","pinyin":"JingShan","lng":"113.576010","lat":"22.257620"},{"id":496055,"parent_id":496046,"level":4,"area_code":"440402004010","zip_code":"519070","city_code":"0756","name":"\u6021\u666f\u793e\u533a\u5c45\u6c11\u59d4\u5458\u4f1a","short_name":"\u6021\u666f","merger_name":"\u5e7f\u4e1c,\u73e0\u6d77,\u9999\u6d32,\u5409\u5927\u529e,\u6021\u666f","pinyin":"YiJing","lng":"113.544030","lat":"22.225100"},{"id":496056,"parent_id":496046,"level":4,"area_code":"440402004011","zip_code":"519000","city_code":"0756","name":"\u6d77\u6e7e\u793e\u533a\u5c45\u6c11\u59d4\u5458\u4f1a","short_name":"\u6d77\u6e7e","merger_name":"\u5e7f\u4e1c,\u73e0\u6d77,\u9999\u6d32,\u5409\u5927\u529e,\u6d77\u6e7e","pinyin":"HaiWan","lng":"113.575920","lat":"22.247900"},{"id":496057,"parent_id":496046,"level":4,"area_code":"440402004012","zip_code":"519015","city_code":"0756","name":"\u6c34\u6e7e\u793e\u533a\u5c45\u6c11\u59d4\u5458\u4f1a","short_name":"\u6c34\u6e7e","merger_name":"\u5e7f\u4e1c,\u73e0\u6d77,\u9999\u6d32,\u5409\u5927\u529e,\u6c34\u6e7e","pinyin":"ShuiWan","lng":"113.575920","lat":"22.247900"},{"id":496058,"parent_id":496046,"level":4,"area_code":"440402004014","zip_code":"519015","city_code":"0756","name":"\u5b98\u6751\u793e\u533a\u5c45\u6c11\u59d4\u5458\u4f1a","short_name":"\u5b98\u6751","merger_name":"\u5e7f\u4e1c,\u73e0\u6d77,\u9999\u6d32,\u5409\u5927\u529e,\u5b98\u6751","pinyin":"GuanCun","lng":"113.575920","lat":"22.247900"},{"id":496059,"parent_id":496046,"level":4,"area_code":"440402004015","zip_code":"519015","city_code":"0756","name":"\u56ed\u6797\u793e\u533a\u5c45\u6c11\u59d4\u5458\u4f1a","short_name":"\u56ed\u6797","merger_name":"\u5e7f\u4e1c,\u73e0\u6d77,\u9999\u6d32,\u5409\u5927\u529e,\u56ed\u6797","pinyin":"YuanLin","lng":"113.476270","lat":"22.211260"},{"id":496060,"parent_id":496046,"level":4,"area_code":"440402004016","zip_code":"519000","city_code":"0756","name":"\u6d77\u5929\u793e\u533a\u5c45\u6c11\u59d4\u5458\u4f1a","short_name":"\u6d77\u5929","merger_name":"\u5e7f\u4e1c,\u73e0\u6d77,\u9999\u6d32,\u5409\u5927\u529e,\u6d77\u5929","pinyin":"HaiTian","lng":"113.575920","lat":"22.247900"},{"id":496061,"parent_id":496046,"level":4,"area_code":"440402004017","zip_code":"519015","city_code":"0756","name":"\u77f3\u82b1\u793e\u533a\u5c45\u6c11\u59d4\u5458\u4f1a","short_name":"\u77f3\u82b1","merger_name":"\u5e7f\u4e1c,\u73e0\u6d77,\u9999\u6d32,\u5409\u5927\u529e,\u77f3\u82b1","pinyin":"ShiHua","lng":"113.575920","lat":"22.247900"},{"id":496062,"parent_id":496046,"level":4,"area_code":"440402004018","zip_code":"519015","city_code":"0756","name":"\u666f\u83b2\u793e\u533a\u5c45\u6c11\u59d4\u5458\u4f1a","short_name":"\u666f\u83b2","merger_name":"\u5e7f\u4e1c,\u73e0\u6d77,\u9999\u6d32,\u5409\u5927\u529e,\u666f\u83b2","pinyin":"JingLian","lng":"113.573570","lat":"22.249400"},{"id":496063,"parent_id":496046,"level":4,"area_code":"440402004019","zip_code":"519015","city_code":"0756","name":"\u6d32\u4ed4\u793e\u533a\u5c45\u6c11\u59d4\u5458\u4f1a","short_name":"\u6d32\u4ed4","merger_name":"\u5e7f\u4e1c,\u73e0\u6d77,\u9999\u6d32,\u5409\u5927\u529e,\u6d32\u4ed4","pinyin":"ZhouZi","lng":"113.575920","lat":"22.247900"},{"id":496064,"parent_id":495986,"level":3,"area_code":"440402005000","zip_code":"519000","city_code":"0756","name":"\u62f1\u5317\u8857\u9053\u529e","short_name":"\u62f1\u5317\u529e","merger_name":"\u5e7f\u4e1c,\u73e0\u6d77,\u9999\u6d32,\u62f1\u5317\u529e","pinyin":"GongBeiBan","lng":"113.538830","lat":"22.217460"},{"id":496065,"parent_id":496064,"level":4,"area_code":"440402005001","zip_code":"519020","city_code":"0756","name":"\u5c06\u519b\u5c71\u793e\u533a\u5c45\u6c11\u59d4\u5458\u4f1a","short_name":"\u5c06\u519b\u5c71","merger_name":"\u5e7f\u4e1c,\u73e0\u6d77,\u9999\u6d32,\u62f1\u5317\u529e,\u5c06\u519b\u5c71","pinyin":"JiangJunShan","lng":"113.575920","lat":"22.247900"},{"id":496066,"parent_id":496064,"level":4,"area_code":"440402005002","zip_code":"519020","city_code":"0756","name":"\u5173\u95f8\u793e\u533a\u5c45\u6c11\u59d4\u5458\u4f1a","short_name":"\u5173\u95f8","merger_name":"\u5e7f\u4e1c,\u73e0\u6d77,\u9999\u6d32,\u62f1\u5317\u529e,\u5173\u95f8","pinyin":"GuanZha","lng":"113.575920","lat":"22.247900"},{"id":496067,"parent_id":496064,"level":4,"area_code":"440402005003","zip_code":"519020","city_code":"0756","name":"\u660c\u76db\u793e\u533a\u5c45\u6c11\u59d4\u5458\u4f1a","short_name":"\u660c\u76db","merger_name":"\u5e7f\u4e1c,\u73e0\u6d77,\u9999\u6d32,\u62f1\u5317\u529e,\u660c\u76db","pinyin":"ChangSheng","lng":"113.575920","lat":"22.247900"},{"id":496068,"parent_id":496064,"level":4,"area_code":"440402005004","zip_code":"519020","city_code":"0756","name":"\u4fa8\u5149\u793e\u533a\u5c45\u6c11\u59d4\u5458\u4f1a","short_name":"\u4fa8\u5149","merger_name":"\u5e7f\u4e1c,\u73e0\u6d77,\u9999\u6d32,\u62f1\u5317\u529e,\u4fa8\u5149","pinyin":"QiaoGuang","lng":"113.550060","lat":"22.223650"},{"id":496069,"parent_id":496064,"level":4,"area_code":"440402005005","zip_code":"519001","city_code":"0756","name":"\u8fce\u5bbe\u793e\u533a\u5c45\u6c11\u59d4\u5458\u4f1a","short_name":"\u8fce\u5bbe","merger_name":"\u5e7f\u4e1c,\u73e0\u6d77,\u9999\u6d32,\u62f1\u5317\u529e,\u8fce\u5bbe","pinyin":"YingBin","lng":"113.575920","lat":"22.247900"},{"id":496070,"parent_id":496064,"level":4,"area_code":"440402005006","zip_code":"519020","city_code":"0756","name":"\u8054\u5b89\u793e\u533a\u5c45\u6c11\u59d4\u5458\u4f1a","short_name":"\u8054\u5b89","merger_name":"\u5e7f\u4e1c,\u73e0\u6d77,\u9999\u6d32,\u62f1\u5317\u529e,\u8054\u5b89","pinyin":"LianAn","lng":"113.575920","lat":"22.247900"},{"id":496071,"parent_id":496064,"level":4,"area_code":"440402005007","zip_code":"519020","city_code":"0756","name":"\u5317\u5cad\u793e\u533a\u5c45\u6c11\u59d4\u5458\u4f1a","short_name":"\u5317\u5cad","merger_name":"\u5e7f\u4e1c,\u73e0\u6d77,\u9999\u6d32,\u62f1\u5317\u529e,\u5317\u5cad","pinyin":"BeiLing","lng":"113.575920","lat":"22.247900"},{"id":496072,"parent_id":496064,"level":4,"area_code":"440402005008","zip_code":"519020","city_code":"0756","name":"\u5cad\u5357\u793e\u533a\u5c45\u6c11\u59d4\u5458\u4f1a","short_name":"\u5cad\u5357","merger_name":"\u5e7f\u4e1c,\u73e0\u6d77,\u9999\u6d32,\u62f1\u5317\u529e,\u5cad\u5357","pinyin":"LingNan","lng":"113.575920","lat":"22.247900"},{"id":496073,"parent_id":496064,"level":4,"area_code":"440402005010","zip_code":"519020","city_code":"0756","name":"\u5a46\u77f3\u793e\u533a\u5c45\u6c11\u59d4\u5458\u4f1a","short_name":"\u5a46\u77f3","merger_name":"\u5e7f\u4e1c,\u73e0\u6d77,\u9999\u6d32,\u62f1\u5317\u529e,\u5a46\u77f3","pinyin":"PoShi","lng":"113.535980","lat":"22.228000"},{"id":496074,"parent_id":496064,"level":4,"area_code":"440402005011","zip_code":"519020","city_code":"0756","name":"\u534e\u5e73\u793e\u533a\u5c45\u6c11\u59d4\u5458\u4f1a","short_name":"\u534e\u5e73","merger_name":"\u5e7f\u4e1c,\u73e0\u6d77,\u9999\u6d32,\u62f1\u5317\u529e,\u534e\u5e73","pinyin":"HuaPing","lng":"113.538800","lat":"22.221430"},{"id":496075,"parent_id":496064,"level":4,"area_code":"440402005012","zip_code":"519000","city_code":"0756","name":"\u8302\u76db\u793e\u533a\u5c45\u6c11\u59d4\u5458\u4f1a","short_name":"\u8302\u76db","merger_name":"\u5e7f\u4e1c,\u73e0\u6d77,\u9999\u6d32,\u62f1\u5317\u529e,\u8302\u76db","pinyin":"MaoSheng","lng":"113.575920","lat":"22.247900"},{"id":496076,"parent_id":496064,"level":4,"area_code":"440402005016","zip_code":"519020","city_code":"0756","name":"\u590f\u6e7e\u793e\u533a\u5c45\u6c11\u59d4\u5458\u4f1a","short_name":"\u590f\u6e7e","merger_name":"\u5e7f\u4e1c,\u73e0\u6d77,\u9999\u6d32,\u62f1\u5317\u529e,\u590f\u6e7e","pinyin":"XiaWan","lng":"113.575920","lat":"22.247900"},{"id":496077,"parent_id":496064,"level":4,"area_code":"440402005017","zip_code":"519020","city_code":"0756","name":"\u6e2f\u660c\u793e\u533a\u5c45\u6c11\u59d4\u5458\u4f1a","short_name":"\u6e2f\u660c","merger_name":"\u5e7f\u4e1c,\u73e0\u6d77,\u9999\u6d32,\u62f1\u5317\u529e,\u6e2f\u660c","pinyin":"GangChang","lng":"113.527940","lat":"22.229310"},{"id":496078,"parent_id":496064,"level":4,"area_code":"440402005018","zip_code":"519020","city_code":"0756","name":"\u7ca4\u534e\u793e\u533a\u5c45\u6c11\u59d4\u5458\u4f1a","short_name":"\u7ca4\u534e","merger_name":"\u5e7f\u4e1c,\u73e0\u6d77,\u9999\u6d32,\u62f1\u5317\u529e,\u7ca4\u534e","pinyin":"YueHua","lng":"113.575920","lat":"22.247900"},{"id":496079,"parent_id":496064,"level":4,"area_code":"440402005019","zip_code":"519000","city_code":"0756","name":"\u6625\u6cfd\u793e\u533a\u5c45\u6c11\u59d4\u5458\u4f1a","short_name":"\u6625\u6cfd","merger_name":"\u5e7f\u4e1c,\u73e0\u6d77,\u9999\u6d32,\u62f1\u5317\u529e,\u6625\u6cfd","pinyin":"ChunZe","lng":"113.540080","lat":"22.224280"},{"id":496080,"parent_id":496064,"level":4,"area_code":"440402005020","zip_code":"519020","city_code":"0756","name":"\u6842\u82b1\u793e\u533a\u5c45\u6c11\u59d4\u5458\u4f1a","short_name":"\u6842\u82b1","merger_name":"\u5e7f\u4e1c,\u73e0\u6d77,\u9999\u6d32,\u62f1\u5317\u529e,\u6842\u82b1","pinyin":"GuiHua","lng":"113.575920","lat":"22.247900"},{"id":496081,"parent_id":496064,"level":4,"area_code":"440402005021","zip_code":"519020","city_code":"0756","name":"\u660c\u5e73\u793e\u533a\u5c45\u6c11\u59d4\u5458\u4f1a","short_name":"\u660c\u5e73","merger_name":"\u5e7f\u4e1c,\u73e0\u6d77,\u9999\u6d32,\u62f1\u5317\u529e,\u660c\u5e73","pinyin":"ChangPing","lng":"113.575920","lat":"22.247900"},{"id":496082,"parent_id":495986,"level":3,"area_code":"440402006000","zip_code":"519000","city_code":"0756","name":"\u9999\u6e7e\u8857\u9053\u529e","short_name":"\u9999\u6e7e\u529e","merger_name":"\u5e7f\u4e1c,\u73e0\u6d77,\u9999\u6d32,\u9999\u6e7e\u529e","pinyin":"XiangWanBan","lng":"113.574100","lat":"22.290460"},{"id":496083,"parent_id":496082,"level":4,"area_code":"440402006001","zip_code":"519000","city_code":"0756","name":"\u671d\u9633\u793e\u533a\u5c45\u6c11\u59d4\u5458\u4f1a","short_name":"\u671d\u9633","merger_name":"\u5e7f\u4e1c,\u73e0\u6d77,\u9999\u6d32,\u9999\u6e7e\u529e,\u671d\u9633","pinyin":"ZhaoYang","lng":"113.579340","lat":"22.277620"},{"id":496084,"parent_id":496082,"level":4,"area_code":"440402006002","zip_code":"519000","city_code":"0756","name":"\u6d77\u8679\u793e\u533a\u5c45\u6c11\u59d4\u5458\u4f1a","short_name":"\u6d77\u8679","merger_name":"\u5e7f\u4e1c,\u73e0\u6d77,\u9999\u6d32,\u9999\u6e7e\u529e,\u6d77\u8679","pinyin":"HaiHong","lng":"113.575050","lat":"22.290510"},{"id":496085,"parent_id":496082,"level":4,"area_code":"440402006004","zip_code":"519020","city_code":"0756","name":"\u5317\u5824\u793e\u533a\u5c45\u6c11\u59d4\u5458\u4f1a","short_name":"\u5317\u5824","merger_name":"\u5e7f\u4e1c,\u73e0\u6d77,\u9999\u6d32,\u9999\u6e7e\u529e,\u5317\u5824","pinyin":"BeiDi","lng":"113.573940","lat":"22.289220"},{"id":496086,"parent_id":496082,"level":4,"area_code":"440402006005","zip_code":"519000","city_code":"0756","name":"\u78a7\u6d9b\u793e\u533a\u5c45\u6c11\u59d4\u5458\u4f1a","short_name":"\u78a7\u6d9b","merger_name":"\u5e7f\u4e1c,\u73e0\u6d77,\u9999\u6d32,\u9999\u6e7e\u529e,\u78a7\u6d9b","pinyin":"BiTao","lng":"113.576870","lat":"22.287140"},{"id":496087,"parent_id":496082,"level":4,"area_code":"440402006006","zip_code":"519001","city_code":"0756","name":"\u9999\u51e4\u793e\u533a\u5c45\u6c11\u59d4\u5458\u4f1a","short_name":"\u9999\u51e4","merger_name":"\u5e7f\u4e1c,\u73e0\u6d77,\u9999\u6d32,\u9999\u6e7e\u529e,\u9999\u51e4","pinyin":"XiangFeng","lng":"113.533165","lat":"22.407691"},{"id":496088,"parent_id":496082,"level":4,"area_code":"440402006008","zip_code":"519000","city_code":"0756","name":"\u6d77\u971e\u793e\u533a\u5c45\u6c11\u59d4\u5458\u4f1a","short_name":"\u6d77\u971e","merger_name":"\u5e7f\u4e1c,\u73e0\u6d77,\u9999\u6d32,\u9999\u6e7e\u529e,\u6d77\u971e","pinyin":"HaiXia","lng":"113.579830","lat":"22.269210"},{"id":496089,"parent_id":496082,"level":4,"area_code":"440402006014","zip_code":"519000","city_code":"0756","name":"\u795e\u524d\u793e\u533a\u5c45\u6c11\u59d4\u5458\u4f1a","short_name":"\u795e\u524d","merger_name":"\u5e7f\u4e1c,\u73e0\u6d77,\u9999\u6d32,\u9999\u6e7e\u529e,\u795e\u524d","pinyin":"ShenQian","lng":"113.574104","lat":"22.290469"},{"id":496090,"parent_id":496082,"level":4,"area_code":"440402006015","zip_code":"519000","city_code":"0756","name":"\u6c34\u62e5\u793e\u533a\u5c45\u6c11\u59d4\u5458\u4f1a","short_name":"\u6c34\u62e5","merger_name":"\u5e7f\u4e1c,\u73e0\u6d77,\u9999\u6d32,\u9999\u6e7e\u529e,\u6c34\u62e5","pinyin":"ShuiYong","lng":"113.575084","lat":"22.299702"},{"id":496091,"parent_id":495986,"level":3,"area_code":"440402007000","zip_code":"519000","city_code":"0756","name":"\u72ee\u5c71\u8857\u9053\u529e","short_name":"\u72ee\u5c71\u529e","merger_name":"\u5e7f\u4e1c,\u73e0\u6d77,\u9999\u6d32,\u72ee\u5c71\u529e","pinyin":"ShiShanBan","lng":"113.570890","lat":"22.269600"},{"id":496092,"parent_id":496091,"level":4,"area_code":"440402007001","zip_code":"519001","city_code":"0756","name":"\u80e1\u6e7e\u793e\u533a\u5c45\u6c11\u59d4\u5458\u4f1a","short_name":"\u80e1\u6e7e","merger_name":"\u5e7f\u4e1c,\u73e0\u6d77,\u9999\u6d32,\u72ee\u5c71\u529e,\u80e1\u6e7e","pinyin":"HuWan","lng":"113.569600","lat":"22.266550"},{"id":496093,"parent_id":496091,"level":4,"area_code":"440402007002","zip_code":"519031","city_code":"0756","name":"\u7ea2\u65d7\u793e\u533a\u5c45\u6c11\u59d4\u5458\u4f1a","short_name":"\u7ea2\u65d7","merger_name":"\u5e7f\u4e1c,\u73e0\u6d77,\u9999\u6d32,\u72ee\u5c71\u529e,\u7ea2\u65d7","pinyin":"HongQi","lng":"113.574260","lat":"22.273160"},{"id":496094,"parent_id":496091,"level":4,"area_code":"440402007003","zip_code":"519000","city_code":"0756","name":"\u4e1c\u98ce\u793e\u533a\u5c45\u6c11\u59d4\u5458\u4f1a","short_name":"\u4e1c\u98ce","merger_name":"\u5e7f\u4e1c,\u73e0\u6d77,\u9999\u6d32,\u72ee\u5c71\u529e,\u4e1c\u98ce","pinyin":"DongFeng","lng":"113.576980","lat":"22.269830"},{"id":496095,"parent_id":496091,"level":4,"area_code":"440402007005","zip_code":"519000","city_code":"0756","name":"\u6843\u56ed\u793e\u533a\u5c45\u6c11\u59d4\u5458\u4f1a","short_name":"\u6843\u56ed","merger_name":"\u5e7f\u4e1c,\u73e0\u6d77,\u9999\u6d32,\u72ee\u5c71\u529e,\u6843\u56ed","pinyin":"TaoYuan","lng":"113.570370","lat":"22.271900"},{"id":496096,"parent_id":496091,"level":4,"area_code":"440402007006","zip_code":"519070","city_code":"0756","name":"\u6559\u80b2\u793e\u533a\u5c45\u6c11\u59d4\u5458\u4f1a","short_name":"\u6559\u80b2","merger_name":"\u5e7f\u4e1c,\u73e0\u6d77,\u9999\u6d32,\u72ee\u5c71\u529e,\u6559\u80b2","pinyin":"JiaoYu","lng":"113.476270","lat":"22.211260"},{"id":496097,"parent_id":496091,"level":4,"area_code":"440402007007","zip_code":"519000","city_code":"0756","name":"\u9752\u6625\u793e\u533a\u5c45\u6c11\u59d4\u5458\u4f1a","short_name":"\u9752\u6625","merger_name":"\u5e7f\u4e1c,\u73e0\u6d77,\u9999\u6d32,\u72ee\u5c71\u529e,\u9752\u6625","pinyin":"QingChun","lng":"113.572220","lat":"22.281410"},{"id":496098,"parent_id":496091,"level":4,"area_code":"440402007008","zip_code":"519000","city_code":"0756","name":"\u5e78\u798f\u793e\u533a\u5c45\u6c11\u59d4\u5458\u4f1a","short_name":"\u5e78\u798f","merger_name":"\u5e7f\u4e1c,\u73e0\u6d77,\u9999\u6d32,\u72ee\u5c71\u529e,\u5e78\u798f","pinyin":"XingFu","lng":"113.572150","lat":"22.277120"},{"id":496099,"parent_id":496091,"level":4,"area_code":"440402007013","zip_code":"519070","city_code":"0756","name":"\u5357\u9999\u793e\u533a\u5c45\u6c11\u59d4\u5458\u4f1a","short_name":"\u5357\u9999","merger_name":"\u5e7f\u4e1c,\u73e0\u6d77,\u9999\u6d32,\u72ee\u5c71\u529e,\u5357\u9999","pinyin":"NanXiang","lng":"113.563660","lat":"22.269340"},{"id":496100,"parent_id":496091,"level":4,"area_code":"440402007015","zip_code":"519000","city_code":"0756","name":"\u5357\u5751\u793e\u533a\u5c45\u6c11\u59d4\u5458\u4f1a","short_name":"\u5357\u5751","merger_name":"\u5e7f\u4e1c,\u73e0\u6d77,\u9999\u6d32,\u72ee\u5c71\u529e,\u5357\u5751","pinyin":"NanKeng","lng":"113.569380","lat":"22.276870"},{"id":496101,"parent_id":496091,"level":4,"area_code":"440402007016","zip_code":"519070","city_code":"0756","name":"\u5357\u7f8e\u793e\u533a\u5c45\u6c11\u59d4\u5458\u4f1a","short_name":"\u5357\u7f8e","merger_name":"\u5e7f\u4e1c,\u73e0\u6d77,\u9999\u6d32,\u72ee\u5c71\u529e,\u5357\u7f8e","pinyin":"NanMei","lng":"113.529660","lat":"22.196350"},{"id":496102,"parent_id":495986,"level":3,"area_code":"440402008000","zip_code":"519000","city_code":"0756","name":"\u6e7e\u4ed4\u8857\u9053\u529e","short_name":"\u6e7e\u4ed4\u529e","merger_name":"\u5e7f\u4e1c,\u73e0\u6d77,\u9999\u6d32,\u6e7e\u4ed4\u529e","pinyin":"WanZaiBan","lng":"113.528000","lat":"22.192420"},{"id":496103,"parent_id":496102,"level":4,"area_code":"440402008001","zip_code":"519030","city_code":"0756","name":"\u6e7e\u4ed4\u793e\u533a\u5c45\u6c11\u59d4\u5458\u4f1a","short_name":"\u6e7e\u4ed4","merger_name":"\u5e7f\u4e1c,\u73e0\u6d77,\u9999\u6d32,\u6e7e\u4ed4\u529e,\u6e7e\u4ed4","pinyin":"WanZai","lng":"113.525870","lat":"22.181520"},{"id":496104,"parent_id":496102,"level":4,"area_code":"440402008002","zip_code":"519030","city_code":"0756","name":"\u6842\u56ed\u793e\u533a\u5c45\u6c11\u59d4\u5458\u4f1a","short_name":"\u6842\u56ed","merger_name":"\u5e7f\u4e1c,\u73e0\u6d77,\u9999\u6d32,\u6e7e\u4ed4\u529e,\u6842\u56ed","pinyin":"GuiYuan","lng":"113.476270","lat":"22.211260"},{"id":496105,"parent_id":496102,"level":4,"area_code":"440402008003","zip_code":"519001","city_code":"0756","name":"\u5bcc\u5174\u793e\u533a\u5c45\u6c11\u59d4\u5458\u4f1a","short_name":"\u5bcc\u5174","merger_name":"\u5e7f\u4e1c,\u73e0\u6d77,\u9999\u6d32,\u6e7e\u4ed4\u529e,\u5bcc\u5174","pinyin":"FuXing","lng":"113.208330","lat":"22.141320"},{"id":496106,"parent_id":496102,"level":4,"area_code":"440402008004","zip_code":"519030","city_code":"0756","name":"\u8fde\u5c4f\u793e\u533a\u5c45\u6c11\u59d4\u5458\u4f1a","short_name":"\u8fde\u5c4f","merger_name":"\u5e7f\u4e1c,\u73e0\u6d77,\u9999\u6d32,\u6e7e\u4ed4\u529e,\u8fde\u5c4f","pinyin":"LianPing","lng":"113.507245","lat":"22.170626"},{"id":496107,"parent_id":496102,"level":4,"area_code":"440402008005","zip_code":"519000","city_code":"0756","name":"\u94f6\u5751\u793e\u533a\u5c45\u6c11\u59d4\u5458\u4f1a","short_name":"\u94f6\u5751","merger_name":"\u5e7f\u4e1c,\u73e0\u6d77,\u9999\u6d32,\u6e7e\u4ed4\u529e,\u94f6\u5751","pinyin":"YinKeng","lng":"113.606580","lat":"22.316500"},{"id":496108,"parent_id":496102,"level":4,"area_code":"440402008008","zip_code":"519030","city_code":"0756","name":"\u4f5c\u7269\u793e\u533a\u5c45\u6c11\u59d4\u5458\u4f1a","short_name":"\u4f5c\u7269","merger_name":"\u5e7f\u4e1c,\u73e0\u6d77,\u9999\u6d32,\u6e7e\u4ed4\u529e,\u4f5c\u7269","pinyin":"ZuoWu","lng":"113.529660","lat":"22.196350"},{"id":496109,"parent_id":495986,"level":3,"area_code":"440402100000","zip_code":"519080","city_code":"0756","name":"\u5510\u5bb6\u6e7e\u9547","short_name":"\u5510\u5bb6","merger_name":"\u5e7f\u4e1c,\u73e0\u6d77,\u9999\u6d32,\u5510\u5bb6","pinyin":"TangJia","lng":"113.540110","lat":"22.380810"},{"id":496110,"parent_id":496109,"level":4,"area_code":"440402100001","zip_code":"519085","city_code":"0756","name":"\u4e0b\u6805\u793e\u533a\u5c45\u6c11\u59d4\u5458\u4f1a","short_name":"\u4e0b\u6805","merger_name":"\u5e7f\u4e1c,\u73e0\u6d77,\u9999\u6d32,\u5510\u5bb6,\u4e0b\u6805","pinyin":"XiaZha","lng":"113.549000","lat":"22.379220"},{"id":496111,"parent_id":496109,"level":4,"area_code":"440402100002","zip_code":"519085","city_code":"0756","name":"\u91d1\u5cf0\u793e\u533a\u5c45\u6c11\u59d4\u5458\u4f1a","short_name":"\u91d1\u5cf0","merger_name":"\u5e7f\u4e1c,\u73e0\u6d77,\u9999\u6d32,\u5510\u5bb6,\u91d1\u5cf0","pinyin":"JinFeng","lng":"113.575920","lat":"22.247900"},{"id":496112,"parent_id":496109,"level":4,"area_code":"440402100003","zip_code":"519085","city_code":"0756","name":"\u5b98\u5858\u793e\u533a\u5c45\u6c11\u59d4\u5458\u4f1a","short_name":"\u5b98\u5858","merger_name":"\u5e7f\u4e1c,\u73e0\u6d77,\u9999\u6d32,\u5510\u5bb6,\u5b98\u5858","pinyin":"GuanTang","lng":"113.575920","lat":"22.247900"},{"id":496113,"parent_id":496109,"level":4,"area_code":"440402100004","zip_code":"519085","city_code":"0756","name":"\u4e1c\u5cb8\u793e\u533a\u5c45\u6c11\u59d4\u5458\u4f1a","short_name":"\u4e1c\u5cb8","merger_name":"\u5e7f\u4e1c,\u73e0\u6d77,\u9999\u6d32,\u5510\u5bb6,\u4e1c\u5cb8","pinyin":"DongAn","lng":"113.575920","lat":"22.247900"},{"id":496114,"parent_id":496109,"level":4,"area_code":"440402100005","zip_code":"519080","city_code":"0756","name":"\u5317\u6c99\u793e\u533a\u5c45\u6c11\u59d4\u5458\u4f1a","short_name":"\u5317\u6c99","merger_name":"\u5e7f\u4e1c,\u73e0\u6d77,\u9999\u6d32,\u5510\u5bb6,\u5317\u6c99","pinyin":"BeiSha","lng":"113.533874","lat":"22.396321"},{"id":496115,"parent_id":496109,"level":4,"area_code":"440402100006","zip_code":"519085","city_code":"0756","name":"\u6c38\u4e30\u793e\u533a\u5c45\u6c11\u59d4\u5458\u4f1a","short_name":"\u6c38\u4e30","merger_name":"\u5e7f\u4e1c,\u73e0\u6d77,\u9999\u6d32,\u5510\u5bb6,\u6c38\u4e30","pinyin":"YongFeng","lng":"113.575920","lat":"22.247900"},{"id":496116,"parent_id":496109,"level":4,"area_code":"440402100007","zip_code":"519080","city_code":"0756","name":"\u90a3\u6d32\u793e\u533a\u5c45\u6c11\u59d4\u5458\u4f1a","short_name":"\u90a3\u6d32","merger_name":"\u5e7f\u4e1c,\u73e0\u6d77,\u9999\u6d32,\u5510\u5bb6,\u90a3\u6d32","pinyin":"NaZhou","lng":"113.360820","lat":"22.148330"},{"id":496117,"parent_id":496109,"level":4,"area_code":"440402100008","zip_code":"519085","city_code":"0756","name":"\u4f1a\u540c\u793e\u533a\u5c45\u6c11\u59d4\u5458\u4f1a","short_name":"\u4f1a\u540c","merger_name":"\u5e7f\u4e1c,\u73e0\u6d77,\u9999\u6d32,\u5510\u5bb6,\u4f1a\u540c","pinyin":"HuiTong","lng":"113.529660","lat":"22.196350"},{"id":496118,"parent_id":496109,"level":4,"area_code":"440402100009","zip_code":"519080","city_code":"0756","name":"\u5b81\u5802\u793e\u533a\u5c45\u6c11\u59d4\u5458\u4f1a","short_name":"\u5b81\u5802","merger_name":"\u5e7f\u4e1c,\u73e0\u6d77,\u9999\u6d32,\u5510\u5bb6,\u5b81\u5802","pinyin":"NingTang","lng":"113.550780","lat":"22.355970"},{"id":496119,"parent_id":496109,"level":4,"area_code":"440402100010","zip_code":"519085","city_code":"0756","name":"\u4e0a\u6805\u793e\u533a\u5c45\u6c11\u59d4\u5458\u4f1a","short_name":"\u4e0a\u6805","merger_name":"\u5e7f\u4e1c,\u73e0\u6d77,\u9999\u6d32,\u5510\u5bb6,\u4e0a\u6805","pinyin":"ShangZha","lng":"113.575920","lat":"22.247900"},{"id":496120,"parent_id":496109,"level":4,"area_code":"440402100011","zip_code":"519080","city_code":"0756","name":"\u5510\u5bb6\u793e\u533a\u5c45\u6c11\u59d4\u5458\u4f1a","short_name":"\u5510\u5bb6","merger_name":"\u5e7f\u4e1c,\u73e0\u6d77,\u9999\u6d32,\u5510\u5bb6,\u5510\u5bb6","pinyin":"TangJia","lng":"113.597870","lat":"22.356930"},{"id":496121,"parent_id":496109,"level":4,"area_code":"440402100012","zip_code":"519080","city_code":"0756","name":"\u94f6\u661f\u793e\u533a\u5c45\u6c11\u59d4\u5458\u4f1a","short_name":"\u94f6\u661f","merger_name":"\u5e7f\u4e1c,\u73e0\u6d77,\u9999\u6d32,\u5510\u5bb6,\u94f6\u661f","pinyin":"YinXing","lng":"113.575920","lat":"22.247900"},{"id":496122,"parent_id":496109,"level":4,"area_code":"440402100013","zip_code":"519080","city_code":"0756","name":"\u5510\u4e50\u793e\u533a\u5c45\u6c11\u59d4\u5458\u4f1a","short_name":"\u5510\u4e50","merger_name":"\u5e7f\u4e1c,\u73e0\u6d77,\u9999\u6d32,\u5510\u5bb6,\u5510\u4e50","pinyin":"TangLe","lng":"113.575920","lat":"22.247900"},{"id":496123,"parent_id":496109,"level":4,"area_code":"440402100014","zip_code":"519080","city_code":"0756","name":"\u9e21\u5c71\u793e\u533a\u5c45\u6c11\u59d4\u5458\u4f1a","short_name":"\u9e21\u5c71","merger_name":"\u5e7f\u4e1c,\u73e0\u6d77,\u9999\u6d32,\u5510\u5bb6,\u9e21\u5c71","pinyin":"JiShan","lng":"113.575920","lat":"22.247900"},{"id":496124,"parent_id":496109,"level":4,"area_code":"440402100015","zip_code":"519080","city_code":"0756","name":"\u540e\u73af\u793e\u533a\u5c45\u6c11\u59d4\u5458\u4f1a","short_name":"\u540e\u73af","merger_name":"\u5e7f\u4e1c,\u73e0\u6d77,\u9999\u6d32,\u5510\u5bb6,\u540e\u73af","pinyin":"HouHuan","lng":"113.604370","lat":"22.365560"},{"id":496125,"parent_id":496109,"level":4,"area_code":"440402100016","zip_code":"519080","city_code":"0756","name":"\u6dc7\u6fb3\u793e\u533a\u5c45\u6c11\u59d4\u5458\u4f1a","short_name":"\u6dc7\u6fb3","merger_name":"\u5e7f\u4e1c,\u73e0\u6d77,\u9999\u6d32,\u5510\u5bb6,\u6dc7\u6fb3","pinyin":"QiAo","lng":"113.647050","lat":"22.412130"},{"id":496126,"parent_id":495986,"level":3,"area_code":"440402102000","zip_code":"519060","city_code":"0756","name":"\u5357\u5c4f\u9547","short_name":"\u5357\u5c4f","merger_name":"\u5e7f\u4e1c,\u73e0\u6d77,\u9999\u6d32,\u5357\u5c4f","pinyin":"NanPing","lng":"113.509400","lat":"22.218870"},{"id":496127,"parent_id":496126,"level":4,"area_code":"440402102001","zip_code":"519060","city_code":"0756","name":"\u6fc2\u6cc9\u793e\u533a\u5c45\u6c11\u59d4\u5458\u4f1a","short_name":"\u6fc2\u6cc9","merger_name":"\u5e7f\u4e1c,\u73e0\u6d77,\u9999\u6d32,\u5357\u5c4f,\u6fc2\u6cc9","pinyin":"LianQuan","lng":"113.509210","lat":"22.218510"},{"id":496128,"parent_id":496126,"level":4,"area_code":"440402102002","zip_code":"519060","city_code":"0756","name":"\u5357\u5c4f\u793e\u533a\u5c45\u6c11\u59d4\u5458\u4f1a","short_name":"\u5357\u5c4f","merger_name":"\u5e7f\u4e1c,\u73e0\u6d77,\u9999\u6d32,\u5357\u5c4f,\u5357\u5c4f","pinyin":"NanPing","lng":"113.513620","lat":"22.220280"},{"id":496129,"parent_id":496126,"level":4,"area_code":"440402102003","zip_code":"519060","city_code":"0756","name":"\u5317\u5c71\u793e\u533a\u5c45\u6c11\u59d4\u5458\u4f1a","short_name":"\u5317\u5c71","merger_name":"\u5e7f\u4e1c,\u73e0\u6d77,\u9999\u6d32,\u5357\u5c4f,\u5317\u5c71","pinyin":"BeiShan","lng":"113.513620","lat":"22.220280"},{"id":496130,"parent_id":496126,"level":4,"area_code":"440402102004","zip_code":"519060","city_code":"0756","name":"\u5341\u4e8c\u6751\u793e\u533a\u5c45\u6c11\u59d4\u5458\u4f1a","short_name":"\u5341\u4e8c\u6751","merger_name":"\u5e7f\u4e1c,\u73e0\u6d77,\u9999\u6d32,\u5357\u5c4f,\u5341\u4e8c\u6751","pinyin":"ShiErCun","lng":"113.498380","lat":"22.224610"},{"id":496131,"parent_id":496126,"level":4,"area_code":"440402102005","zip_code":"519060","city_code":"0756","name":"\u5e7f\u751f\u793e\u533a\u5c45\u6c11\u59d4\u5458\u4f1a","short_name":"\u5e7f\u751f","merger_name":"\u5e7f\u4e1c,\u73e0\u6d77,\u9999\u6d32,\u5357\u5c4f,\u5e7f\u751f","pinyin":"GuangSheng","lng":"113.476270","lat":"22.211260"},{"id":496132,"parent_id":496126,"level":4,"area_code":"440402102006","zip_code":"519060","city_code":"0756","name":"\u5e7f\u660c\u793e\u533a\u5c45\u6c11\u59d4\u5458\u4f1a","short_name":"\u5e7f\u660c","merger_name":"\u5e7f\u4e1c,\u73e0\u6d77,\u9999\u6d32,\u5357\u5c4f,\u5e7f\u660c","pinyin":"GuangChang","lng":"113.448960","lat":"22.200260"},{"id":496133,"parent_id":496126,"level":4,"area_code":"440402102007","zip_code":"519030","city_code":"0756","name":"\u6d2a\u6e7e\u793e\u533a\u5c45\u6c11\u59d4\u5458\u4f1a","short_name":"\u6d2a\u6e7e","merger_name":"\u5e7f\u4e1c,\u73e0\u6d77,\u9999\u6d32,\u5357\u5c4f,\u6d2a\u6e7e","pinyin":"HongWan","lng":"113.463760","lat":"22.192540"},{"id":496134,"parent_id":496126,"level":4,"area_code":"440402102008","zip_code":"519060","city_code":"0756","name":"\u7ea2\u4e1c\u793e\u533a\u5c45\u6c11\u59d4\u5458\u4f1a","short_name":"\u7ea2\u4e1c","merger_name":"\u5e7f\u4e1c,\u73e0\u6d77,\u9999\u6d32,\u5357\u5c4f,\u7ea2\u4e1c","pinyin":"HongDong","lng":"113.465420","lat":"22.173260"},{"id":496135,"parent_id":496126,"level":4,"area_code":"440402102009","zip_code":"519060","city_code":"0756","name":"\u4e1c\u6865\u793e\u533a\u5c45\u6c11\u59d4\u5458\u4f1a","short_name":"\u4e1c\u6865","merger_name":"\u5e7f\u4e1c,\u73e0\u6d77,\u9999\u6d32,\u5357\u5c4f,\u4e1c\u6865","pinyin":"DongQiao","lng":"113.522100","lat":"22.220420"},{"id":496136,"parent_id":496126,"level":4,"area_code":"440402102010","zip_code":"519060","city_code":"0756","name":"\u534e\u53d1\u793e\u533a\u5c45\u59d4\u4f1a","short_name":"\u534e\u53d1","merger_name":"\u5e7f\u4e1c,\u73e0\u6d77,\u9999\u6d32,\u5357\u5c4f,\u534e\u53d1","pinyin":"HuaFa","lng":"113.514150","lat":"22.232530"},{"id":496137,"parent_id":496126,"level":4,"area_code":"440402102011","zip_code":"519060","city_code":"0756","name":"\u8302\u4e30\u793e\u533a\u5c45\u6c11\u59d4\u5458\u4f1a","short_name":"\u8302\u4e30","merger_name":"\u5e7f\u4e1c,\u73e0\u6d77,\u9999\u6d32,\u5357\u5c4f,\u8302\u4e30","pinyin":"MaoFeng","lng":"113.521010","lat":"22.224940"},{"id":496138,"parent_id":496126,"level":4,"area_code":"440402102012","zip_code":"519060","city_code":"0756","name":"\u6c38\u6d4e\u793e\u533a\u5c45\u6c11\u59d4\u5458\u4f1a","short_name":"\u6c38\u6d4e","merger_name":"\u5e7f\u4e1c,\u73e0\u6d77,\u9999\u6d32,\u5357\u5c4f,\u6c38\u6d4e","pinyin":"YongJi","lng":"113.524280","lat":"22.214080"},{"id":496139,"parent_id":495986,"level":3,"area_code":"440402104000","zip_code":"519031","city_code":"0756","name":"\u6a2a\u7434\u9547","short_name":"\u6a2a\u7434","merger_name":"\u5e7f\u4e1c,\u73e0\u6d77,\u9999\u6d32,\u6a2a\u7434","pinyin":"HengQin","lng":"113.547490","lat":"22.113430"},{"id":496140,"parent_id":496139,"level":4,"area_code":"440402104002","zip_code":"519031","city_code":"0756","name":"\u5bcc\u7965\u6e7e\u793e\u533a\u5c45\u59d4\u4f1a","short_name":"\u5bcc\u7965\u6e7e","merger_name":"\u5e7f\u4e1c,\u73e0\u6d77,\u9999\u6d32,\u6a2a\u7434,\u5bcc\u7965\u6e7e","pinyin":"FuXiangWan","lng":"113.548580","lat":"22.113580"},{"id":496141,"parent_id":496139,"level":4,"area_code":"440402104003","zip_code":"519031","city_code":"0756","name":"\u8377\u5858\u793e\u533a\u5c45\u59d4\u4f1a","short_name":"\u8377\u5858","merger_name":"\u5e7f\u4e1c,\u73e0\u6d77,\u9999\u6d32,\u6a2a\u7434,\u8377\u5858","pinyin":"HeTang","lng":"113.514330","lat":"22.117970"},{"id":496142,"parent_id":496139,"level":4,"area_code":"440402104004","zip_code":"519031","city_code":"0756","name":"\u5c0f\u6a2a\u7434\u793e\u533a\u5c45\u59d4\u4f1a","short_name":"\u5c0f\u6a2a\u7434","merger_name":"\u5e7f\u4e1c,\u73e0\u6d77,\u9999\u6d32,\u6a2a\u7434,\u5c0f\u6a2a\u7434","pinyin":"XiaoHengQin","lng":"113.546060","lat":"22.142280"},{"id":496143,"parent_id":495986,"level":3,"area_code":"440402105000","zip_code":"519004","city_code":"0756","name":"\u6842\u5c71\u9547","short_name":"\u6842\u5c71","merger_name":"\u5e7f\u4e1c,\u73e0\u6d77,\u9999\u6d32,\u6842\u5c71","pinyin":"GuiShan","lng":"113.823630","lat":"22.137080"},{"id":496144,"parent_id":496143,"level":4,"area_code":"440402105200","zip_code":"519004","city_code":"0756","name":"\u6842\u6d77\u6751\u59d4\u4f1a","short_name":"\u6842\u6d77","merger_name":"\u5e7f\u4e1c,\u73e0\u6d77,\u9999\u6d32,\u6842\u5c71,\u6842\u6d77","pinyin":"GuiHai","lng":"113.823920","lat":"22.136090"},{"id":496145,"parent_id":496143,"level":4,"area_code":"440402105201","zip_code":"519004","city_code":"0756","name":"\u6842\u5c71\u6751\u59d4\u4f1a","short_name":"\u6842\u5c71","merger_name":"\u5e7f\u4e1c,\u73e0\u6d77,\u9999\u6d32,\u6842\u5c71,\u6842\u5c71","pinyin":"GuiShan","lng":"113.824570","lat":"22.137870"},{"id":496146,"parent_id":495986,"level":3,"area_code":"440402106000","zip_code":"519000","city_code":"0756","name":"\u4e07\u5c71\u9547","short_name":"\u4e07\u5c71","merger_name":"\u5e7f\u4e1c,\u73e0\u6d77,\u9999\u6d32,\u4e07\u5c71","pinyin":"WanShan","lng":"113.723330","lat":"21.935010"},{"id":496147,"parent_id":496146,"level":4,"area_code":"440402106200","zip_code":"519000","city_code":"0756","name":"\u4e07\u5c71\u6751\u59d4\u4f1a","short_name":"\u4e07\u5c71","merger_name":"\u5e7f\u4e1c,\u73e0\u6d77,\u9999\u6d32,\u4e07\u5c71,\u4e07\u5c71","pinyin":"WanShan","lng":"113.726290","lat":"21.932330"},{"id":496148,"parent_id":496146,"level":4,"area_code":"440402106201","zip_code":"519006","city_code":"0756","name":"\u4e1c\u6fb3\u6751\u59d4\u4f1a","short_name":"\u4e1c\u6fb3","merger_name":"\u5e7f\u4e1c,\u73e0\u6d77,\u9999\u6d32,\u4e07\u5c71,\u4e1c\u6fb3","pinyin":"DongAo","lng":"113.238320","lat":"22.158490"},{"id":496149,"parent_id":495986,"level":3,"area_code":"440402107000","zip_code":"519000","city_code":"0756","name":"\u62c5\u6746\u9547","short_name":"\u62c5\u6746","merger_name":"\u5e7f\u4e1c,\u73e0\u6d77,\u9999\u6d32,\u62c5\u6746","pinyin":"DanGan","lng":"114.030310","lat":"22.100070"},{"id":496150,"parent_id":496149,"level":4,"area_code":"440402107200","zip_code":"519008","city_code":"0756","name":"\u4f36\u4ec3\u6751\u59d4\u4f1a","short_name":"\u4f36\u4ec3","merger_name":"\u5e7f\u4e1c,\u73e0\u6d77,\u9999\u6d32,\u62c5\u6746,\u4f36\u4ec3","pinyin":"LingDing","lng":"114.031611","lat":"22.098458"},{"id":496151,"parent_id":496149,"level":4,"area_code":"440402107201","zip_code":"519001","city_code":"0756","name":"\u65b0\u6751\u6751\u59d4\u4f1a","short_name":"\u65b0\u6751","merger_name":"\u5e7f\u4e1c,\u73e0\u6d77,\u9999\u6d32,\u62c5\u6746,\u65b0\u6751","pinyin":"XinCun","lng":"114.031160","lat":"22.101130"},{"id":496152,"parent_id":496149,"level":4,"area_code":"440402107202","zip_code":"519000","city_code":"0756","name":"\u62c5\u6746\u6751\u59d4\u4f1a","short_name":"\u62c5\u6746","merger_name":"\u5e7f\u4e1c,\u73e0\u6d77,\u9999\u6d32,\u62c5\u6746,\u62c5\u6746","pinyin":"DanGan","lng":"114.311060","lat":"22.055050"},{"id":496153,"parent_id":495986,"level":3,"area_code":"440402401000","zip_code":"519000","city_code":"0756","name":"\u5357\u5c4f\u79d1\u6280\u56ed","short_name":"\u5357\u5c4f\u79d1\u6280\u56ed","merger_name":"\u5e7f\u4e1c,\u73e0\u6d77,\u9999\u6d32,\u5357\u5c4f\u79d1\u6280\u56ed","pinyin":"NanPingKeJiYuan","lng":"113.484040","lat":"22.223980"},{"id":496154,"parent_id":496153,"level":4,"area_code":"440402401498","zip_code":"519060","city_code":"0756","name":"\u5357\u5c4f\u79d1\u6280\u56ed\u865a\u62df\u793e\u533a","short_name":"\u5357\u5c4f\u79d1\u6280\u56ed","merger_name":"\u5e7f\u4e1c,\u73e0\u6d77,\u9999\u6d32,\u5357\u5c4f\u79d1\u6280\u56ed,\u5357\u5c4f\u79d1\u6280\u56ed","pinyin":"NanPingKeJiYuan","lng":"113.484040","lat":"22.223980"},{"id":496155,"parent_id":495986,"level":3,"area_code":"440402402000","zip_code":"519030","city_code":"0756","name":"\u4fdd\u7a0e\u533a","short_name":"\u4fdd\u7a0e","merger_name":"\u5e7f\u4e1c,\u73e0\u6d77,\u9999\u6d32,\u4fdd\u7a0e","pinyin":"BaoShui","lng":"113.511700","lat":"22.168740"},{"id":496156,"parent_id":496155,"level":4,"area_code":"440402402498","zip_code":"519030","city_code":"0756","name":"\u4fdd\u7a0e\u533a\u865a\u62df\u793e\u533a","short_name":"\u4fdd\u7a0e\u533a","merger_name":"\u5e7f\u4e1c,\u73e0\u6d77,\u9999\u6d32,\u4fdd\u7a0e,\u4fdd\u7a0e\u533a","pinyin":"BaoShuiQu","lng":"113.511700","lat":"22.168740"},{"id":496157,"parent_id":495986,"level":3,"area_code":"440402403000","zip_code":"519000","city_code":"0756","name":"\u524d\u5c71\u5546\u8d38\u7269\u6d41\u4e2d\u5fc3","short_name":"\u524d\u5c71\u5546\u8d38\u7269\u6d41\u4e2d\u5fc3","merger_name":"\u5e7f\u4e1c,\u73e0\u6d77,\u9999\u6d32,\u524d\u5c71\u5546\u8d38\u7269\u6d41\u4e2d\u5fc3","pinyin":"QianShanShangMaoWuLiuZhongXin","lng":"113.497680","lat":"22.286240"},{"id":496158,"parent_id":496157,"level":4,"area_code":"440402403498","zip_code":"519000","city_code":"0756","name":"\u524d\u5c71\u5546\u8d38\u7269\u6d41\u4e2d\u5fc3\u865a\u62df\u793e\u533a","short_name":"\u524d\u5c71\u5546\u8d38\u7269\u6d41\u4e2d\u5fc3","merger_name":"\u5e7f\u4e1c,\u73e0\u6d77,\u9999\u6d32,\u524d\u5c71\u5546\u8d38\u7269\u6d41\u4e2d\u5fc3,\u524d\u5c71\u5546\u8d38\u7269\u6d41\u4e2d\u5fc3","pinyin":"QianShanShangMaoWuLiuZhongXin","lng":"113.497680","lat":"22.286240"},{"id":496159,"parent_id":495986,"level":3,"area_code":"440402404000","zip_code":"519000","city_code":"0756","name":"\u6d2a\u6e7e\u5546\u8d38\u7269\u6d41\u4e2d\u5fc3","short_name":"\u6d2a\u6e7e\u5546\u8d38\u7269\u6d41\u4e2d\u5fc3","merger_name":"\u5e7f\u4e1c,\u73e0\u6d77,\u9999\u6d32,\u6d2a\u6e7e\u5546\u8d38\u7269\u6d41\u4e2d\u5fc3","pinyin":"HongWanShangMaoWuLiuZhongXin","lng":"113.476929","lat":"22.156085"},{"id":496160,"parent_id":496159,"level":4,"area_code":"440402404498","zip_code":"519000","city_code":"0756","name":"\u6d2a\u6e7e\u5546\u8d38\u7269\u6d41\u4e2d\u5fc3\u865a\u62df\u793e\u533a","short_name":"\u6d2a\u6e7e\u5546\u8d38\u7269\u6d41\u4e2d\u5fc3","merger_name":"\u5e7f\u4e1c,\u73e0\u6d77,\u9999\u6d32,\u6d2a\u6e7e\u5546\u8d38\u7269\u6d41\u4e2d\u5fc3,\u6d2a\u6e7e\u5546\u8d38\u7269\u6d41\u4e2d\u5fc3","pinyin":"HongWanShangMaoWuLiuZhongXin","lng":"113.476929","lat":"22.156085"},{"id":496161,"parent_id":495986,"level":3,"area_code":"440402406000","zip_code":"519085","city_code":"0756","name":"\u91d1\u9f0e\u5de5\u4e1a\u56ed","short_name":"\u91d1\u9f0e\u5de5\u4e1a\u56ed","merger_name":"\u5e7f\u4e1c,\u73e0\u6d77,\u9999\u6d32,\u91d1\u9f0e\u5de5\u4e1a\u56ed","pinyin":"JinDingGongYeYuan","lng":"113.526405","lat":"22.373465"},{"id":496162,"parent_id":496161,"level":4,"area_code":"440402406498","zip_code":"519085","city_code":"0756","name":"\u91d1\u9f0e\u5de5\u4e1a\u56ed\u865a\u62df\u5c45\u59d4\u4f1a","short_name":"\u91d1\u9f0e\u5de5\u4e1a\u56ed\u865a\u62df","merger_name":"\u5e7f\u4e1c,\u73e0\u6d77,\u9999\u6d32,\u91d1\u9f0e\u5de5\u4e1a\u56ed,\u91d1\u9f0e\u5de5\u4e1a\u56ed\u865a\u62df","pinyin":"JinDingGongYeYuanXuNi","lng":"113.526405","lat":"22.373465"},{"id":496163,"parent_id":495984,"level":2,"area_code":"440403000000","zip_code":"519100","city_code":"0756","name":"\u6597\u95e8\u533a","short_name":"\u6597\u95e8","merger_name":"\u5e7f\u4e1c,\u73e0\u6d77,\u6597\u95e8","pinyin":"DouMen","lng":"113.296467","lat":"22.209200"},{"id":496164,"parent_id":496163,"level":3,"area_code":"440403001000","zip_code":"519115","city_code":"0756","name":"\u767d\u85e4\u8857\u9053\u529e\u4e8b\u5904","short_name":"\u767d\u85e4","merger_name":"\u5e7f\u4e1c,\u73e0\u6d77,\u6597\u95e8,\u767d\u85e4","pinyin":"BaiTeng","lng":"113.329870","lat":"22.182210"},{"id":496165,"parent_id":496164,"level":4,"area_code":"440403001001","zip_code":"519115","city_code":"0756","name":"\u597d\u666f\u793e\u533a\u5c45\u59d4\u4f1a","short_name":"\u597d\u666f","merger_name":"\u5e7f\u4e1c,\u73e0\u6d77,\u6597\u95e8,\u767d\u85e4,\u597d\u666f","pinyin":"HaoJing","lng":"113.331030","lat":"22.180690"},{"id":496166,"parent_id":496164,"level":4,"area_code":"440403001002","zip_code":"519115","city_code":"0756","name":"\u7fa4\u5174\u793e\u533a\u5c45\u59d4\u4f1a","short_name":"\u7fa4\u5174","merger_name":"\u5e7f\u4e1c,\u73e0\u6d77,\u6597\u95e8,\u767d\u85e4,\u7fa4\u5174","pinyin":"QunXing","lng":"113.338770","lat":"22.166340"},{"id":496167,"parent_id":496164,"level":4,"area_code":"440403001003","zip_code":"519115","city_code":"0756","name":"\u56e2\u7ed3\u793e\u533a\u5c45\u59d4\u4f1a","short_name":"\u56e2\u7ed3","merger_name":"\u5e7f\u4e1c,\u73e0\u6d77,\u6597\u95e8,\u767d\u85e4,\u56e2\u7ed3","pinyin":"TuanJie","lng":"113.338570","lat":"22.135860"},{"id":496168,"parent_id":496164,"level":4,"area_code":"440403001004","zip_code":"519115","city_code":"0756","name":"\u65b0\u57ce\u793e\u533a\u5c45\u59d4\u4f1a","short_name":"\u65b0\u57ce","merger_name":"\u5e7f\u4e1c,\u73e0\u6d77,\u6597\u95e8,\u767d\u85e4,\u65b0\u57ce","pinyin":"XinCheng","lng":"113.365200","lat":"22.154680"},{"id":496169,"parent_id":496164,"level":4,"area_code":"440403001005","zip_code":"519115","city_code":"0756","name":"\u767d\u85e4\u793e\u533a\u5c45\u59d4\u4f1a","short_name":"\u767d\u85e4","merger_name":"\u5e7f\u4e1c,\u73e0\u6d77,\u6597\u95e8,\u767d\u85e4,\u767d\u85e4","pinyin":"BaiTeng","lng":"113.338770","lat":"22.166340"},{"id":496170,"parent_id":496164,"level":4,"area_code":"440403001006","zip_code":"519115","city_code":"0756","name":"\u9e64\u6d32\u793e\u533a\u5c45\u59d4\u4f1a","short_name":"\u9e64\u6d32","merger_name":"\u5e7f\u4e1c,\u73e0\u6d77,\u6597\u95e8,\u767d\u85e4,\u9e64\u6d32","pinyin":"HeZhou","lng":"113.360820","lat":"22.148330"},{"id":496171,"parent_id":496163,"level":3,"area_code":"440403100000","zip_code":"519165","city_code":"0756","name":"\u83b2\u6d32\u9547","short_name":"\u83b2\u6d32","merger_name":"\u5e7f\u4e1c,\u73e0\u6d77,\u6597\u95e8,\u83b2\u6d32","pinyin":"LianZhou","lng":"113.208120","lat":"22.315100"},{"id":496172,"parent_id":496171,"level":4,"area_code":"440403100001","zip_code":"519165","city_code":"0756","name":"\u6a2a\u5c71\u793e\u533a\u5c45\u59d4\u4f1a","short_name":"\u6a2a\u5c71","merger_name":"\u5e7f\u4e1c,\u73e0\u6d77,\u6597\u95e8,\u83b2\u6d32,\u6a2a\u5c71","pinyin":"HengShan","lng":"113.206656","lat":"22.318036"},{"id":496173,"parent_id":496171,"level":4,"area_code":"440403100002","zip_code":"519135","city_code":"0756","name":"\u83b2\u6eaa\u793e\u533a\u5c45\u59d4\u4f1a","short_name":"\u83b2\u6eaa","merger_name":"\u5e7f\u4e1c,\u73e0\u6d77,\u6597\u95e8,\u83b2\u6d32,\u83b2\u6eaa","pinyin":"LianXi","lng":"113.229590","lat":"22.378580"},{"id":496174,"parent_id":496171,"level":4,"area_code":"440403100003","zip_code":"519135","city_code":"0756","name":"\u5927\u6c99\u793e\u533a\u5c45\u59d4\u4f1a","short_name":"\u5927\u6c99","merger_name":"\u5e7f\u4e1c,\u73e0\u6d77,\u6597\u95e8,\u83b2\u6d32,\u5927\u6c99","pinyin":"DaSha","lng":"113.220590","lat":"22.345520"},{"id":496175,"parent_id":496171,"level":4,"area_code":"440403100200","zip_code":"519165","city_code":"0756","name":"\u8015\u7ba1\u6751\u59d4\u4f1a","short_name":"\u8015\u7ba1","merger_name":"\u5e7f\u4e1c,\u73e0\u6d77,\u6597\u95e8,\u83b2\u6d32,\u8015\u7ba1","pinyin":"GengGuan","lng":"113.206510","lat":"22.368710"},{"id":496176,"parent_id":496171,"level":4,"area_code":"440403100201","zip_code":"519165","city_code":"0756","name":"\u5e7f\u4e30\u6751\u59d4\u4f1a","short_name":"\u5e7f\u4e30","merger_name":"\u5e7f\u4e1c,\u73e0\u6d77,\u6597\u95e8,\u83b2\u6d32,\u5e7f\u4e30","pinyin":"GuangFeng","lng":"113.206740","lat":"22.360310"},{"id":496177,"parent_id":496171,"level":4,"area_code":"440403100202","zip_code":"519165","city_code":"0756","name":"\u798f\u5b89\u6751\u59d4\u4f1a","short_name":"\u798f\u5b89","merger_name":"\u5e7f\u4e1c,\u73e0\u6d77,\u6597\u95e8,\u83b2\u6d32,\u798f\u5b89","pinyin":"FuAn","lng":"113.199270","lat":"22.356680"},{"id":496178,"parent_id":496171,"level":4,"area_code":"440403100204","zip_code":"519165","city_code":"0756","name":"\u4e09\u89d2\u6751\u59d4\u4f1a","short_name":"\u4e09\u89d2","merger_name":"\u5e7f\u4e1c,\u73e0\u6d77,\u6597\u95e8,\u83b2\u6d32,\u4e09\u89d2","pinyin":"SanJiao","lng":"113.179270","lat":"22.398620"},{"id":496179,"parent_id":496171,"level":4,"area_code":"440403100205","zip_code":"519165","city_code":"0756","name":"\u4e09\u9f99\u6751\u59d4\u4f1a","short_name":"\u4e09\u9f99","merger_name":"\u5e7f\u4e1c,\u73e0\u6d77,\u6597\u95e8,\u83b2\u6d32,\u4e09\u9f99","pinyin":"SanLong","lng":"113.184490","lat":"22.382040"},{"id":496180,"parent_id":496171,"level":4,"area_code":"440403100206","zip_code":"519165","city_code":"0756","name":"\u4e8c\u9f99\u6751\u59d4\u4f1a","short_name":"\u4e8c\u9f99","merger_name":"\u5e7f\u4e1c,\u73e0\u6d77,\u6597\u95e8,\u83b2\u6d32,\u4e8c\u9f99","pinyin":"ErLong","lng":"113.207290","lat":"22.322615"},{"id":496181,"parent_id":496171,"level":4,"area_code":"440403100207","zip_code":"519165","city_code":"0756","name":"\u736d\u5c71\u6751\u59d4\u4f1a","short_name":"\u736d\u5c71","merger_name":"\u5e7f\u4e1c,\u73e0\u6d77,\u6597\u95e8,\u83b2\u6d32,\u736d\u5c71","pinyin":"TaShan","lng":"113.168347","lat":"22.395234"},{"id":496182,"parent_id":496171,"level":4,"area_code":"440403100208","zip_code":"519165","city_code":"0756","name":"\u4e09\u51b2\u6751\u59d4\u4f1a","short_name":"\u4e09\u51b2","merger_name":"\u5e7f\u4e1c,\u73e0\u6d77,\u6597\u95e8,\u83b2\u6d32,\u4e09\u51b2","pinyin":"SanChong","lng":"113.218510","lat":"22.318610"},{"id":496183,"parent_id":496171,"level":4,"area_code":"440403100209","zip_code":"519165","city_code":"0756","name":"\u5927\u80dc\u6751\u59d4\u4f1a","short_name":"\u5927\u80dc","merger_name":"\u5e7f\u4e1c,\u73e0\u6d77,\u6597\u95e8,\u83b2\u6d32,\u5927\u80dc","pinyin":"DaSheng","lng":"113.211160","lat":"22.315000"},{"id":496184,"parent_id":496171,"level":4,"area_code":"440403100210","zip_code":"519165","city_code":"0756","name":"\u4e09\u5bb6\u6751\u59d4\u4f1a","short_name":"\u4e09\u5bb6","merger_name":"\u5e7f\u4e1c,\u73e0\u6d77,\u6597\u95e8,\u83b2\u6d32,\u4e09\u5bb6","pinyin":"SanJia","lng":"113.207230","lat":"22.325840"},{"id":496185,"parent_id":496171,"level":4,"area_code":"440403100211","zip_code":"519165","city_code":"0756","name":"\u6a2a\u5c71\u6751\u59d4\u4f1a","short_name":"\u6a2a\u5c71","merger_name":"\u5e7f\u4e1c,\u73e0\u6d77,\u6597\u95e8,\u83b2\u6d32,\u6a2a\u5c71","pinyin":"HengShan","lng":"113.207290","lat":"22.322615"},{"id":496186,"parent_id":496171,"level":4,"area_code":"440403100213","zip_code":"519165","city_code":"0756","name":"\u65b0\u76ca\u6751\u59d4\u4f1a","short_name":"\u65b0\u76ca","merger_name":"\u5e7f\u4e1c,\u73e0\u6d77,\u6597\u95e8,\u83b2\u6d32,\u65b0\u76ca","pinyin":"XinYi","lng":"113.197000","lat":"22.322490"},{"id":496187,"parent_id":496171,"level":4,"area_code":"440403100214","zip_code":"519165","city_code":"0756","name":"\u7c89\u6d32\u6751\u59d4\u4f1a","short_name":"\u7c89\u6d32","merger_name":"\u5e7f\u4e1c,\u73e0\u6d77,\u6597\u95e8,\u83b2\u6d32,\u7c89\u6d32","pinyin":"FenZhou","lng":"113.233650","lat":"22.323930"},{"id":496188,"parent_id":496171,"level":4,"area_code":"440403100215","zip_code":"519165","city_code":"0756","name":"\u5357\u9752\u6751\u59d4\u4f1a","short_name":"\u5357\u9752","merger_name":"\u5e7f\u4e1c,\u73e0\u6d77,\u6597\u95e8,\u83b2\u6d32,\u5357\u9752","pinyin":"NanQing","lng":"113.207300","lat":"22.315080"},{"id":496189,"parent_id":496171,"level":4,"area_code":"440403100216","zip_code":"519165","city_code":"0756","name":"\u65b0\u6d32\u6751\u59d4\u4f1a","short_name":"\u65b0\u6d32","merger_name":"\u5e7f\u4e1c,\u73e0\u6d77,\u6597\u95e8,\u83b2\u6d32,\u65b0\u6d32","pinyin":"XinZhou","lng":"113.200200","lat":"22.305050"},{"id":496190,"parent_id":496171,"level":4,"area_code":"440403100217","zip_code":"519165","city_code":"0756","name":"\u897f\u6ed8\u6751\u59d4\u4f1a","short_name":"\u897f\u6ed8","merger_name":"\u5e7f\u4e1c,\u73e0\u6d77,\u6597\u95e8,\u83b2\u6d32,\u897f\u6ed8","pinyin":"XiJiao","lng":"113.206930","lat":"22.293580"},{"id":496191,"parent_id":496171,"level":4,"area_code":"440403100218","zip_code":"519165","city_code":"0756","name":"\u4e1c\u6ed8\u6751\u59d4\u4f1a","short_name":"\u4e1c\u6ed8","merger_name":"\u5e7f\u4e1c,\u73e0\u6d77,\u6597\u95e8,\u83b2\u6d32,\u4e1c\u6ed8","pinyin":"DongJiao","lng":"113.226740","lat":"22.302540"},{"id":496192,"parent_id":496171,"level":4,"area_code":"440403100219","zip_code":"519135","city_code":"0756","name":"\u7ea2\u661f\u6751\u59d4\u4f1a","short_name":"\u7ea2\u661f","merger_name":"\u5e7f\u4e1c,\u73e0\u6d77,\u6597\u95e8,\u83b2\u6d32,\u7ea2\u661f","pinyin":"HongXing","lng":"113.230450","lat":"22.380670"},{"id":496193,"parent_id":496171,"level":4,"area_code":"440403100220","zip_code":"519165","city_code":"0756","name":"\u6587\u950b\u6751\u59d4\u4f1a","short_name":"\u6587\u950b","merger_name":"\u5e7f\u4e1c,\u73e0\u6d77,\u6597\u95e8,\u83b2\u6d32,\u6587\u950b","pinyin":"WenFeng","lng":"113.228520","lat":"22.379360"},{"id":496194,"parent_id":496171,"level":4,"area_code":"440403100221","zip_code":"519165","city_code":"0756","name":"\u65b0\u4e30\u6751\u59d4\u4f1a","short_name":"\u65b0\u4e30","merger_name":"\u5e7f\u4e1c,\u73e0\u6d77,\u6597\u95e8,\u83b2\u6d32,\u65b0\u4e30","pinyin":"XinFeng","lng":"113.224970","lat":"22.379470"},{"id":496195,"parent_id":496171,"level":4,"area_code":"440403100224","zip_code":"519135","city_code":"0756","name":"\u4e1c\u5b89\u6751\u59d4\u4f1a","short_name":"\u4e1c\u5b89","merger_name":"\u5e7f\u4e1c,\u73e0\u6d77,\u6597\u95e8,\u83b2\u6d32,\u4e1c\u5b89","pinyin":"DongAn","lng":"113.234738","lat":"22.380233"},{"id":496196,"parent_id":496171,"level":4,"area_code":"440403100225","zip_code":"519135","city_code":"0756","name":"\u4e0a\u680f\u6751\u59d4\u4f1a","short_name":"\u4e0a\u680f","merger_name":"\u5e7f\u4e1c,\u73e0\u6d77,\u6597\u95e8,\u83b2\u6d32,\u4e0a\u680f","pinyin":"ShangLan","lng":"113.255660","lat":"22.360500"},{"id":496197,"parent_id":496171,"level":4,"area_code":"440403100226","zip_code":"519135","city_code":"0756","name":"\u4e0b\u680f\u6751\u59d4\u4f1a","short_name":"\u4e0b\u680f","merger_name":"\u5e7f\u4e1c,\u73e0\u6d77,\u6597\u95e8,\u83b2\u6d32,\u4e0b\u680f","pinyin":"XiaLan","lng":"113.254680","lat":"22.356090"},{"id":496198,"parent_id":496171,"level":4,"area_code":"440403100227","zip_code":"519135","city_code":"0756","name":"\u77f3\u9f99\u6751\u59d4\u4f1a","short_name":"\u77f3\u9f99","merger_name":"\u5e7f\u4e1c,\u73e0\u6d77,\u6597\u95e8,\u83b2\u6d32,\u77f3\u9f99","pinyin":"ShiLong","lng":"113.243280","lat":"22.364160"},{"id":496199,"parent_id":496171,"level":4,"area_code":"440403100229","zip_code":"519135","city_code":"0756","name":"\u83b2\u6c5f\u6751\u59d4\u4f1a","short_name":"\u83b2\u6c5f","merger_name":"\u5e7f\u4e1c,\u73e0\u6d77,\u6597\u95e8,\u83b2\u6d32,\u83b2\u6c5f","pinyin":"LianJiang","lng":"113.236980","lat":"22.355630"},{"id":496200,"parent_id":496171,"level":4,"area_code":"440403100230","zip_code":"519135","city_code":"0756","name":"\u5149\u660e\u6751\u59d4\u4f1a","short_name":"\u5149\u660e","merger_name":"\u5e7f\u4e1c,\u73e0\u6d77,\u6597\u95e8,\u83b2\u6d32,\u5149\u660e","pinyin":"GuangMing","lng":"113.231630","lat":"22.343560"},{"id":496201,"parent_id":496171,"level":4,"area_code":"440403100232","zip_code":"519135","city_code":"0756","name":"\u4e1c\u6e7e\u6751\u59d4\u4f1a","short_name":"\u4e1c\u6e7e","merger_name":"\u5e7f\u4e1c,\u73e0\u6d77,\u6597\u95e8,\u83b2\u6d32,\u4e1c\u6e7e","pinyin":"DongWan","lng":"113.244460","lat":"22.335330"},{"id":496202,"parent_id":496163,"level":3,"area_code":"440403103000","zip_code":"519110","city_code":"0756","name":"\u6597\u95e8\u9547","short_name":"\u6597\u95e8","merger_name":"\u5e7f\u4e1c,\u73e0\u6d77,\u6597\u95e8,\u6597\u95e8","pinyin":"DouMen","lng":"113.195500","lat":"22.232310"},{"id":496203,"parent_id":496202,"level":4,"area_code":"440403103001","zip_code":"519110","city_code":"0756","name":"\u6597\u95e8\u793e\u533a\u5c45\u59d4\u4f1a","short_name":"\u6597\u95e8","merger_name":"\u5e7f\u4e1c,\u73e0\u6d77,\u6597\u95e8,\u6597\u95e8,\u6597\u95e8","pinyin":"DouMen","lng":"113.205270","lat":"22.231610"},{"id":496204,"parent_id":496202,"level":4,"area_code":"440403103200","zip_code":"519110","city_code":"0756","name":"\u5927\u8d64\u574e\u6751\u59d4\u4f1a","short_name":"\u5927\u8d64\u574e","merger_name":"\u5e7f\u4e1c,\u73e0\u6d77,\u6597\u95e8,\u6597\u95e8,\u5927\u8d64\u574e","pinyin":"DaChiKan","lng":"113.234110","lat":"22.269630"},{"id":496205,"parent_id":496202,"level":4,"area_code":"440403103203","zip_code":"519110","city_code":"0756","name":"\u5c0f\u8d64\u574e\u6751\u59d4\u4f1a","short_name":"\u5c0f\u8d64\u574e","merger_name":"\u5e7f\u4e1c,\u73e0\u6d77,\u6597\u95e8,\u6597\u95e8,\u5c0f\u8d64\u574e","pinyin":"XiaoChiKan","lng":"113.200117","lat":"22.285648"},{"id":496206,"parent_id":496202,"level":4,"area_code":"440403103205","zip_code":"519110","city_code":"0756","name":"\u4e0a\u6d32\u6751\u59d4\u4f1a","short_name":"\u4e0a\u6d32","merger_name":"\u5e7f\u4e1c,\u73e0\u6d77,\u6597\u95e8,\u6597\u95e8,\u4e0a\u6d32","pinyin":"ShangZhou","lng":"113.187920","lat":"22.272140"},{"id":496207,"parent_id":496202,"level":4,"area_code":"440403103206","zip_code":"519110","city_code":"0756","name":"\u4e0b\u6d32\u6751\u59d4\u4f1a","short_name":"\u4e0b\u6d32","merger_name":"\u5e7f\u4e1c,\u73e0\u6d77,\u6597\u95e8,\u6597\u95e8,\u4e0b\u6d32","pinyin":"XiaZhou","lng":"113.186880","lat":"22.255680"},{"id":496208,"parent_id":496202,"level":4,"area_code":"440403103207","zip_code":"519110","city_code":"0756","name":"\u65b0\u4e61\u6751\u59d4\u4f1a","short_name":"\u65b0\u4e61","merger_name":"\u5e7f\u4e1c,\u73e0\u6d77,\u6597\u95e8,\u6597\u95e8,\u65b0\u4e61","pinyin":"XinXiang","lng":"113.198110","lat":"22.257950"},{"id":496209,"parent_id":496202,"level":4,"area_code":"440403103208","zip_code":"519110","city_code":"0756","name":"\u6597\u95e8\u6751\u59d4\u4f1a","short_name":"\u6597\u95e8","merger_name":"\u5e7f\u4e1c,\u73e0\u6d77,\u6597\u95e8,\u6597\u95e8,\u6597\u95e8","pinyin":"DouMen","lng":"113.205270","lat":"22.231610"},{"id":496210,"parent_id":496202,"level":4,"area_code":"440403103209","zip_code":"519110","city_code":"0756","name":"\u5357\u95e8\u6751\u59d4\u4f1a","short_name":"\u5357\u95e8","merger_name":"\u5e7f\u4e1c,\u73e0\u6d77,\u6597\u95e8,\u6597\u95e8,\u5357\u95e8","pinyin":"NanMen","lng":"113.195320","lat":"22.234030"},{"id":496211,"parent_id":496202,"level":4,"area_code":"440403103210","zip_code":"519110","city_code":"0756","name":"\u516b\u7532\u6751\u59d4\u4f1a","short_name":"\u516b\u7532","merger_name":"\u5e7f\u4e1c,\u73e0\u6d77,\u6597\u95e8,\u6597\u95e8,\u516b\u7532","pinyin":"BaJia","lng":"113.201420","lat":"22.213360"},{"id":496212,"parent_id":496202,"level":4,"area_code":"440403103211","zip_code":"519110","city_code":"0756","name":"\u5c0f\u6fe0\u51b2\u6751\u59d4\u4f1a","short_name":"\u5c0f\u6fe0\u51b2","merger_name":"\u5e7f\u4e1c,\u73e0\u6d77,\u6597\u95e8,\u6597\u95e8,\u5c0f\u6fe0\u51b2","pinyin":"XiaoHaoChong","lng":"113.174270","lat":"22.225660"},{"id":496213,"parent_id":496202,"level":4,"area_code":"440403103212","zip_code":"519110","city_code":"0756","name":"\u5927\u6fe0\u51b2\u6751\u59d4\u4f1a","short_name":"\u5927\u6fe0\u51b2","merger_name":"\u5e7f\u4e1c,\u73e0\u6d77,\u6597\u95e8,\u6597\u95e8,\u5927\u6fe0\u51b2","pinyin":"DaHaoChong","lng":"113.161550","lat":"22.219870"},{"id":496214,"parent_id":496202,"level":4,"area_code":"440403103400","zip_code":"519110","city_code":"0756","name":"\u9f99\u5c71\u5de5\u4e1a\u533a","short_name":"\u9f99\u5c71\u5de5\u4e1a\u533a","merger_name":"\u5e7f\u4e1c,\u73e0\u6d77,\u6597\u95e8,\u6597\u95e8,\u9f99\u5c71\u5de5\u4e1a\u533a","pinyin":"LongShanGongYeQu","lng":"113.187660","lat":"22.212738"},{"id":496215,"parent_id":496163,"level":3,"area_code":"440403105000","zip_code":"519170","city_code":"0756","name":"\u4e7e\u52a1\u9547","short_name":"\u4e7e\u52a1","merger_name":"\u5e7f\u4e1c,\u73e0\u6d77,\u6597\u95e8,\u4e7e\u52a1","pinyin":"GanWu","lng":"113.232170","lat":"22.159210"},{"id":496216,"parent_id":496215,"level":4,"area_code":"440403105001","zip_code":"519170","city_code":"0756","name":"\u4e7e\u5357\u793e\u533a\u5c45\u59d4\u4f1a","short_name":"\u4e7e\u5357","merger_name":"\u5e7f\u4e1c,\u73e0\u6d77,\u6597\u95e8,\u4e7e\u52a1,\u4e7e\u5357","pinyin":"GanNan","lng":"113.226731","lat":"22.160460"},{"id":496217,"parent_id":496215,"level":4,"area_code":"440403105002","zip_code":"519175","city_code":"0756","name":"\u6c99\u9f99\u793e\u533a\u5c45\u59d4\u4f1a","short_name":"\u6c99\u9f99","merger_name":"\u5e7f\u4e1c,\u73e0\u6d77,\u6597\u95e8,\u4e7e\u52a1,\u6c99\u9f99","pinyin":"ShaLong","lng":"113.176590","lat":"22.167690"},{"id":496218,"parent_id":496215,"level":4,"area_code":"440403105200","zip_code":"519170","city_code":"0756","name":"\u4e7e\u4e1c\u6751\u59d4\u4f1a","short_name":"\u4e7e\u4e1c","merger_name":"\u5e7f\u4e1c,\u73e0\u6d77,\u6597\u95e8,\u4e7e\u52a1,\u4e7e\u4e1c","pinyin":"GanDong","lng":"113.228340","lat":"22.163020"},{"id":496219,"parent_id":496215,"level":4,"area_code":"440403105201","zip_code":"519170","city_code":"0756","name":"\u4e7e\u897f\u6751\u59d4\u4f1a","short_name":"\u4e7e\u897f","merger_name":"\u5e7f\u4e1c,\u73e0\u6d77,\u6597\u95e8,\u4e7e\u52a1,\u4e7e\u897f","pinyin":"GanXi","lng":"113.224406","lat":"22.160427"},{"id":496220,"parent_id":496215,"level":4,"area_code":"440403105202","zip_code":"519170","city_code":"0756","name":"\u4e7e\u5317\u6751\u59d4\u4f1a","short_name":"\u4e7e\u5317","merger_name":"\u5e7f\u4e1c,\u73e0\u6d77,\u6597\u95e8,\u4e7e\u52a1,\u4e7e\u5317","pinyin":"GanBei","lng":"113.226150","lat":"22.165080"},{"id":496221,"parent_id":496215,"level":4,"area_code":"440403105203","zip_code":"519170","city_code":"0756","name":"\u4e1c\u6fb3\u6751\u59d4\u4f1a","short_name":"\u4e1c\u6fb3","merger_name":"\u5e7f\u4e1c,\u73e0\u6d77,\u6597\u95e8,\u4e7e\u52a1,\u4e1c\u6fb3","pinyin":"DongAo","lng":"113.238320","lat":"22.158490"},{"id":496222,"parent_id":496215,"level":4,"area_code":"440403105204","zip_code":"519170","city_code":"0756","name":"\u72ee\u7fa4\u6751\u59d4\u4f1a","short_name":"\u72ee\u7fa4","merger_name":"\u5e7f\u4e1c,\u73e0\u6d77,\u6597\u95e8,\u4e7e\u52a1,\u72ee\u7fa4","pinyin":"ShiQun","lng":"113.239820","lat":"22.148700"},{"id":496223,"parent_id":496215,"level":4,"area_code":"440403105205","zip_code":"519170","city_code":"0756","name":"\u6e7e\u53e3\u6751\u59d4\u4f1a","short_name":"\u6e7e\u53e3","merger_name":"\u5e7f\u4e1c,\u73e0\u6d77,\u6597\u95e8,\u4e7e\u52a1,\u6e7e\u53e3","pinyin":"WanKou","lng":"113.231390","lat":"22.142710"},{"id":496224,"parent_id":496215,"level":4,"area_code":"440403105206","zip_code":"519170","city_code":"0756","name":"\u77f3\u72d7\u6751\u59d4\u4f1a","short_name":"\u77f3\u72d7","merger_name":"\u5e7f\u4e1c,\u73e0\u6d77,\u6597\u95e8,\u4e7e\u52a1,\u77f3\u72d7","pinyin":"ShiGou","lng":"113.247450","lat":"22.145530"},{"id":496225,"parent_id":496215,"level":4,"area_code":"440403105207","zip_code":"519170","city_code":"0756","name":"\u5927\u6d77\u73af\u6751\u59d4\u4f1a","short_name":"\u5927\u6d77\u73af","merger_name":"\u5e7f\u4e1c,\u73e0\u6d77,\u6597\u95e8,\u4e7e\u52a1,\u5927\u6d77\u73af","pinyin":"DaHaiHuan","lng":"113.240900","lat":"22.091610"},{"id":496226,"parent_id":496215,"level":4,"area_code":"440403105208","zip_code":"519175","city_code":"0756","name":"\u864e\u5c71\u6751\u59d4\u4f1a","short_name":"\u864e\u5c71","merger_name":"\u5e7f\u4e1c,\u73e0\u6d77,\u6597\u95e8,\u4e7e\u52a1,\u864e\u5c71","pinyin":"HuShan","lng":"113.164670","lat":"22.135870"},{"id":496227,"parent_id":496215,"level":4,"area_code":"440403105209","zip_code":"519175","city_code":"0756","name":"\u8354\u5c71\u6751\u59d4\u4f1a","short_name":"\u8354\u5c71","merger_name":"\u5e7f\u4e1c,\u73e0\u6d77,\u6597\u95e8,\u4e7e\u52a1,\u8354\u5c71","pinyin":"LiShan","lng":"113.185087","lat":"22.149370"},{"id":496228,"parent_id":496215,"level":4,"area_code":"440403105210","zip_code":"519175","city_code":"0756","name":"\u9a6c\u5c71\u6751\u59d4\u4f1a","short_name":"\u9a6c\u5c71","merger_name":"\u5e7f\u4e1c,\u73e0\u6d77,\u6597\u95e8,\u4e7e\u52a1,\u9a6c\u5c71","pinyin":"MaShan","lng":"113.144730","lat":"22.172610"},{"id":496229,"parent_id":496215,"level":4,"area_code":"440403105211","zip_code":"519110","city_code":"0756","name":"\u7f51\u5c71\u6751\u59d4\u4f1a","short_name":"\u7f51\u5c71","merger_name":"\u5e7f\u4e1c,\u73e0\u6d77,\u6597\u95e8,\u4e7e\u52a1,\u7f51\u5c71","pinyin":"WangShan","lng":"113.158578","lat":"22.194092"},{"id":496230,"parent_id":496215,"level":4,"area_code":"440403105212","zip_code":"519175","city_code":"0756","name":"\u590f\u6751\u6751\u59d4\u4f1a","short_name":"\u590f\u6751","merger_name":"\u5e7f\u4e1c,\u73e0\u6d77,\u6597\u95e8,\u4e7e\u52a1,\u590f\u6751","pinyin":"XiaCun","lng":"113.153150","lat":"22.188300"},{"id":496231,"parent_id":496215,"level":4,"area_code":"440403105213","zip_code":"519175","city_code":"0756","name":"\u5357\u5c71\u6751\u59d4\u4f1a","short_name":"\u5357\u5c71","merger_name":"\u5e7f\u4e1c,\u73e0\u6d77,\u6597\u95e8,\u4e7e\u52a1,\u5357\u5c71","pinyin":"NanShan","lng":"113.229462","lat":"22.152359"},{"id":496232,"parent_id":496215,"level":4,"area_code":"440403105214","zip_code":"519170","city_code":"0756","name":"\u65b0\u6751\u6751\u59d4\u4f1a","short_name":"\u65b0\u6751","merger_name":"\u5e7f\u4e1c,\u73e0\u6d77,\u6597\u95e8,\u4e7e\u52a1,\u65b0\u6751","pinyin":"XinCun","lng":"113.380870","lat":"22.016000"},{"id":496233,"parent_id":496215,"level":4,"area_code":"440403105215","zip_code":"519175","city_code":"0756","name":"\u4e09\u91cc\u6751\u59d4\u4f1a","short_name":"\u4e09\u91cc","merger_name":"\u5e7f\u4e1c,\u73e0\u6d77,\u6597\u95e8,\u4e7e\u52a1,\u4e09\u91cc","pinyin":"SanLi","lng":"113.182240","lat":"22.173520"},{"id":496234,"parent_id":496215,"level":4,"area_code":"440403105400","zip_code":"519175","city_code":"0756","name":"\u5bcc\u5c71\u5de5\u4e1a\u56ed","short_name":"\u5bcc\u5c71\u5de5\u4e1a\u56ed","merger_name":"\u5e7f\u4e1c,\u73e0\u6d77,\u6597\u95e8,\u4e7e\u52a1,\u5bcc\u5c71\u5de5\u4e1a\u56ed","pinyin":"FuShanGongYeYuan","lng":"113.144060","lat":"22.140780"},{"id":496235,"parent_id":496163,"level":3,"area_code":"440403106000","zip_code":"519125","city_code":"0756","name":"\u767d\u8549\u9547","short_name":"\u767d\u8549","merger_name":"\u5e7f\u4e1c,\u73e0\u6d77,\u6597\u95e8,\u767d\u8549","pinyin":"BaiJiao","lng":"113.337380","lat":"22.255960"},{"id":496236,"parent_id":496235,"level":4,"area_code":"440403106001","zip_code":"519125","city_code":"0756","name":"\u767d\u8549\u793e\u533a\u5c45\u59d4\u4f1a","short_name":"\u767d\u8549","merger_name":"\u5e7f\u4e1c,\u73e0\u6d77,\u6597\u95e8,\u767d\u8549,\u767d\u8549","pinyin":"BaiJiao","lng":"113.308500","lat":"22.210600"},{"id":496237,"parent_id":496235,"level":4,"area_code":"440403106002","zip_code":"519120","city_code":"0756","name":"\u516d\u4e61\u793e\u533a\u5c45\u59d4\u4f1a","short_name":"\u516d\u4e61","merger_name":"\u5e7f\u4e1c,\u73e0\u6d77,\u6597\u95e8,\u767d\u8549,\u516d\u4e61","pinyin":"LiuXiang","lng":"113.340640","lat":"22.249780"},{"id":496238,"parent_id":496235,"level":4,"area_code":"440403106003","zip_code":"519125","city_code":"0756","name":"\u57ce\u4e1c\u793e\u533a\u5c45\u59d4\u4f1a","short_name":"\u57ce\u4e1c","merger_name":"\u5e7f\u4e1c,\u73e0\u6d77,\u6597\u95e8,\u767d\u8549,\u57ce\u4e1c","pinyin":"ChengDong","lng":"113.307320","lat":"22.214500"},{"id":496239,"parent_id":496235,"level":4,"area_code":"440403106004","zip_code":"519125","city_code":"0756","name":"\u8679\u6865\u793e\u533a\u5c45\u59d4\u4f1a","short_name":"\u8679\u6865","merger_name":"\u5e7f\u4e1c,\u73e0\u6d77,\u6597\u95e8,\u767d\u8549,\u8679\u6865","pinyin":"HongQiao","lng":"113.329790","lat":"22.198230"},{"id":496240,"parent_id":496235,"level":4,"area_code":"440403106200","zip_code":"519125","city_code":"0756","name":"\u6995\u76ca\u6751\u59d4\u4f1a","short_name":"\u6995\u76ca","merger_name":"\u5e7f\u4e1c,\u73e0\u6d77,\u6597\u95e8,\u767d\u8549,\u6995\u76ca","pinyin":"RongYi","lng":"113.325310","lat":"22.218910"},{"id":496241,"parent_id":496235,"level":4,"area_code":"440403106201","zip_code":"519125","city_code":"0756","name":"\u9ec4\u5bb6\u6751\u59d4\u4f1a","short_name":"\u9ec4\u5bb6","merger_name":"\u5e7f\u4e1c,\u73e0\u6d77,\u6597\u95e8,\u767d\u8549,\u9ec4\u5bb6","pinyin":"HuangJia","lng":"113.318090","lat":"22.219290"},{"id":496242,"parent_id":496235,"level":4,"area_code":"440403106202","zip_code":"519185","city_code":"0756","name":"\u65b0\u6c99\u6751\u59d4\u4f1a","short_name":"\u65b0\u6c99","merger_name":"\u5e7f\u4e1c,\u73e0\u6d77,\u6597\u95e8,\u767d\u8549,\u65b0\u6c99","pinyin":"XinSha","lng":"113.340640","lat":"22.249780"},{"id":496243,"parent_id":496235,"level":4,"area_code":"440403106203","zip_code":"519185","city_code":"0756","name":"\u65b0\u4e8c\u6751\u59d4\u4f1a","short_name":"\u65b0\u4e8c","merger_name":"\u5e7f\u4e1c,\u73e0\u6d77,\u6597\u95e8,\u767d\u8549,\u65b0\u4e8c","pinyin":"XinEr","lng":"113.328350","lat":"22.255650"},{"id":496244,"parent_id":496235,"level":4,"area_code":"440403106204","zip_code":"519185","city_code":"0756","name":"\u65b0\u73af\u6751\u59d4\u4f1a","short_name":"\u65b0\u73af","merger_name":"\u5e7f\u4e1c,\u73e0\u6d77,\u6597\u95e8,\u767d\u8549,\u65b0\u73af","pinyin":"XinHuan","lng":"113.322670","lat":"22.269800"},{"id":496245,"parent_id":496235,"level":4,"area_code":"440403106205","zip_code":"519185","city_code":"0756","name":"\u5357\u73af\u6751\u59d4\u4f1a","short_name":"\u5357\u73af","merger_name":"\u5e7f\u4e1c,\u73e0\u6d77,\u6597\u95e8,\u767d\u8549,\u5357\u73af","pinyin":"NanHuan","lng":"113.325240","lat":"22.263070"},{"id":496246,"parent_id":496235,"level":4,"area_code":"440403106206","zip_code":"519125","city_code":"0756","name":"\u6cd7\u559c\u6751\u59d4\u4f1a","short_name":"\u6cd7\u559c","merger_name":"\u5e7f\u4e1c,\u73e0\u6d77,\u6597\u95e8,\u767d\u8549,\u6cd7\u559c","pinyin":"SiXi","lng":"113.311040","lat":"22.273730"},{"id":496247,"parent_id":496235,"level":4,"area_code":"440403106207","zip_code":"519125","city_code":"0756","name":"\u4e1c\u56f4\u6751\u59d4\u4f1a","short_name":"\u4e1c\u56f4","merger_name":"\u5e7f\u4e1c,\u73e0\u6d77,\u6597\u95e8,\u767d\u8549,\u4e1c\u56f4","pinyin":"DongWei","lng":"113.312910","lat":"22.237320"},{"id":496248,"parent_id":496235,"level":4,"area_code":"440403106208","zip_code":"519125","city_code":"0756","name":"\u767d\u77f3\u6751\u59d4\u4f1a","short_name":"\u767d\u77f3","merger_name":"\u5e7f\u4e1c,\u73e0\u6d77,\u6597\u95e8,\u767d\u8549,\u767d\u77f3","pinyin":"BaiShi","lng":"113.289370","lat":"22.241570"},{"id":496249,"parent_id":496235,"level":4,"area_code":"440403106209","zip_code":"519125","city_code":"0756","name":"\u5927\u6258\u6751\u59d4\u4f1a","short_name":"\u5927\u6258","merger_name":"\u5e7f\u4e1c,\u73e0\u6d77,\u6597\u95e8,\u767d\u8549,\u5927\u6258","pinyin":"DaTuo","lng":"113.297140","lat":"22.256790"},{"id":496250,"parent_id":496235,"level":4,"area_code":"440403106210","zip_code":"519185","city_code":"0756","name":"\u706f\u4e00\u6751\u59d4\u4f1a","short_name":"\u706f\u4e00","merger_name":"\u5e7f\u4e1c,\u73e0\u6d77,\u6597\u95e8,\u767d\u8549,\u706f\u4e00","pinyin":"DengYi","lng":"113.367800","lat":"22.218030"},{"id":496251,"parent_id":496235,"level":4,"area_code":"440403106211","zip_code":"519185","city_code":"0756","name":"\u706f\u7b3c\u6751\u59d4\u4f1a","short_name":"\u706f\u7b3c","merger_name":"\u5e7f\u4e1c,\u73e0\u6d77,\u6597\u95e8,\u767d\u8549,\u706f\u7b3c","pinyin":"DengLong","lng":"113.367800","lat":"22.218030"},{"id":496252,"parent_id":496235,"level":4,"area_code":"440403106212","zip_code":"519125","city_code":"0756","name":"\u706f\u4e09\u6751\u59d4\u4f1a","short_name":"\u706f\u4e09","merger_name":"\u5e7f\u4e1c,\u73e0\u6d77,\u6597\u95e8,\u767d\u8549,\u706f\u4e09","pinyin":"DengSan","lng":"113.378580","lat":"22.200910"},{"id":496253,"parent_id":496235,"level":4,"area_code":"440403106214","zip_code":"519125","city_code":"0756","name":"\u6845\u5939\u6751\u59d4\u4f1a","short_name":"\u6845\u5939","merger_name":"\u5e7f\u4e1c,\u73e0\u6d77,\u6597\u95e8,\u767d\u8549,\u6845\u5939","pinyin":"WeiJia","lng":"113.343161","lat":"22.219227"},{"id":496254,"parent_id":496235,"level":4,"area_code":"440403106215","zip_code":"519125","city_code":"0756","name":"\u662d\u4fe1\u6751\u59d4\u4f1a","short_name":"\u662d\u4fe1","merger_name":"\u5e7f\u4e1c,\u73e0\u6d77,\u6597\u95e8,\u767d\u8549,\u662d\u4fe1","pinyin":"ZhaoXin","lng":"113.353510","lat":"22.204510"},{"id":496255,"parent_id":496235,"level":4,"area_code":"440403106216","zip_code":"519125","city_code":"0756","name":"\u4e1c\u6e56\u6751\u59d4\u4f1a","short_name":"\u4e1c\u6e56","merger_name":"\u5e7f\u4e1c,\u73e0\u6d77,\u6597\u95e8,\u767d\u8549,\u4e1c\u6e56","pinyin":"DongHu","lng":"113.334140","lat":"22.190850"},{"id":496256,"parent_id":496235,"level":4,"area_code":"440403106217","zip_code":"519125","city_code":"0756","name":"\u6210\u88d5\u6751\u59d4\u4f1a","short_name":"\u6210\u88d5","merger_name":"\u5e7f\u4e1c,\u73e0\u6d77,\u6597\u95e8,\u767d\u8549,\u6210\u88d5","pinyin":"ChengYu","lng":"113.309450","lat":"22.202580"},{"id":496257,"parent_id":496235,"level":4,"area_code":"440403106218","zip_code":"519125","city_code":"0756","name":"\u8d56\u5bb6\u6751\u59d4\u4f1a","short_name":"\u8d56\u5bb6","merger_name":"\u5e7f\u4e1c,\u73e0\u6d77,\u6597\u95e8,\u767d\u8549,\u8d56\u5bb6","pinyin":"LaiJia","lng":"113.316900","lat":"22.212750"},{"id":496258,"parent_id":496235,"level":4,"area_code":"440403106219","zip_code":"519125","city_code":"0756","name":"\u767d\u8549\u6751\u59d4\u4f1a","short_name":"\u767d\u8549","merger_name":"\u5e7f\u4e1c,\u73e0\u6d77,\u6597\u95e8,\u767d\u8549,\u767d\u8549","pinyin":"BaiJiao","lng":"113.316900","lat":"22.212750"},{"id":496259,"parent_id":496235,"level":4,"area_code":"440403106220","zip_code":"519125","city_code":"0756","name":"\u4e1c\u5cb8\u6751\u59d4\u4f1a","short_name":"\u4e1c\u5cb8","merger_name":"\u5e7f\u4e1c,\u73e0\u6d77,\u6597\u95e8,\u767d\u8549,\u4e1c\u5cb8","pinyin":"DongAn","lng":"113.309170","lat":"22.216660"},{"id":496260,"parent_id":496235,"level":4,"area_code":"440403106221","zip_code":"519120","city_code":"0756","name":"\u6c99\u77f3\u6751\u59d4\u4f1a","short_name":"\u6c99\u77f3","merger_name":"\u5e7f\u4e1c,\u73e0\u6d77,\u6597\u95e8,\u767d\u8549,\u6c99\u77f3","pinyin":"ShaShi","lng":"113.274360","lat":"22.280060"},{"id":496261,"parent_id":496235,"level":4,"area_code":"440403106223","zip_code":"519120","city_code":"0756","name":"\u5c0f\u6258\u6751\u59d4\u4f1a","short_name":"\u5c0f\u6258","merger_name":"\u5e7f\u4e1c,\u73e0\u6d77,\u6597\u95e8,\u767d\u8549,\u5c0f\u6258","pinyin":"XiaoTuo","lng":"113.297280","lat":"22.289640"},{"id":496262,"parent_id":496235,"level":4,"area_code":"440403106224","zip_code":"519120","city_code":"0756","name":"\u51b2\u53e3\u6751\u59d4\u4f1a","short_name":"\u51b2\u53e3","merger_name":"\u5e7f\u4e1c,\u73e0\u6d77,\u6597\u95e8,\u767d\u8549,\u51b2\u53e3","pinyin":"ChongKou","lng":"113.337380","lat":"22.255960"},{"id":496263,"parent_id":496235,"level":4,"area_code":"440403106225","zip_code":"519120","city_code":"0756","name":"\u516b\u9877\u6751\u59d4\u4f1a","short_name":"\u516b\u9877","merger_name":"\u5e7f\u4e1c,\u73e0\u6d77,\u6597\u95e8,\u767d\u8549,\u516b\u9877","pinyin":"BaQing","lng":"113.316900","lat":"22.212750"},{"id":496264,"parent_id":496235,"level":4,"area_code":"440403106227","zip_code":"519120","city_code":"0756","name":"\u529e\u51b2\u6751\u59d4\u4f1a","short_name":"\u529e\u51b2","merger_name":"\u5e7f\u4e1c,\u73e0\u6d77,\u6597\u95e8,\u767d\u8549,\u529e\u51b2","pinyin":"BanChong","lng":"113.296030","lat":"22.306000"},{"id":496265,"parent_id":496235,"level":4,"area_code":"440403106228","zip_code":"519120","city_code":"0756","name":"\u6708\u5751\u6751\u59d4\u4f1a","short_name":"\u6708\u5751","merger_name":"\u5e7f\u4e1c,\u73e0\u6d77,\u6597\u95e8,\u767d\u8549,\u6708\u5751","pinyin":"YueKeng","lng":"113.281690","lat":"22.304100"},{"id":496266,"parent_id":496235,"level":4,"area_code":"440403106230","zip_code":"519120","city_code":"0756","name":"\u76d6\u5c71\u6751\u59d4\u4f1a","short_name":"\u76d6\u5c71","merger_name":"\u5e7f\u4e1c,\u73e0\u6d77,\u6597\u95e8,\u767d\u8549,\u76d6\u5c71","pinyin":"GaiShan","lng":"113.281690","lat":"22.304100"},{"id":496267,"parent_id":496235,"level":4,"area_code":"440403106231","zip_code":"519125","city_code":"0756","name":"\u9cd8\u9c7c\u6c99\u6751\u59d4\u4f1a","short_name":"\u9cd8\u9c7c\u6c99","merger_name":"\u5e7f\u4e1c,\u73e0\u6d77,\u6597\u95e8,\u767d\u8549,\u9cd8\u9c7c\u6c99","pinyin":"MinYuSha","lng":"113.273040","lat":"22.280980"},{"id":496268,"parent_id":496235,"level":4,"area_code":"440403106232","zip_code":"519125","city_code":"0756","name":"\u867e\u5c71\u6751\u59d4\u4f1a","short_name":"\u867e\u5c71","merger_name":"\u5e7f\u4e1c,\u73e0\u6d77,\u6597\u95e8,\u767d\u8549,\u867e\u5c71","pinyin":"XiaShan","lng":"113.261580","lat":"22.311080"},{"id":496269,"parent_id":496235,"level":4,"area_code":"440403106233","zip_code":"519120","city_code":"0756","name":"\u5357\u6fb3\u6751\u59d4\u4f1a","short_name":"\u5357\u6fb3","merger_name":"\u5e7f\u4e1c,\u73e0\u6d77,\u6597\u95e8,\u767d\u8549,\u5357\u6fb3","pinyin":"NanAo","lng":"113.277660","lat":"22.324550"},{"id":496270,"parent_id":496235,"level":4,"area_code":"440403106235","zip_code":"519120","city_code":"0756","name":"\u5b56\u6e7e\u6751\u59d4\u4f1a","short_name":"\u5b56\u6e7e","merger_name":"\u5e7f\u4e1c,\u73e0\u6d77,\u6597\u95e8,\u767d\u8549,\u5b56\u6e7e","pinyin":"MaWan","lng":"113.284130","lat":"22.340800"},{"id":496271,"parent_id":496235,"level":4,"area_code":"440403106238","zip_code":"519125","city_code":"0756","name":"\u4e30\u6d32\u6751\u59d4\u4f1a","short_name":"\u4e30\u6d32","merger_name":"\u5e7f\u4e1c,\u73e0\u6d77,\u6597\u95e8,\u767d\u8549,\u4e30\u6d32","pinyin":"FengZhou","lng":"113.316900","lat":"22.212750"},{"id":496272,"parent_id":496235,"level":4,"area_code":"440403106239","zip_code":"519125","city_code":"0756","name":"\u65b0\u9a6c\u58a9\u6751\u59d4\u4f1a","short_name":"\u65b0\u9a6c\u58a9","merger_name":"\u5e7f\u4e1c,\u73e0\u6d77,\u6597\u95e8,\u767d\u8549,\u65b0\u9a6c\u58a9","pinyin":"XinMaDun","lng":"113.316900","lat":"22.212750"},{"id":496273,"parent_id":496235,"level":4,"area_code":"440403106400","zip_code":"519125","city_code":"0756","name":"\u767d\u8549\u5de5\u4e1a\u5f00\u53d1\u533a\u793e\u533a","short_name":"\u767d\u8549\u5de5\u4e1a\u5f00\u53d1\u533a","merger_name":"\u5e7f\u4e1c,\u73e0\u6d77,\u6597\u95e8,\u767d\u8549,\u767d\u8549\u5de5\u4e1a\u5f00\u53d1\u533a","pinyin":"BaiJiaoGongYeKaiFaQu","lng":"113.292503","lat":"22.216587"},{"id":496274,"parent_id":496163,"level":3,"area_code":"440403107000","zip_code":"519180","city_code":"0756","name":"\u4e95\u5cb8\u9547","short_name":"\u4e95\u5cb8","merger_name":"\u5e7f\u4e1c,\u73e0\u6d77,\u6597\u95e8,\u4e95\u5cb8","pinyin":"JingAn","lng":"113.298650","lat":"22.198990"},{"id":496275,"parent_id":496274,"level":4,"area_code":"440403107001","zip_code":"519100","city_code":"0756","name":"\u7ea2\u65d7\u793e\u533a\u5c45\u59d4\u4f1a","short_name":"\u7ea2\u65d7","merger_name":"\u5e7f\u4e1c,\u73e0\u6d77,\u6597\u95e8,\u4e95\u5cb8,\u7ea2\u65d7","pinyin":"HongQi","lng":"113.293283","lat":"22.209121"},{"id":496276,"parent_id":496274,"level":4,"area_code":"440403107002","zip_code":"519100","city_code":"0756","name":"\u671d\u9633\u793e\u533a\u5c45\u59d4\u4f1a","short_name":"\u671d\u9633","merger_name":"\u5e7f\u4e1c,\u73e0\u6d77,\u6597\u95e8,\u4e95\u5cb8,\u671d\u9633","pinyin":"ZhaoYang","lng":"113.297272","lat":"22.207890"},{"id":496277,"parent_id":496274,"level":4,"area_code":"440403107003","zip_code":"519180","city_code":"0756","name":"\u7ea2\u536b\u793e\u533a\u5c45\u59d4\u4f1a","short_name":"\u7ea2\u536b","merger_name":"\u5e7f\u4e1c,\u73e0\u6d77,\u6597\u95e8,\u4e95\u5cb8,\u7ea2\u536b","pinyin":"HongWei","lng":"113.295820","lat":"22.213260"},{"id":496278,"parent_id":496274,"level":4,"area_code":"440403107005","zip_code":"519100","city_code":"0756","name":"\u7edf\u5efa\u793e\u533a\u5c45\u59d4\u4f1a","short_name":"\u7edf\u5efa","merger_name":"\u5e7f\u4e1c,\u73e0\u6d77,\u6597\u95e8,\u4e95\u5cb8,\u7edf\u5efa","pinyin":"TongJian","lng":"113.291490","lat":"22.210570"},{"id":496279,"parent_id":496274,"level":4,"area_code":"440403107007","zip_code":"519100","city_code":"0756","name":"\u957f\u4ea8\u793e\u533a\u5c45\u59d4\u4f1a","short_name":"\u957f\u4ea8","merger_name":"\u5e7f\u4e1c,\u73e0\u6d77,\u6597\u95e8,\u4e95\u5cb8,\u957f\u4ea8","pinyin":"ZhangHeng","lng":"113.288100","lat":"22.221550"},{"id":496280,"parent_id":496274,"level":4,"area_code":"440403107008","zip_code":"519100","city_code":"0756","name":"\u98de\u9f99\u793e\u533a\u5c45\u59d4\u4f1a","short_name":"\u98de\u9f99","merger_name":"\u5e7f\u4e1c,\u73e0\u6d77,\u6597\u95e8,\u4e95\u5cb8,\u98de\u9f99","pinyin":"FeiLong","lng":"113.293250","lat":"22.216440"},{"id":496281,"parent_id":496274,"level":4,"area_code":"440403107009","zip_code":"519100","city_code":"0756","name":"\u7f8e\u6e7e\u793e\u533a\u5c45\u59d4\u4f1a","short_name":"\u7f8e\u6e7e","merger_name":"\u5e7f\u4e1c,\u73e0\u6d77,\u6597\u95e8,\u4e95\u5cb8,\u7f8e\u6e7e","pinyin":"MeiWan","lng":"113.298740","lat":"22.202060"},{"id":496282,"parent_id":496274,"level":4,"area_code":"440403107010","zip_code":"519180","city_code":"0756","name":"\u5357\u6e7e\u793e\u533a\u5c45\u59d4\u4f1a","short_name":"\u5357\u6e7e","merger_name":"\u5e7f\u4e1c,\u73e0\u6d77,\u6597\u95e8,\u4e95\u5cb8,\u5357\u6e7e","pinyin":"NanWan","lng":"113.298950","lat":"22.198000"},{"id":496283,"parent_id":496274,"level":4,"area_code":"440403107011","zip_code":"519180","city_code":"0756","name":"\u5357\u5cf0\u793e\u533a\u5c45\u59d4\u4f1a","short_name":"\u5357\u5cf0","merger_name":"\u5e7f\u4e1c,\u73e0\u6d77,\u6597\u95e8,\u4e95\u5cb8,\u5357\u5cf0","pinyin":"NanFeng","lng":"113.226731","lat":"22.160460"},{"id":496284,"parent_id":496274,"level":4,"area_code":"440403107017","zip_code":"519180","city_code":"0756","name":"\u65b0\u4f1f\u793e\u533a\u5c45\u59d4\u4f1a","short_name":"\u65b0\u4f1f","merger_name":"\u5e7f\u4e1c,\u73e0\u6d77,\u6597\u95e8,\u4e95\u5cb8,\u65b0\u4f1f","pinyin":"XinWei","lng":"113.281530","lat":"22.170910"},{"id":496285,"parent_id":496274,"level":4,"area_code":"440403107200","zip_code":"519180","city_code":"0756","name":"\u5357\u6f6e\u6751\u59d4\u4f1a","short_name":"\u5357\u6f6e","merger_name":"\u5e7f\u4e1c,\u73e0\u6d77,\u6597\u95e8,\u4e95\u5cb8,\u5357\u6f6e","pinyin":"NanChao","lng":"113.297670","lat":"22.198850"},{"id":496286,"parent_id":496274,"level":4,"area_code":"440403107201","zip_code":"519180","city_code":"0756","name":"\u576d\u6e7e\u6751\u59d4\u4f1a","short_name":"\u576d\u6e7e","merger_name":"\u5e7f\u4e1c,\u73e0\u6d77,\u6597\u95e8,\u4e95\u5cb8,\u576d\u6e7e","pinyin":"NiWan","lng":"113.297330","lat":"22.194090"},{"id":496287,"parent_id":496274,"level":4,"area_code":"440403107202","zip_code":"519180","city_code":"0756","name":"\u5c16\u5cf0\u6751\u59d4\u4f1a","short_name":"\u5c16\u5cf0","merger_name":"\u5e7f\u4e1c,\u73e0\u6d77,\u6597\u95e8,\u4e95\u5cb8,\u5c16\u5cf0","pinyin":"JianFeng","lng":"113.304740","lat":"22.193050"},{"id":496288,"parent_id":496274,"level":4,"area_code":"440403107203","zip_code":"519180","city_code":"0756","name":"\u4e1c\u98ce\u6751\u59d4\u4f1a","short_name":"\u4e1c\u98ce","merger_name":"\u5e7f\u4e1c,\u73e0\u6d77,\u6597\u95e8,\u4e95\u5cb8,\u4e1c\u98ce","pinyin":"DongFeng","lng":"113.299410","lat":"22.174730"},{"id":496289,"parent_id":496274,"level":4,"area_code":"440403107204","zip_code":"519180","city_code":"0756","name":"\u4e94\u798f\u6751\u59d4\u4f1a","short_name":"\u4e94\u798f","merger_name":"\u5e7f\u4e1c,\u73e0\u6d77,\u6597\u95e8,\u4e95\u5cb8,\u4e94\u798f","pinyin":"WuFu","lng":"113.293560","lat":"22.173600"},{"id":496290,"parent_id":496274,"level":4,"area_code":"440403107205","zip_code":"519180","city_code":"0756","name":"\u65b0\u5802\u6751\u59d4\u4f1a","short_name":"\u65b0\u5802","merger_name":"\u5e7f\u4e1c,\u73e0\u6d77,\u6597\u95e8,\u4e95\u5cb8,\u65b0\u5802","pinyin":"XinTang","lng":"113.281890","lat":"22.174130"},{"id":496291,"parent_id":496274,"level":4,"area_code":"440403107206","zip_code":"519180","city_code":"0756","name":"\u65b0\u9752\u6751\u59d4\u4f1a","short_name":"\u65b0\u9752","merger_name":"\u5e7f\u4e1c,\u73e0\u6d77,\u6597\u95e8,\u4e95\u5cb8,\u65b0\u9752","pinyin":"XinQing","lng":"113.287010","lat":"22.163100"},{"id":496292,"parent_id":496274,"level":4,"area_code":"440403107207","zip_code":"519180","city_code":"0756","name":"\u897f\u57d4\u6751\u59d4\u4f1a","short_name":"\u897f\u57d4","merger_name":"\u5e7f\u4e1c,\u73e0\u6d77,\u6597\u95e8,\u4e95\u5cb8,\u897f\u57d4","pinyin":"XiBu","lng":"113.269300","lat":"22.161630"},{"id":496293,"parent_id":496274,"level":4,"area_code":"440403107208","zip_code":"519180","city_code":"0756","name":"\u8349\u6717\u6751\u59d4\u4f1a","short_name":"\u8349\u6717","merger_name":"\u5e7f\u4e1c,\u73e0\u6d77,\u6597\u95e8,\u4e95\u5cb8,\u8349\u6717","pinyin":"CaoLang","lng":"113.262010","lat":"22.152910"},{"id":496294,"parent_id":496274,"level":4,"area_code":"440403107209","zip_code":"519180","city_code":"0756","name":"\u9e21\u5480\u6751\u59d4\u4f1a","short_name":"\u9e21\u5480","merger_name":"\u5e7f\u4e1c,\u73e0\u6d77,\u6597\u95e8,\u4e95\u5cb8,\u9e21\u5480","pinyin":"JiJu","lng":"113.286870","lat":"22.148440"},{"id":496295,"parent_id":496274,"level":4,"area_code":"440403107211","zip_code":"519180","city_code":"0756","name":"\u9ec4\u91d1\u6751\u59d4\u4f1a","short_name":"\u9ec4\u91d1","merger_name":"\u5e7f\u4e1c,\u73e0\u6d77,\u6597\u95e8,\u4e95\u5cb8,\u9ec4\u91d1","pinyin":"HuangJin","lng":"113.295828","lat":"22.214498"},{"id":496296,"parent_id":496274,"level":4,"area_code":"440403107213","zip_code":"519100","city_code":"0756","name":"\u5317\u6fb3\u6751\u59d4\u4f1a","short_name":"\u5317\u6fb3","merger_name":"\u5e7f\u4e1c,\u73e0\u6d77,\u6597\u95e8,\u4e95\u5cb8,\u5317\u6fb3","pinyin":"BeiAo","lng":"113.289380","lat":"22.220680"},{"id":496297,"parent_id":496274,"level":4,"area_code":"440403107214","zip_code":"519100","city_code":"0756","name":"\u9f99\u897f\u6751\u59d4\u4f1a","short_name":"\u9f99\u897f","merger_name":"\u5e7f\u4e1c,\u73e0\u6d77,\u6597\u95e8,\u4e95\u5cb8,\u9f99\u897f","pinyin":"LongXi","lng":"113.277670","lat":"22.214390"},{"id":496298,"parent_id":496274,"level":4,"area_code":"440403107215","zip_code":"519100","city_code":"0756","name":"\u897f\u6e7e\u6751\u59d4\u4f1a","short_name":"\u897f\u6e7e","merger_name":"\u5e7f\u4e1c,\u73e0\u6d77,\u6597\u95e8,\u4e95\u5cb8,\u897f\u6e7e","pinyin":"XiWan","lng":"113.269000","lat":"22.226970"},{"id":496299,"parent_id":496274,"level":4,"area_code":"440403107216","zip_code":"519100","city_code":"0756","name":"\u9ec4\u6768\u6751\u59d4\u4f1a","short_name":"\u9ec4\u6768","merger_name":"\u5e7f\u4e1c,\u73e0\u6d77,\u6597\u95e8,\u4e95\u5cb8,\u9ec4\u6768","pinyin":"HuangYang","lng":"113.266580","lat":"22.257040"},{"id":496300,"parent_id":496274,"level":4,"area_code":"440403107400","zip_code":"519180","city_code":"0756","name":"\u65b0\u9752\u79d1\u6280\u5de5\u4e1a\u56ed","short_name":"\u65b0\u9752\u79d1\u6280\u5de5\u4e1a\u56ed","merger_name":"\u5e7f\u4e1c,\u73e0\u6d77,\u6597\u95e8,\u4e95\u5cb8,\u65b0\u9752\u79d1\u6280\u5de5\u4e1a\u56ed","pinyin":"XinQingKeJiGongYeYuan","lng":"113.280782","lat":"22.166342"},{"id":496301,"parent_id":495984,"level":2,"area_code":"440404000000","zip_code":"519090","city_code":"0756","name":"\u91d1\u6e7e\u533a","short_name":"\u91d1\u6e7e","merger_name":"\u5e7f\u4e1c,\u73e0\u6d77,\u91d1\u6e7e","pinyin":"JinWan","lng":"113.363393","lat":"22.146874"},{"id":496302,"parent_id":496301,"level":3,"area_code":"440404100000","zip_code":"519040","city_code":"0756","name":"\u4e09\u7076\u9547","short_name":"\u4e09\u7076","merger_name":"\u5e7f\u4e1c,\u73e0\u6d77,\u91d1\u6e7e,\u4e09\u7076","pinyin":"SanZao","lng":"113.377220","lat":"22.009410"},