[{"id":578001,"parent_id":577994,"level":4,"area_code":"511302004008","zip_code":"637000","city_code":"0817","name":"\u4e0b\u4e2d\u575d\u793e\u533a\u5c45\u59d4\u4f1a","short_name":"\u4e0b\u4e2d\u575d","merger_name":"\u56db\u5ddd,\u5357\u5145,\u987a\u5e86,\u4e1c\u5357,\u4e0b\u4e2d\u575d","pinyin":"XiaZhongBa","lng":"106.097890","lat":"30.767290"},{"id":578002,"parent_id":577969,"level":3,"area_code":"511302005000","zip_code":"637508","city_code":"0817","name":"\u821e\u51e4\u8857\u9053","short_name":"\u821e\u51e4","merger_name":"\u56db\u5ddd,\u5357\u5145,\u987a\u5e86,\u821e\u51e4","pinyin":"WuFeng","lng":"106.108300","lat":"30.817190"},{"id":578003,"parent_id":578002,"level":4,"area_code":"511302005002","zip_code":"637508","city_code":"0817","name":"\u71d5\u513f\u7a9d\u793e\u533a\u5c45\u59d4\u4f1a","short_name":"\u71d5\u513f\u7a9d","merger_name":"\u56db\u5ddd,\u5357\u5145,\u987a\u5e86,\u821e\u51e4,\u71d5\u513f\u7a9d","pinyin":"YanErWo","lng":"106.098700","lat":"30.818040"},{"id":578004,"parent_id":578002,"level":4,"area_code":"511302005003","zip_code":"637508","city_code":"0817","name":"\u6e05\u6cc9\u5bfa\u793e\u533a\u5c45\u59d4\u4f1a","short_name":"\u6e05\u6cc9\u5bfa","merger_name":"\u56db\u5ddd,\u5357\u5145,\u987a\u5e86,\u821e\u51e4,\u6e05\u6cc9\u5bfa","pinyin":"QingQuanSi","lng":"106.117599","lat":"30.828383"},{"id":578005,"parent_id":578002,"level":4,"area_code":"511302005004","zip_code":"637508","city_code":"0817","name":"\u9547\u6c5f\u8def\u793e\u533a\u5c45\u59d4\u4f1a","short_name":"\u9547\u6c5f\u8def","merger_name":"\u56db\u5ddd,\u5357\u5145,\u987a\u5e86,\u821e\u51e4,\u9547\u6c5f\u8def","pinyin":"ZhenJiangLu","lng":"106.114549","lat":"30.828329"},{"id":578006,"parent_id":578002,"level":4,"area_code":"511302005005","zip_code":"637508","city_code":"0817","name":"\u5468\u5bb6\u575d\u793e\u533a\u5c45\u59d4\u4f1a","short_name":"\u5468\u5bb6\u575d","merger_name":"\u56db\u5ddd,\u5357\u5145,\u987a\u5e86,\u821e\u51e4,\u5468\u5bb6\u575d","pinyin":"ZhouJiaBa","lng":"106.092283","lat":"30.815469"},{"id":578007,"parent_id":578002,"level":4,"area_code":"511302005006","zip_code":"637508","city_code":"0817","name":"\u9a6c\u5e02\u94fa\u793e\u533a\u5c45\u59d4\u4f1a","short_name":"\u9a6c\u5e02\u94fa","merger_name":"\u56db\u5ddd,\u5357\u5145,\u987a\u5e86,\u821e\u51e4,\u9a6c\u5e02\u94fa","pinyin":"MaShiPu","lng":"106.098340","lat":"30.832810"},{"id":578008,"parent_id":578002,"level":4,"area_code":"511302005007","zip_code":"637508","city_code":"0817","name":"\u77f3\u6cb9\u8def\u793e\u533a\u5c45\u59d4\u4f1a","short_name":"\u77f3\u6cb9\u8def","merger_name":"\u56db\u5ddd,\u5357\u5145,\u987a\u5e86,\u821e\u51e4,\u77f3\u6cb9\u8def","pinyin":"ShiYouLu","lng":"106.114920","lat":"30.828290"},{"id":578009,"parent_id":578002,"level":4,"area_code":"511302005008","zip_code":"637000","city_code":"0817","name":"\u6cb9\u9662\u8def\u793e\u533a\u5c45\u59d4\u4f1a","short_name":"\u6cb9\u9662\u8def","merger_name":"\u56db\u5ddd,\u5357\u5145,\u987a\u5e86,\u821e\u51e4,\u6cb9\u9662\u8def","pinyin":"YouYuanLu","lng":"106.107460","lat":"30.812527"},{"id":578010,"parent_id":578002,"level":4,"area_code":"511302005009","zip_code":"637508","city_code":"0817","name":"\u5c06\u519b\u8def\u793e\u533a\u5c45\u59d4\u4f1a","short_name":"\u5c06\u519b\u8def","merger_name":"\u56db\u5ddd,\u5357\u5145,\u987a\u5e86,\u821e\u51e4,\u5c06\u519b\u8def","pinyin":"JiangJunLu","lng":"106.120150","lat":"30.817251"},{"id":578011,"parent_id":578002,"level":4,"area_code":"511302005010","zip_code":"637508","city_code":"0817","name":"\u4ec1\u548c\u793e\u533a\u5c45\u59d4\u4f1a","short_name":"\u4ec1\u548c","merger_name":"\u56db\u5ddd,\u5357\u5145,\u987a\u5e86,\u821e\u51e4,\u4ec1\u548c","pinyin":"RenHe","lng":"106.098889","lat":"30.818114"},{"id":578012,"parent_id":578002,"level":4,"area_code":"511302005011","zip_code":"637508","city_code":"0817","name":"\u73af\u90fd\u8def\u793e\u533a\u5c45\u59d4\u4f1a","short_name":"\u73af\u90fd\u8def","merger_name":"\u56db\u5ddd,\u5357\u5145,\u987a\u5e86,\u821e\u51e4,\u73af\u90fd\u8def","pinyin":"HuanDouLu","lng":"106.114220","lat":"30.836160"},{"id":578013,"parent_id":578002,"level":4,"area_code":"511302005012","zip_code":"637508","city_code":"0817","name":"\u4e16\u7eaa\u57ce\u793e\u533a\u5c45\u59d4\u4f1a","short_name":"\u4e16\u7eaa\u57ce","merger_name":"\u56db\u5ddd,\u5357\u5145,\u987a\u5e86,\u821e\u51e4,\u4e16\u7eaa\u57ce","pinyin":"ShiJiCheng","lng":"106.098700","lat":"30.818040"},{"id":578014,"parent_id":578002,"level":4,"area_code":"511302005013","zip_code":"637508","city_code":"0817","name":"\u9e5e\u77f3\u5b50\u793e\u533a\u5c45\u59d4\u4f1a","short_name":"\u9e5e\u77f3\u5b50","merger_name":"\u56db\u5ddd,\u5357\u5145,\u987a\u5e86,\u821e\u51e4,\u9e5e\u77f3\u5b50","pinyin":"YaoShiZi","lng":"106.098340","lat":"30.832810"},{"id":578015,"parent_id":578002,"level":4,"area_code":"511302005014","zip_code":"637099","city_code":"0817","name":"\u6e05\u6e90\u793e\u533a\u5c45\u59d4\u4f1a","short_name":"\u6e05\u6e90","merger_name":"\u56db\u5ddd,\u5357\u5145,\u987a\u5e86,\u821e\u51e4,\u6e05\u6e90","pinyin":"QingYuan","lng":"106.361796","lat":"31.758674"},{"id":578016,"parent_id":577969,"level":3,"area_code":"511302006000","zip_code":"637503","city_code":"0817","name":"\u65b0\u5efa\u8857\u9053","short_name":"\u65b0\u5efa","merger_name":"\u56db\u5ddd,\u5357\u5145,\u987a\u5e86,\u65b0\u5efa","pinyin":"XinJian","lng":"106.073280","lat":"30.794670"},{"id":578017,"parent_id":578016,"level":4,"area_code":"511302006003","zip_code":"637099","city_code":"0817","name":"\u67f3\u6797\u8def\u793e\u533a\u5c45\u59d4\u4f1a","short_name":"\u67f3\u6797\u8def","merger_name":"\u56db\u5ddd,\u5357\u5145,\u987a\u5e86,\u65b0\u5efa,\u67f3\u6797\u8def","pinyin":"LiuLinLu","lng":"106.074240","lat":"30.797584"},{"id":578018,"parent_id":578016,"level":4,"area_code":"511302006004","zip_code":"637099","city_code":"0817","name":"\u897f\u6cb3\u793e\u533a\u5c45\u59d4\u4f1a","short_name":"\u897f\u6cb3","merger_name":"\u56db\u5ddd,\u5357\u5145,\u987a\u5e86,\u65b0\u5efa,\u897f\u6cb3","pinyin":"XiHe","lng":"106.069940","lat":"30.797780"},{"id":578019,"parent_id":578016,"level":4,"area_code":"511302006005","zip_code":"637099","city_code":"0817","name":"\u9547\u6cf0\u8def\u793e\u533a\u5c45\u59d4\u4f1a","short_name":"\u9547\u6cf0\u8def","merger_name":"\u56db\u5ddd,\u5357\u5145,\u987a\u5e86,\u65b0\u5efa,\u9547\u6cf0\u8def","pinyin":"ZhenTaiLu","lng":"106.074240","lat":"30.797584"},{"id":578020,"parent_id":578016,"level":4,"area_code":"511302006006","zip_code":"637000","city_code":"0817","name":"\u7389\u5e26\u8def\u793e\u533a\u5c45\u59d4\u4f1a","short_name":"\u7389\u5e26\u8def","merger_name":"\u56db\u5ddd,\u5357\u5145,\u987a\u5e86,\u65b0\u5efa,\u7389\u5e26\u8def","pinyin":"YuDaiLu","lng":"106.067620","lat":"30.797320"},{"id":578021,"parent_id":578016,"level":4,"area_code":"511302006007","zip_code":"637099","city_code":"0817","name":"\u91d1\u6cc9\u793e\u533a\u5c45\u59d4\u4f1a","short_name":"\u91d1\u6cc9","merger_name":"\u56db\u5ddd,\u5357\u5145,\u987a\u5e86,\u65b0\u5efa,\u91d1\u6cc9","pinyin":"JinQuan","lng":"106.078250","lat":"30.784630"},{"id":578022,"parent_id":577969,"level":3,"area_code":"511302007000","zip_code":"637501","city_code":"0817","name":"\u534e\u51e4\u8857\u9053","short_name":"\u534e\u51e4","merger_name":"\u56db\u5ddd,\u5357\u5145,\u987a\u5e86,\u534e\u51e4","pinyin":"HuaFeng","lng":"106.073640","lat":"30.817700"},{"id":578023,"parent_id":578022,"level":4,"area_code":"511302007001","zip_code":"637501","city_code":"0817","name":"\u767d\u571f\u575d\u793e\u533a\u5c45\u59d4\u4f1a","short_name":"\u767d\u571f\u575d","merger_name":"\u56db\u5ddd,\u5357\u5145,\u987a\u5e86,\u534e\u51e4,\u767d\u571f\u575d","pinyin":"BaiTuBa","lng":"106.072259","lat":"30.819850"},{"id":578024,"parent_id":578022,"level":4,"area_code":"511302007002","zip_code":"637501","city_code":"0817","name":"\u675c\u5bb6\u5634\u793e\u533a\u5c45\u59d4\u4f1a","short_name":"\u675c\u5bb6\u5634","merger_name":"\u56db\u5ddd,\u5357\u5145,\u987a\u5e86,\u534e\u51e4,\u675c\u5bb6\u5634","pinyin":"DuJiaZui","lng":"106.075580","lat":"30.822830"},{"id":578025,"parent_id":578022,"level":4,"area_code":"511302007004","zip_code":"637501","city_code":"0817","name":"\u6f46\u534e\u8def\u793e\u533a\u5c45\u59d4\u4f1a","short_name":"\u6f46\u534e\u8def","merger_name":"\u56db\u5ddd,\u5357\u5145,\u987a\u5e86,\u534e\u51e4,\u6f46\u534e\u8def","pinyin":"YingHuaLu","lng":"106.114549","lat":"30.828329"},{"id":578026,"parent_id":578022,"level":4,"area_code":"511302007005","zip_code":"637501","city_code":"0817","name":"\u4f55\u5bb6\u89c2\u793e\u533a\u5c45\u59d4\u4f1a","short_name":"\u4f55\u5bb6\u89c2","merger_name":"\u56db\u5ddd,\u5357\u5145,\u987a\u5e86,\u534e\u51e4,\u4f55\u5bb6\u89c2","pinyin":"HeJiaGuan","lng":"106.077840","lat":"30.846680"},{"id":578027,"parent_id":578022,"level":4,"area_code":"511302007006","zip_code":"637501","city_code":"0817","name":"\u78e8\u54cd\u6ee9\u793e\u533a\u5c45\u59d4\u4f1a","short_name":"\u78e8\u54cd\u6ee9","merger_name":"\u56db\u5ddd,\u5357\u5145,\u987a\u5e86,\u534e\u51e4,\u78e8\u54cd\u6ee9","pinyin":"MoXiangTan","lng":"106.050860","lat":"30.821420"},{"id":578028,"parent_id":578022,"level":4,"area_code":"511302007007","zip_code":"637501","city_code":"0817","name":"\u6ed1\u6ee9\u6cb3\u793e\u533a\u5c45\u59d4\u4f1a","short_name":"\u6ed1\u6ee9\u6cb3","merger_name":"\u56db\u5ddd,\u5357\u5145,\u987a\u5e86,\u534e\u51e4,\u6ed1\u6ee9\u6cb3","pinyin":"HuaTanHe","lng":"106.074590","lat":"30.824520"},{"id":578029,"parent_id":578022,"level":4,"area_code":"511302007008","zip_code":"637501","city_code":"0817","name":"\u5f20\u5173\u57ad\u793e\u533a\u5c45\u59d4\u4f1a","short_name":"\u5f20\u5173\u57ad","merger_name":"\u56db\u5ddd,\u5357\u5145,\u987a\u5e86,\u534e\u51e4,\u5f20\u5173\u57ad","pinyin":"ZhangGuanYa","lng":"106.072259","lat":"30.819850"},{"id":578030,"parent_id":578022,"level":4,"area_code":"511302007009","zip_code":"637501","city_code":"0817","name":"\u671b\u5929\u575d\u793e\u533a\u5c45\u59d4\u4f1a","short_name":"\u671b\u5929\u575d","merger_name":"\u56db\u5ddd,\u5357\u5145,\u987a\u5e86,\u534e\u51e4,\u671b\u5929\u575d","pinyin":"WangTianBa","lng":"106.098700","lat":"30.818040"},{"id":578031,"parent_id":578022,"level":4,"area_code":"511302007204","zip_code":"637501","city_code":"0817","name":"\u7167\u58c1\u6c9f\u6751\u59d4\u4f1a","short_name":"\u7167\u58c1\u6c9f","merger_name":"\u56db\u5ddd,\u5357\u5145,\u987a\u5e86,\u534e\u51e4,\u7167\u58c1\u6c9f","pinyin":"ZhaoBiGou","lng":"106.064664","lat":"30.828020"},{"id":578032,"parent_id":578022,"level":4,"area_code":"511302007205","zip_code":"637501","city_code":"0817","name":"\u80e1\u5bb6\u6c9f\u6751\u59d4\u4f1a","short_name":"\u80e1\u5bb6\u6c9f","merger_name":"\u56db\u5ddd,\u5357\u5145,\u987a\u5e86,\u534e\u51e4,\u80e1\u5bb6\u6c9f","pinyin":"HuJiaGou","lng":"106.085960","lat":"30.855390"},{"id":578033,"parent_id":578022,"level":4,"area_code":"511302007206","zip_code":"637501","city_code":"0817","name":"\u738b\u5bb6\u6c9f\u6751\u59d4\u4f1a","short_name":"\u738b\u5bb6\u6c9f","merger_name":"\u56db\u5ddd,\u5357\u5145,\u987a\u5e86,\u534e\u51e4,\u738b\u5bb6\u6c9f","pinyin":"WangJiaGou","lng":"106.064664","lat":"30.828020"},{"id":578034,"parent_id":578022,"level":4,"area_code":"511302007207","zip_code":"637501","city_code":"0817","name":"\u6c5f\u5bb6\u5c71\u6751\u59d4\u4f1a","short_name":"\u6c5f\u5bb6\u5c71","merger_name":"\u56db\u5ddd,\u5357\u5145,\u987a\u5e86,\u534e\u51e4,\u6c5f\u5bb6\u5c71","pinyin":"JiangJiaShan","lng":"106.041600","lat":"30.830720"},{"id":578035,"parent_id":577969,"level":3,"area_code":"511302008000","zip_code":"637361","city_code":"0817","name":"\u548c\u5e73\u8def\u8857\u9053","short_name":"\u548c\u5e73\u8def","merger_name":"\u56db\u5ddd,\u5357\u5145,\u987a\u5e86,\u548c\u5e73\u8def","pinyin":"HePingLu","lng":"106.094310","lat":"30.811280"},{"id":578036,"parent_id":578035,"level":4,"area_code":"511302008001","zip_code":"637099","city_code":"0817","name":"\u94c1\u6b23\u8def\u793e\u533a\u5c45\u59d4\u4f1a","short_name":"\u94c1\u6b23\u8def","merger_name":"\u56db\u5ddd,\u5357\u5145,\u987a\u5e86,\u548c\u5e73\u8def,\u94c1\u6b23\u8def","pinyin":"TieXinLu","lng":"106.098739","lat":"30.803455"},{"id":578037,"parent_id":578035,"level":4,"area_code":"511302008002","zip_code":"637508","city_code":"0817","name":"\u821e\u51e4\u5c71\u793e\u533a\u5c45\u59d4\u4f1a","short_name":"\u821e\u51e4\u5c71","merger_name":"\u56db\u5ddd,\u5357\u5145,\u987a\u5e86,\u548c\u5e73\u8def,\u821e\u51e4\u5c71","pinyin":"WuFengShan","lng":"106.095420","lat":"30.811790"},{"id":578038,"parent_id":578035,"level":4,"area_code":"511302008003","zip_code":"637000","city_code":"0817","name":"\u82b1\u56ed\u575d\u793e\u533a\u5c45\u59d4\u4f1a","short_name":"\u82b1\u56ed\u575d","merger_name":"\u56db\u5ddd,\u5357\u5145,\u987a\u5e86,\u548c\u5e73\u8def,\u82b1\u56ed\u575d","pinyin":"HuaYuanBa","lng":"106.080650","lat":"30.803320"},{"id":578039,"parent_id":578035,"level":4,"area_code":"511302008004","zip_code":"637099","city_code":"0817","name":"\u5317\u6e56\u8def\u793e\u533a\u5c45\u59d4\u4f1a","short_name":"\u5317\u6e56\u8def","merger_name":"\u56db\u5ddd,\u5357\u5145,\u987a\u5e86,\u548c\u5e73\u8def,\u5317\u6e56\u8def","pinyin":"BeiHuLu","lng":"106.074240","lat":"30.797584"},{"id":578040,"parent_id":578035,"level":4,"area_code":"511302008005","zip_code":"637099","city_code":"0817","name":"\u9a7b\u6625\u8def\u793e\u533a\u5c45\u59d4\u4f1a","short_name":"\u9a7b\u6625\u8def","merger_name":"\u56db\u5ddd,\u5357\u5145,\u987a\u5e86,\u548c\u5e73\u8def,\u9a7b\u6625\u8def","pinyin":"ZhuChunLu","lng":"106.074240","lat":"30.797584"},{"id":578041,"parent_id":577969,"level":3,"area_code":"511302009000","zip_code":"637541","city_code":"0817","name":"\u6f46\u6eaa\u8857\u9053","short_name":"\u6f46\u6eaa","merger_name":"\u56db\u5ddd,\u5357\u5145,\u987a\u5e86,\u6f46\u6eaa","pinyin":"YingXi","lng":"106.063190","lat":"30.876200"},{"id":578042,"parent_id":578041,"level":4,"area_code":"511302009001","zip_code":"637541","city_code":"0817","name":"\u7fa4\u4e50\u793e\u533a\u5c45\u59d4\u4f1a","short_name":"\u7fa4\u4e50","merger_name":"\u56db\u5ddd,\u5357\u5145,\u987a\u5e86,\u6f46\u6eaa,\u7fa4\u4e50","pinyin":"QunLe","lng":"106.110141","lat":"30.675758"},{"id":578043,"parent_id":578041,"level":4,"area_code":"511302009002","zip_code":"637541","city_code":"0817","name":"\u65b0\u7acb\u793e\u533a\u5c45\u59d4\u4f1a","short_name":"\u65b0\u7acb","merger_name":"\u56db\u5ddd,\u5357\u5145,\u987a\u5e86,\u6f46\u6eaa,\u65b0\u7acb","pinyin":"XinLi","lng":"106.074920","lat":"30.865610"},{"id":578044,"parent_id":578041,"level":4,"area_code":"511302009003","zip_code":"637504","city_code":"0817","name":"\u540c\u5174\u793e\u533a\u5c45\u59d4\u4f1a","short_name":"\u540c\u5174","merger_name":"\u56db\u5ddd,\u5357\u5145,\u987a\u5e86,\u6f46\u6eaa,\u540c\u5174","pinyin":"TongXing","lng":"106.057640","lat":"30.874920"},{"id":578045,"parent_id":578041,"level":4,"area_code":"511302009004","zip_code":"637541","city_code":"0817","name":"\u9752\u9f99\u793e\u533a\u5c45\u59d4\u4f1a","short_name":"\u9752\u9f99","merger_name":"\u56db\u5ddd,\u5357\u5145,\u987a\u5e86,\u6f46\u6eaa,\u9752\u9f99","pinyin":"QingLong","lng":"106.117599","lat":"30.828383"},{"id":578046,"parent_id":578041,"level":4,"area_code":"511302009005","zip_code":"637541","city_code":"0817","name":"\u957f\u5174\u793e\u533a\u5c45\u59d4\u4f1a","short_name":"\u957f\u5174","merger_name":"\u56db\u5ddd,\u5357\u5145,\u987a\u5e86,\u6f46\u6eaa,\u957f\u5174","pinyin":"ChangXing","lng":"106.063190","lat":"30.876200"},{"id":578047,"parent_id":578041,"level":4,"area_code":"511302009006","zip_code":"637541","city_code":"0817","name":"\u804c\u6559\u57ce\u793e\u533a\u5c45\u59d4\u4f1a","short_name":"\u804c\u6559\u57ce","merger_name":"\u56db\u5ddd,\u5357\u5145,\u987a\u5e86,\u6f46\u6eaa,\u804c\u6559\u57ce","pinyin":"ZhiJiaoCheng","lng":"106.074920","lat":"30.865610"},{"id":578048,"parent_id":578041,"level":4,"area_code":"511302009007","zip_code":"637541","city_code":"0817","name":"\u6765\u9f99\u793e\u533a\u5c45\u59d4\u4f1a","short_name":"\u6765\u9f99","merger_name":"\u56db\u5ddd,\u5357\u5145,\u987a\u5e86,\u6f46\u6eaa,\u6765\u9f99","pinyin":"LaiLong","lng":"106.110141","lat":"30.675758"},{"id":578049,"parent_id":578041,"level":4,"area_code":"511302009008","zip_code":"637541","city_code":"0817","name":"\u540c\u5fb7\u793e\u533a\u5c45\u59d4\u4f1a","short_name":"\u540c\u5fb7","merger_name":"\u56db\u5ddd,\u5357\u5145,\u987a\u5e86,\u6f46\u6eaa,\u540c\u5fb7","pinyin":"TongDe","lng":"106.065585","lat":"30.879056"},{"id":578050,"parent_id":578041,"level":4,"area_code":"511302009009","zip_code":"637541","city_code":"0817","name":"\u51af\u5bb6\u5bfa\u793e\u533a\u5c45\u59d4\u4f1a","short_name":"\u51af\u5bb6\u5bfa","merger_name":"\u56db\u5ddd,\u5357\u5145,\u987a\u5e86,\u6f46\u6eaa,\u51af\u5bb6\u5bfa","pinyin":"FengJiaSi","lng":"106.080490","lat":"30.867460"},{"id":578051,"parent_id":578041,"level":4,"area_code":"511302009010","zip_code":"637541","city_code":"0817","name":"\u6c7d\u8d38\u57ce\u793e\u533a\u5c45\u59d4\u4f1a","short_name":"\u6c7d\u8d38\u57ce","merger_name":"\u56db\u5ddd,\u5357\u5145,\u987a\u5e86,\u6f46\u6eaa,\u6c7d\u8d38\u57ce","pinyin":"QiMaoCheng","lng":"106.361796","lat":"31.758674"},{"id":578052,"parent_id":578041,"level":4,"area_code":"511302009201","zip_code":"637541","city_code":"0817","name":"\u5927\u576a\u5c71\u6751\u59d4\u4f1a","short_name":"\u5927\u576a\u5c71","merger_name":"\u56db\u5ddd,\u5357\u5145,\u987a\u5e86,\u6f46\u6eaa,\u5927\u576a\u5c71","pinyin":"DaPingShan","lng":"106.085960","lat":"30.855390"},{"id":578053,"parent_id":578041,"level":4,"area_code":"511302009202","zip_code":"637541","city_code":"0817","name":"\u8d75\u5bb6\u6c9f\u6751\u59d4\u4f1a","short_name":"\u8d75\u5bb6\u6c9f","merger_name":"\u56db\u5ddd,\u5357\u5145,\u987a\u5e86,\u6f46\u6eaa,\u8d75\u5bb6\u6c9f","pinyin":"ZhaoJiaGou","lng":"106.064664","lat":"30.828020"},{"id":578054,"parent_id":578041,"level":4,"area_code":"511302009204","zip_code":"637541","city_code":"0817","name":"\u5143\u8e6c\u5b50\u6751\u59d4\u4f1a","short_name":"\u5143\u8e6c\u5b50","merger_name":"\u56db\u5ddd,\u5357\u5145,\u987a\u5e86,\u6f46\u6eaa,\u5143\u8e6c\u5b50","pinyin":"YuanDengZi","lng":"106.057640","lat":"30.874920"},{"id":578055,"parent_id":578041,"level":4,"area_code":"511302009205","zip_code":"637541","city_code":"0817","name":"\u6df7\u5143\u89c2\u6751\u59d4\u4f1a","short_name":"\u6df7\u5143\u89c2","merger_name":"\u56db\u5ddd,\u5357\u5145,\u987a\u5e86,\u6f46\u6eaa,\u6df7\u5143\u89c2","pinyin":"HunYuanGuan","lng":"106.043850","lat":"30.869330"},{"id":578056,"parent_id":578041,"level":4,"area_code":"511302009206","zip_code":"637541","city_code":"0817","name":"\u5927\u5830\u574e\u6751\u59d4\u4f1a","short_name":"\u5927\u5830\u574e","merger_name":"\u56db\u5ddd,\u5357\u5145,\u987a\u5e86,\u6f46\u6eaa,\u5927\u5830\u574e","pinyin":"DaYanKan","lng":"106.080490","lat":"30.867460"},{"id":578057,"parent_id":578041,"level":4,"area_code":"511302009207","zip_code":"637541","city_code":"0817","name":"\u675c\u5bb6\u5e99\u6751\u59d4\u4f1a","short_name":"\u675c\u5bb6\u5e99","merger_name":"\u56db\u5ddd,\u5357\u5145,\u987a\u5e86,\u6f46\u6eaa,\u675c\u5bb6\u5e99","pinyin":"DuJiaMiao","lng":"106.045570","lat":"30.888330"},{"id":578058,"parent_id":578041,"level":4,"area_code":"511302009209","zip_code":"637541","city_code":"0817","name":"\u4f59\u5bb6\u575d\u6751\u59d4\u4f1a","short_name":"\u4f59\u5bb6\u575d","merger_name":"\u56db\u5ddd,\u5357\u5145,\u987a\u5e86,\u6f46\u6eaa,\u4f59\u5bb6\u575d","pinyin":"YuJiaBa","lng":"106.045570","lat":"30.888330"},{"id":578059,"parent_id":578041,"level":4,"area_code":"511302009210","zip_code":"637541","city_code":"0817","name":"\u65b9\u6c34\u4e95\u6751\u59d4\u4f1a","short_name":"\u65b9\u6c34\u4e95","merger_name":"\u56db\u5ddd,\u5357\u5145,\u987a\u5e86,\u6f46\u6eaa,\u65b9\u6c34\u4e95","pinyin":"FangShuiJing","lng":"106.049210","lat":"30.904220"},{"id":578060,"parent_id":578041,"level":4,"area_code":"511302009213","zip_code":"637541","city_code":"0817","name":"\u6885\u6811\u6c9f\u6751\u59d4\u4f1a","short_name":"\u6885\u6811\u6c9f","merger_name":"\u56db\u5ddd,\u5357\u5145,\u987a\u5e86,\u6f46\u6eaa,\u6885\u6811\u6c9f","pinyin":"MeiShuGou","lng":"106.085960","lat":"30.855390"},{"id":578061,"parent_id":578041,"level":4,"area_code":"511302009214","zip_code":"637541","city_code":"0817","name":"\u77f3\u71d5\u5b50\u6751\u59d4\u4f1a","short_name":"\u77f3\u71d5\u5b50","merger_name":"\u56db\u5ddd,\u5357\u5145,\u987a\u5e86,\u6f46\u6eaa,\u77f3\u71d5\u5b50","pinyin":"ShiYanZi","lng":"105.752040","lat":"30.908760"},{"id":578062,"parent_id":578041,"level":4,"area_code":"511302009215","zip_code":"637541","city_code":"0817","name":"\u78e8\u5b50\u77f3\u6751\u59d4\u4f1a","short_name":"\u78e8\u5b50\u77f3","merger_name":"\u56db\u5ddd,\u5357\u5145,\u987a\u5e86,\u6f46\u6eaa,\u78e8\u5b50\u77f3","pinyin":"MoZiShi","lng":"106.090800","lat":"30.872330"},{"id":578063,"parent_id":578041,"level":4,"area_code":"511302009216","zip_code":"637541","city_code":"0817","name":"\u5bfa\u5c71\u5cad\u6751\u59d4\u4f1a","short_name":"\u5bfa\u5c71\u5cad","merger_name":"\u56db\u5ddd,\u5357\u5145,\u987a\u5e86,\u6f46\u6eaa,\u5bfa\u5c71\u5cad","pinyin":"SiShanLing","lng":"106.085960","lat":"30.855390"},{"id":578064,"parent_id":578041,"level":4,"area_code":"511302009217","zip_code":"637541","city_code":"0817","name":"\u5f2f\u67cf\u6811\u6751\u59d4\u4f1a","short_name":"\u5f2f\u67cf\u6811","merger_name":"\u56db\u5ddd,\u5357\u5145,\u987a\u5e86,\u6f46\u6eaa,\u5f2f\u67cf\u6811","pinyin":"WanBaiShu","lng":"106.085960","lat":"30.855390"},{"id":578065,"parent_id":578041,"level":4,"area_code":"511302009221","zip_code":"637536","city_code":"0817","name":"\u9c7c\u6c60\u5bfa\u6751\u59d4\u4f1a","short_name":"\u9c7c\u6c60\u5bfa","merger_name":"\u56db\u5ddd,\u5357\u5145,\u987a\u5e86,\u6f46\u6eaa,\u9c7c\u6c60\u5bfa","pinyin":"YuChiSi","lng":"105.946130","lat":"31.021390"},{"id":578066,"parent_id":578041,"level":4,"area_code":"511302009222","zip_code":"637536","city_code":"0817","name":"\u4e71\u5c71\u6c9f\u6751\u59d4\u4f1a","short_name":"\u4e71\u5c71\u6c9f","merger_name":"\u56db\u5ddd,\u5357\u5145,\u987a\u5e86,\u6f46\u6eaa,\u4e71\u5c71\u6c9f","pinyin":"LuanShanGou","lng":"106.070420","lat":"30.931820"},{"id":578067,"parent_id":578041,"level":4,"area_code":"511302009223","zip_code":"637536","city_code":"0817","name":"\u78be\u5b50\u6e7e\u6751\u59d4\u4f1a","short_name":"\u78be\u5b50\u6e7e","merger_name":"\u56db\u5ddd,\u5357\u5145,\u987a\u5e86,\u6f46\u6eaa,\u78be\u5b50\u6e7e","pinyin":"NianZiWan","lng":"106.063130","lat":"30.876250"},{"id":578068,"parent_id":578041,"level":4,"area_code":"511302009224","zip_code":"637536","city_code":"0817","name":"\u53cc\u5e99\u5b50\u6751\u59d4\u4f1a","short_name":"\u53cc\u5e99\u5b50","merger_name":"\u56db\u5ddd,\u5357\u5145,\u987a\u5e86,\u6f46\u6eaa,\u53cc\u5e99\u5b50","pinyin":"ShuangMiaoZi","lng":"106.042470","lat":"30.938620"},{"id":578069,"parent_id":578041,"level":4,"area_code":"511302009225","zip_code":"637536","city_code":"0817","name":"\u4f0d\u5bb6\u5e97\u6751\u59d4\u4f1a","short_name":"\u4f0d\u5bb6\u5e97","merger_name":"\u56db\u5ddd,\u5357\u5145,\u987a\u5e86,\u6f46\u6eaa,\u4f0d\u5bb6\u5e97","pinyin":"WuJiaDian","lng":"106.089680","lat":"30.911840"},{"id":578070,"parent_id":578041,"level":4,"area_code":"511302009226","zip_code":"637541","city_code":"0817","name":"\u7076\u541b\u5e99\u6751\u59d4\u4f1a","short_name":"\u7076\u541b\u5e99","merger_name":"\u56db\u5ddd,\u5357\u5145,\u987a\u5e86,\u6f46\u6eaa,\u7076\u541b\u5e99","pinyin":"ZaoJunMiao","lng":"106.080490","lat":"30.867460"},{"id":578071,"parent_id":578041,"level":4,"area_code":"511302009227","zip_code":"637536","city_code":"0817","name":"\u677f\u51f3\u57ad\u6751\u59d4\u4f1a","short_name":"\u677f\u51f3\u57ad","merger_name":"\u56db\u5ddd,\u5357\u5145,\u987a\u5e86,\u6f46\u6eaa,\u677f\u51f3\u57ad","pinyin":"BanDengYa","lng":"105.842530","lat":"30.741220"},{"id":578072,"parent_id":578041,"level":4,"area_code":"511302009228","zip_code":"637541","city_code":"0817","name":"\u7a96\u5366\u5c71\u6751\u59d4\u4f1a","short_name":"\u7a96\u5366\u5c71","merger_name":"\u56db\u5ddd,\u5357\u5145,\u987a\u5e86,\u6f46\u6eaa,\u7a96\u5366\u5c71","pinyin":"JiaoGuaShan","lng":"106.036270","lat":"30.924011"},{"id":578073,"parent_id":577969,"level":3,"area_code":"511302010000","zip_code":"637506","city_code":"0817","name":"\u8346\u6eaa\u8857\u9053","short_name":"\u8346\u6eaa","merger_name":"\u56db\u5ddd,\u5357\u5145,\u987a\u5e86,\u8346\u6eaa","pinyin":"JingXi","lng":"106.113880","lat":"30.858270"},{"id":578074,"parent_id":578073,"level":4,"area_code":"511302010001","zip_code":"637506","city_code":"0817","name":"\u82b1\u5382\u793e\u533a\u5c45\u59d4\u4f1a","short_name":"\u82b1\u5382","merger_name":"\u56db\u5ddd,\u5357\u5145,\u987a\u5e86,\u8346\u6eaa,\u82b1\u5382","pinyin":"HuaChang","lng":"106.119800","lat":"30.857320"},{"id":578075,"parent_id":578073,"level":4,"area_code":"511302010002","zip_code":"637506","city_code":"0817","name":"\u6851\u6d32\u793e\u533a\u5c45\u59d4\u4f1a","short_name":"\u6851\u6d32","merger_name":"\u56db\u5ddd,\u5357\u5145,\u987a\u5e86,\u8346\u6eaa,\u6851\u6d32","pinyin":"SangZhou","lng":"106.119800","lat":"30.857320"},{"id":578076,"parent_id":578073,"level":4,"area_code":"511302010003","zip_code":"637506","city_code":"0817","name":"\u65b0\u57ce\u793e\u533a\u5c45\u59d4\u4f1a","short_name":"\u65b0\u57ce","merger_name":"\u56db\u5ddd,\u5357\u5145,\u987a\u5e86,\u8346\u6eaa,\u65b0\u57ce","pinyin":"XinCheng","lng":"106.560605","lat":"31.077786"},{"id":578077,"parent_id":578073,"level":4,"area_code":"511302010004","zip_code":"637506","city_code":"0817","name":"\u8346\u82d1\u793e\u533a\u5c45\u59d4\u4f1a","short_name":"\u8346\u82d1","merger_name":"\u56db\u5ddd,\u5357\u5145,\u987a\u5e86,\u8346\u6eaa,\u8346\u82d1","pinyin":"JingYuan","lng":"106.098889","lat":"30.818114"},{"id":578078,"parent_id":578073,"level":4,"area_code":"511302010005","zip_code":"637506","city_code":"0817","name":"\u89c2\u97f3\u6148\u793e\u533a\u5c45\u59d4\u4f1a","short_name":"\u89c2\u97f3\u6148","merger_name":"\u56db\u5ddd,\u5357\u5145,\u987a\u5e86,\u8346\u6eaa,\u89c2\u97f3\u6148","pinyin":"GuanYinCi","lng":"106.098889","lat":"30.818114"},{"id":578079,"parent_id":578073,"level":4,"area_code":"511302010006","zip_code":"637506","city_code":"0817","name":"\u6587\u660c\u5bab\u793e\u533a\u5c45\u59d4\u4f1a","short_name":"\u6587\u660c\u5bab","merger_name":"\u56db\u5ddd,\u5357\u5145,\u987a\u5e86,\u8346\u6eaa,\u6587\u660c\u5bab","pinyin":"WenChangGong","lng":"106.119800","lat":"30.857320"},{"id":578080,"parent_id":578073,"level":4,"area_code":"511302010007","zip_code":"637506","city_code":"0817","name":"\u6587\u82d1\u793e\u533a\u5c45\u59d4\u4f1a","short_name":"\u6587\u82d1","merger_name":"\u56db\u5ddd,\u5357\u5145,\u987a\u5e86,\u8346\u6eaa,\u6587\u82d1","pinyin":"WenYuan","lng":"106.070330","lat":"30.803870"},{"id":578081,"parent_id":578073,"level":4,"area_code":"511302010204","zip_code":"637506","city_code":"0817","name":"\u5c48\u5bb6\u5e99\u6751\u59d4\u4f1a","short_name":"\u5c48\u5bb6\u5e99","merger_name":"\u56db\u5ddd,\u5357\u5145,\u987a\u5e86,\u8346\u6eaa,\u5c48\u5bb6\u5e99","pinyin":"QuJiaMiao","lng":"106.103390","lat":"30.880970"},{"id":578082,"parent_id":578073,"level":4,"area_code":"511302010205","zip_code":"637506","city_code":"0817","name":"\u51c9\u4f1e\u6811\u6751\u59d4\u4f1a","short_name":"\u51c9\u4f1e\u6811","merger_name":"\u56db\u5ddd,\u5357\u5145,\u987a\u5e86,\u8346\u6eaa,\u51c9\u4f1e\u6811","pinyin":"LiangSanShu","lng":"106.107640","lat":"30.875920"},{"id":578083,"parent_id":578073,"level":4,"area_code":"511302010206","zip_code":"637506","city_code":"0817","name":"\u575b\u7f50\u7a96\u6751\u59d4\u4f1a","short_name":"\u575b\u7f50\u7a96","merger_name":"\u56db\u5ddd,\u5357\u5145,\u987a\u5e86,\u8346\u6eaa,\u575b\u7f50\u7a96","pinyin":"TanGuanJiao","lng":"106.025113","lat":"31.619096"},{"id":578084,"parent_id":578073,"level":4,"area_code":"511302010210","zip_code":"637506","city_code":"0817","name":"\u5192\u6c34\u5830\u6751\u59d4\u4f1a","short_name":"\u5192\u6c34\u5830","merger_name":"\u56db\u5ddd,\u5357\u5145,\u987a\u5e86,\u8346\u6eaa,\u5192\u6c34\u5830","pinyin":"MaoShuiYan","lng":"106.128530","lat":"30.886760"},{"id":578085,"parent_id":577969,"level":3,"area_code":"511302011000","zip_code":"637476","city_code":"0817","name":"\u897f\u5c71\u8857\u9053","short_name":"\u897f\u5c71","merger_name":"\u56db\u5ddd,\u5357\u5145,\u987a\u5e86,\u897f\u5c71","pinyin":"XiShan","lng":"106.072452","lat":"30.785507"},{"id":578086,"parent_id":578085,"level":4,"area_code":"511302011002","zip_code":"637503","city_code":"0817","name":"\u5175\u9a6c\u5802\u793e\u533a\u5c45\u59d4\u4f1a","short_name":"\u5175\u9a6c\u5802","merger_name":"\u56db\u5ddd,\u5357\u5145,\u987a\u5e86,\u897f\u5c71,\u5175\u9a6c\u5802","pinyin":"BingMaTang","lng":"106.066550","lat":"30.799970"},{"id":578087,"parent_id":578085,"level":4,"area_code":"511302011003","zip_code":"637501","city_code":"0817","name":"\u4f0d\u5bb6\u57ad\u793e\u533a\u5c45\u59d4\u4f1a","short_name":"\u4f0d\u5bb6\u57ad","merger_name":"\u56db\u5ddd,\u5357\u5145,\u987a\u5e86,\u897f\u5c71,\u4f0d\u5bb6\u57ad","pinyin":"WuJiaYa","lng":"106.072250","lat":"30.810400"},{"id":578088,"parent_id":578085,"level":4,"area_code":"511302011004","zip_code":"637503","city_code":"0817","name":"\u724c\u574a\u6e7e\u793e\u533a\u5c45\u59d4\u4f1a","short_name":"\u724c\u574a\u6e7e","merger_name":"\u56db\u5ddd,\u5357\u5145,\u987a\u5e86,\u897f\u5c71,\u724c\u574a\u6e7e","pinyin":"PaiFangWan","lng":"106.070460","lat":"30.783970"},{"id":578089,"parent_id":578085,"level":4,"area_code":"511302011005","zip_code":"637099","city_code":"0817","name":"\u73af\u5cf0\u8def\u793e\u533a\u5c45\u59d4\u4f1a","short_name":"\u73af\u5cf0\u8def","merger_name":"\u56db\u5ddd,\u5357\u5145,\u987a\u5e86,\u897f\u5c71,\u73af\u5cf0\u8def","pinyin":"HuanFengLu","lng":"106.068984","lat":"30.802792"},{"id":578090,"parent_id":578085,"level":4,"area_code":"511302011205","zip_code":"637503","city_code":"0817","name":"\u6816\u4e50\u57ad\u6751\u59d4\u4f1a","short_name":"\u6816\u4e50\u57ad","merger_name":"\u56db\u5ddd,\u5357\u5145,\u987a\u5e86,\u897f\u5c71,\u6816\u4e50\u57ad","pinyin":"QiLeYa","lng":"106.054260","lat":"30.800450"},{"id":578091,"parent_id":578085,"level":4,"area_code":"511302011206","zip_code":"637503","city_code":"0817","name":"\u7236\u5b50\u6865\u6751\u59d4\u4f1a","short_name":"\u7236\u5b50\u6865","merger_name":"\u56db\u5ddd,\u5357\u5145,\u987a\u5e86,\u897f\u5c71,\u7236\u5b50\u6865","pinyin":"FuZiQiao","lng":"106.041329","lat":"30.805161"},{"id":578092,"parent_id":577969,"level":3,"area_code":"511302104000","zip_code":"637539","city_code":"0817","name":"\u5171\u5174\u9547","short_name":"\u5171\u5174","merger_name":"\u56db\u5ddd,\u5357\u5145,\u987a\u5e86,\u5171\u5174","pinyin":"GongXing","lng":"106.015850","lat":"30.910530"},{"id":578093,"parent_id":578092,"level":4,"area_code":"511302104201","zip_code":"637539","city_code":"0817","name":"\u5927\u8425\u575d\u6751\u59d4\u4f1a","short_name":"\u5927\u8425\u575d","merger_name":"\u56db\u5ddd,\u5357\u5145,\u987a\u5e86,\u5171\u5174,\u5927\u8425\u575d","pinyin":"DaYingBa","lng":"106.032410","lat":"30.895890"},{"id":578094,"parent_id":578092,"level":4,"area_code":"511302104202","zip_code":"637539","city_code":"0817","name":"\u77f3\u6eda\u575d\u6751\u59d4\u4f1a","short_name":"\u77f3\u6eda\u575d","merger_name":"\u56db\u5ddd,\u5357\u5145,\u987a\u5e86,\u5171\u5174,\u77f3\u6eda\u575d","pinyin":"ShiGunBa","lng":"106.045570","lat":"30.888330"},{"id":578095,"parent_id":578092,"level":4,"area_code":"511302104203","zip_code":"637539","city_code":"0817","name":"\u4e94\u6d1e\u6865\u6751\u59d4\u4f1a","short_name":"\u4e94\u6d1e\u6865","merger_name":"\u56db\u5ddd,\u5357\u5145,\u987a\u5e86,\u5171\u5174,\u4e94\u6d1e\u6865","pinyin":"WuDongQiao","lng":"106.020920","lat":"30.901140"},{"id":578096,"parent_id":578092,"level":4,"area_code":"511302104204","zip_code":"637539","city_code":"0817","name":"\u6cc9\u6c34\u6c9f\u6751\u59d4\u4f1a","short_name":"\u6cc9\u6c34\u6c9f","merger_name":"\u56db\u5ddd,\u5357\u5145,\u987a\u5e86,\u5171\u5174,\u6cc9\u6c34\u6c9f","pinyin":"QuanShuiGou","lng":"105.990004","lat":"30.900064"},{"id":578097,"parent_id":578092,"level":4,"area_code":"511302104205","zip_code":"637539","city_code":"0817","name":"\u9f99\u89d2\u5be8\u6751\u59d4\u4f1a","short_name":"\u9f99\u89d2\u5be8","merger_name":"\u56db\u5ddd,\u5357\u5145,\u987a\u5e86,\u5171\u5174,\u9f99\u89d2\u5be8","pinyin":"LongJiaoZhai","lng":"106.008860","lat":"30.902880"},{"id":578098,"parent_id":578092,"level":4,"area_code":"511302104206","zip_code":"637539","city_code":"0817","name":"\u9633\u516c\u5e99\u6751\u59d4\u4f1a","short_name":"\u9633\u516c\u5e99","merger_name":"\u56db\u5ddd,\u5357\u5145,\u987a\u5e86,\u5171\u5174,\u9633\u516c\u5e99","pinyin":"YangGongMiao","lng":"106.016568","lat":"30.910786"},{"id":578099,"parent_id":578092,"level":4,"area_code":"511302104207","zip_code":"637539","city_code":"0817","name":"\u77f3\u5143\u575d\u6751\u59d4\u4f1a","short_name":"\u77f3\u5143\u575d","merger_name":"\u56db\u5ddd,\u5357\u5145,\u987a\u5e86,\u5171\u5174,\u77f3\u5143\u575d","pinyin":"ShiYuanBa","lng":"106.016568","lat":"30.910786"},{"id":578100,"parent_id":578092,"level":4,"area_code":"511302104208","zip_code":"637539","city_code":"0817","name":"\u9ebb\u77f3\u6c9f\u6751\u59d4\u4f1a","short_name":"\u9ebb\u77f3\u6c9f","merger_name":"\u56db\u5ddd,\u5357\u5145,\u987a\u5e86,\u5171\u5174,\u9ebb\u77f3\u6c9f","pinyin":"MaShiGou","lng":"106.016568","lat":"30.910786"},{"id":578101,"parent_id":578092,"level":4,"area_code":"511302104209","zip_code":"637537","city_code":"0817","name":"\u91d1\u79f0\u6c9f\u6751\u59d4\u4f1a","short_name":"\u91d1\u79f0\u6c9f","merger_name":"\u56db\u5ddd,\u5357\u5145,\u987a\u5e86,\u5171\u5174,\u91d1\u79f0\u6c9f","pinyin":"JinChengGou","lng":"106.006953","lat":"30.926152"},{"id":578102,"parent_id":578092,"level":4,"area_code":"511302104210","zip_code":"637537","city_code":"0817","name":"\u68d5\u6811\u6c9f\u6751\u59d4\u4f1a","short_name":"\u68d5\u6811\u6c9f","merger_name":"\u56db\u5ddd,\u5357\u5145,\u987a\u5e86,\u5171\u5174,\u68d5\u6811\u6c9f","pinyin":"ZongShuGou","lng":"106.006953","lat":"30.926152"},{"id":578103,"parent_id":578092,"level":4,"area_code":"511302104211","zip_code":"637537","city_code":"0817","name":"\u9ec4\u83b2\u5634\u6751\u59d4\u4f1a","short_name":"\u9ec4\u83b2\u5634","merger_name":"\u56db\u5ddd,\u5357\u5145,\u987a\u5e86,\u5171\u5174,\u9ec4\u83b2\u5634","pinyin":"HuangLianZui","lng":"106.085960","lat":"30.855390"},{"id":578104,"parent_id":578092,"level":4,"area_code":"511302104212","zip_code":"637537","city_code":"0817","name":"\u81ea\u751f\u6865\u6751\u59d4\u4f1a","short_name":"\u81ea\u751f\u6865","merger_name":"\u56db\u5ddd,\u5357\u5145,\u987a\u5e86,\u5171\u5174,\u81ea\u751f\u6865","pinyin":"ZiShengQiao","lng":"106.045570","lat":"30.888330"},{"id":578105,"parent_id":578092,"level":4,"area_code":"511302104213","zip_code":"637537","city_code":"0817","name":"\u4e03\u91cc\u6c9f\u6751\u59d4\u4f1a","short_name":"\u4e03\u91cc\u6c9f","merger_name":"\u56db\u5ddd,\u5357\u5145,\u987a\u5e86,\u5171\u5174,\u4e03\u91cc\u6c9f","pinyin":"QiLiGou","lng":"106.085960","lat":"30.855390"},{"id":578106,"parent_id":578092,"level":4,"area_code":"511302104214","zip_code":"637539","city_code":"0817","name":"\u6ee5\u6ce5\u6c9f\u6751\u59d4\u4f1a","short_name":"\u6ee5\u6ce5\u6c9f","merger_name":"\u56db\u5ddd,\u5357\u5145,\u987a\u5e86,\u5171\u5174,\u6ee5\u6ce5\u6c9f","pinyin":"LanNiGou","lng":"106.020690","lat":"31.623702"},{"id":578107,"parent_id":578092,"level":4,"area_code":"511302104215","zip_code":"637539","city_code":"0817","name":"\u4e1c\u5cb3\u5e99\u6751\u59d4\u4f1a","short_name":"\u4e1c\u5cb3\u5e99","merger_name":"\u56db\u5ddd,\u5357\u5145,\u987a\u5e86,\u5171\u5174,\u4e1c\u5cb3\u5e99","pinyin":"DongYueMiao","lng":"106.016930","lat":"30.910290"},{"id":578108,"parent_id":577969,"level":3,"area_code":"511302105000","zip_code":"637551","city_code":"0817","name":"\u91d1\u53f0\u9547","short_name":"\u91d1\u53f0","merger_name":"\u56db\u5ddd,\u5357\u5145,\u987a\u5e86,\u91d1\u53f0","pinyin":"JinTai","lng":"106.114220","lat":"30.924320"},{"id":578109,"parent_id":578108,"level":4,"area_code":"511302105201","zip_code":"637551","city_code":"0817","name":"\u8463\u5bb6\u9662\u6751\u59d4\u4f1a","short_name":"\u8463\u5bb6\u9662","merger_name":"\u56db\u5ddd,\u5357\u5145,\u987a\u5e86,\u91d1\u53f0,\u8463\u5bb6\u9662","pinyin":"DongJiaYuan","lng":"106.124370","lat":"30.919340"},{"id":578110,"parent_id":578108,"level":4,"area_code":"511302105202","zip_code":"637551","city_code":"0817","name":"\u8096\u5bb6\u5e99\u6751\u59d4\u4f1a","short_name":"\u8096\u5bb6\u5e99","merger_name":"\u56db\u5ddd,\u5357\u5145,\u987a\u5e86,\u91d1\u53f0,\u8096\u5bb6\u5e99","pinyin":"XiaoJiaMiao","lng":"106.113662","lat":"30.925375"},{"id":578111,"parent_id":578108,"level":4,"area_code":"511302105203","zip_code":"637551","city_code":"0817","name":"\u4e07\u4f5b\u6865\u6751\u59d4\u4f1a","short_name":"\u4e07\u4f5b\u6865","merger_name":"\u56db\u5ddd,\u5357\u5145,\u987a\u5e86,\u91d1\u53f0,\u4e07\u4f5b\u6865","pinyin":"WanFuQiao","lng":"106.126760","lat":"30.943280"},{"id":578112,"parent_id":578108,"level":4,"area_code":"511302105204","zip_code":"637551","city_code":"0817","name":"\u5305\u5305\u7530\u6751\u59d4\u4f1a","short_name":"\u5305\u5305\u7530","merger_name":"\u56db\u5ddd,\u5357\u5145,\u987a\u5e86,\u91d1\u53f0,\u5305\u5305\u7530","pinyin":"BaoBaoTian","lng":"106.113662","lat":"30.925375"},{"id":578113,"parent_id":578108,"level":4,"area_code":"511302105205","zip_code":"637551","city_code":"0817","name":"\u68a8\u5b50\u56ed\u6751\u59d4\u4f1a","short_name":"\u68a8\u5b50\u56ed","merger_name":"\u56db\u5ddd,\u5357\u5145,\u987a\u5e86,\u91d1\u53f0,\u68a8\u5b50\u56ed","pinyin":"LiZiYuan","lng":"106.113662","lat":"30.925375"},{"id":578114,"parent_id":578108,"level":4,"area_code":"511302105206","zip_code":"637551","city_code":"0817","name":"\u91d1\u5bfa\u9662\u6751\u59d4\u4f1a","short_name":"\u91d1\u5bfa\u9662","merger_name":"\u56db\u5ddd,\u5357\u5145,\u987a\u5e86,\u91d1\u53f0,\u91d1\u5bfa\u9662","pinyin":"JinSiYuan","lng":"107.263742","lat":"34.364368"},{"id":578115,"parent_id":578108,"level":4,"area_code":"511302105207","zip_code":"637551","city_code":"0817","name":"\u6253\u77f3\u5382\u6751\u59d4\u4f1a","short_name":"\u6253\u77f3\u5382","merger_name":"\u56db\u5ddd,\u5357\u5145,\u987a\u5e86,\u91d1\u53f0,\u6253\u77f3\u5382","pinyin":"DaShiChang","lng":"106.182840","lat":"30.806800"},{"id":578116,"parent_id":578108,"level":4,"area_code":"511302105208","zip_code":"637551","city_code":"0817","name":"\u571f\u57ad\u6751\u59d4\u4f1a","short_name":"\u571f\u57ad","merger_name":"\u56db\u5ddd,\u5357\u5145,\u987a\u5e86,\u91d1\u53f0,\u571f\u57ad","pinyin":"TuYa","lng":"106.175576","lat":"31.221182"},{"id":578117,"parent_id":578108,"level":4,"area_code":"511302105209","zip_code":"637551","city_code":"0817","name":"\u8499\u627f\u5bab\u6751\u59d4\u4f1a","short_name":"\u8499\u627f\u5bab","merger_name":"\u56db\u5ddd,\u5357\u5145,\u987a\u5e86,\u91d1\u53f0,\u8499\u627f\u5bab","pinyin":"MengChengGong","lng":"106.125340","lat":"30.899820"},{"id":578118,"parent_id":577969,"level":3,"area_code":"511302106000","zip_code":"637544","city_code":"0817","name":"\u82a6\u6eaa\u9547","short_name":"\u82a6\u6eaa","merger_name":"\u56db\u5ddd,\u5357\u5145,\u987a\u5e86,\u82a6\u6eaa","pinyin":"LuXi","lng":"106.129680","lat":"30.957610"},{"id":578119,"parent_id":578118,"level":4,"area_code":"511302106001","zip_code":"637544","city_code":"0817","name":"\u5e73\u7f57\u575d\u793e\u533a\u5c45\u59d4\u4f1a","short_name":"\u5e73\u7f57\u575d","merger_name":"\u56db\u5ddd,\u5357\u5145,\u987a\u5e86,\u82a6\u6eaa,\u5e73\u7f57\u575d","pinyin":"PingLuoBa","lng":"106.127900","lat":"30.964444"},{"id":578120,"parent_id":578118,"level":4,"area_code":"511302106201","zip_code":"637544","city_code":"0817","name":"\u5174\u9633\u5c71\u6751\u59d4\u4f1a","short_name":"\u5174\u9633\u5c71","merger_name":"\u56db\u5ddd,\u5357\u5145,\u987a\u5e86,\u82a6\u6eaa,\u5174\u9633\u5c71","pinyin":"XingYangShan","lng":"106.129060","lat":"30.960610"},{"id":578121,"parent_id":578118,"level":4,"area_code":"511302106202","zip_code":"637544","city_code":"0817","name":"\u674e\u5bb6\u7960\u6751\u59d4\u4f1a","short_name":"\u674e\u5bb6\u7960","merger_name":"\u56db\u5ddd,\u5357\u5145,\u987a\u5e86,\u82a6\u6eaa,\u674e\u5bb6\u7960","pinyin":"LiJiaCi","lng":"106.147730","lat":"31.070646"},{"id":578122,"parent_id":578118,"level":4,"area_code":"511302106203","zip_code":"637544","city_code":"0817","name":"\u8463\u5bb6\u6c9f\u6751\u59d4\u4f1a","short_name":"\u8463\u5bb6\u6c9f","merger_name":"\u56db\u5ddd,\u5357\u5145,\u987a\u5e86,\u82a6\u6eaa,\u8463\u5bb6\u6c9f","pinyin":"DongJiaGou","lng":"106.389220","lat":"31.297540"},{"id":578123,"parent_id":578118,"level":4,"area_code":"511302106204","zip_code":"637544","city_code":"0817","name":"\u8001\u579b\u5bfa\u6751\u59d4\u4f1a","short_name":"\u8001\u579b\u5bfa","merger_name":"\u56db\u5ddd,\u5357\u5145,\u987a\u5e86,\u82a6\u6eaa,\u8001\u579b\u5bfa","pinyin":"LaoDuoSi","lng":"106.111420","lat":"30.972590"},{"id":578124,"parent_id":578118,"level":4,"area_code":"511302106205","zip_code":"637544","city_code":"0817","name":"\u987e\u5bb6\u5e97\u6751\u59d4\u4f1a","short_name":"\u987e\u5bb6\u5e97","merger_name":"\u56db\u5ddd,\u5357\u5145,\u987a\u5e86,\u82a6\u6eaa,\u987e\u5bb6\u5e97","pinyin":"GuJiaDian","lng":"106.121460","lat":"30.988820"},{"id":578125,"parent_id":578118,"level":4,"area_code":"511302106206","zip_code":"637544","city_code":"0817","name":"\u96cd\u5bb6\u6c9f\u6751\u59d4\u4f1a","short_name":"\u96cd\u5bb6\u6c9f","merger_name":"\u56db\u5ddd,\u5357\u5145,\u987a\u5e86,\u82a6\u6eaa,\u96cd\u5bb6\u6c9f","pinyin":"YongJiaGou","lng":"106.097720","lat":"30.995880"},{"id":578126,"parent_id":578118,"level":4,"area_code":"511302106207","zip_code":"637544","city_code":"0817","name":"\u66fe\u5bb6\u7960\u6751\u59d4\u4f1a","short_name":"\u66fe\u5bb6\u7960","merger_name":"\u56db\u5ddd,\u5357\u5145,\u987a\u5e86,\u82a6\u6eaa,\u66fe\u5bb6\u7960","pinyin":"ZengJiaCi","lng":"106.109590","lat":"30.999210"},{"id":578127,"parent_id":578118,"level":4,"area_code":"511302106208","zip_code":"637544","city_code":"0817","name":"\u8881\u5bb6\u5e97\u6751\u59d4\u4f1a","short_name":"\u8881\u5bb6\u5e97","merger_name":"\u56db\u5ddd,\u5357\u5145,\u987a\u5e86,\u82a6\u6eaa,\u8881\u5bb6\u5e97","pinyin":"YuanJiaDian","lng":"106.121080","lat":"30.982550"},{"id":578128,"parent_id":578118,"level":4,"area_code":"511302106209","zip_code":"637544","city_code":"0817","name":"\u5f90\u5bb6\u6865\u6751\u59d4\u4f1a","short_name":"\u5f90\u5bb6\u6865","merger_name":"\u56db\u5ddd,\u5357\u5145,\u987a\u5e86,\u82a6\u6eaa,\u5f90\u5bb6\u6865","pinyin":"XuJiaQiao","lng":"106.145200","lat":"30.936140"},{"id":578129,"parent_id":578118,"level":4,"area_code":"511302106210","zip_code":"637544","city_code":"0817","name":"\u5927\u5c94\u5c71\u6751\u59d4\u4f1a","short_name":"\u5927\u5c94\u5c71","merger_name":"\u56db\u5ddd,\u5357\u5145,\u987a\u5e86,\u82a6\u6eaa,\u5927\u5c94\u5c71","pinyin":"DaChaShan","lng":"106.129680","lat":"30.957610"},{"id":578130,"parent_id":578118,"level":4,"area_code":"511302106211","zip_code":"637544","city_code":"0817","name":"\u732b\u513f\u6c9f\u6751\u59d4\u4f1a","short_name":"\u732b\u513f\u6c9f","merger_name":"\u56db\u5ddd,\u5357\u5145,\u987a\u5e86,\u82a6\u6eaa,\u732b\u513f\u6c9f","pinyin":"MaoErGou","lng":"106.219290","lat":"31.294460"},{"id":578131,"parent_id":578118,"level":4,"area_code":"511302106212","zip_code":"637544","city_code":"0817","name":"\u576a\u623f\u5b50\u6751\u59d4\u4f1a","short_name":"\u576a\u623f\u5b50","merger_name":"\u56db\u5ddd,\u5357\u5145,\u987a\u5e86,\u82a6\u6eaa,\u576a\u623f\u5b50","pinyin":"PingFangZi","lng":"106.130600","lat":"30.970110"},{"id":578132,"parent_id":578118,"level":4,"area_code":"511302106213","zip_code":"637544","city_code":"0817","name":"\u5f20\u5bb6\u6c9f\u6751\u59d4\u4f1a","short_name":"\u5f20\u5bb6\u6c9f","merger_name":"\u56db\u5ddd,\u5357\u5145,\u987a\u5e86,\u82a6\u6eaa,\u5f20\u5bb6\u6c9f","pinyin":"ZhangJiaGou","lng":"106.084156","lat":"31.338278"},{"id":578133,"parent_id":577969,"level":3,"area_code":"511302107000","zip_code":"637546","city_code":"0817","name":"\u674e\u5bb6\u9547","short_name":"\u674e\u5bb6","merger_name":"\u56db\u5ddd,\u5357\u5145,\u987a\u5e86,\u674e\u5bb6","pinyin":"LiJia","lng":"106.138790","lat":"31.058630"},{"id":578134,"parent_id":578133,"level":4,"area_code":"511302107001","zip_code":"637546","city_code":"0817","name":"\u674e\u5bb6\u793e\u533a\u5c45\u59d4\u4f1a","short_name":"\u674e\u5bb6","merger_name":"\u56db\u5ddd,\u5357\u5145,\u987a\u5e86,\u674e\u5bb6,\u674e\u5bb6","pinyin":"LiJia","lng":"106.148552","lat":"31.079209"},{"id":578135,"parent_id":578133,"level":4,"area_code":"511302107201","zip_code":"637546","city_code":"0817","name":"\u96c5\u96c0\u6c9f\u6751\u59d4\u4f1a","short_name":"\u96c5\u96c0\u6c9f","merger_name":"\u56db\u5ddd,\u5357\u5145,\u987a\u5e86,\u674e\u5bb6,\u96c5\u96c0\u6c9f","pinyin":"YaQueGou","lng":"106.085960","lat":"30.855390"},{"id":578136,"parent_id":578133,"level":4,"area_code":"511302107202","zip_code":"637546","city_code":"0817","name":"\u674e\u5bb6\u6751\u59d4\u4f1a","short_name":"\u674e\u5bb6","merger_name":"\u56db\u5ddd,\u5357\u5145,\u987a\u5e86,\u674e\u5bb6,\u674e\u5bb6","pinyin":"LiJia","lng":"106.147730","lat":"31.070646"},{"id":578137,"parent_id":578133,"level":4,"area_code":"511302107203","zip_code":"637546","city_code":"0817","name":"\u4e09\u91d1\u5e99\u6751\u59d4\u4f1a","short_name":"\u4e09\u91d1\u5e99","merger_name":"\u56db\u5ddd,\u5357\u5145,\u987a\u5e86,\u674e\u5bb6,\u4e09\u91d1\u5e99","pinyin":"SanJinMiao","lng":"106.147730","lat":"31.070646"},{"id":578138,"parent_id":578133,"level":4,"area_code":"511302107204","zip_code":"637546","city_code":"0817","name":"\u4e07\u5bb6\u6c9f\u6751\u59d4\u4f1a","short_name":"\u4e07\u5bb6\u6c9f","merger_name":"\u56db\u5ddd,\u5357\u5145,\u987a\u5e86,\u674e\u5bb6,\u4e07\u5bb6\u6c9f","pinyin":"WanJiaGou","lng":"106.256910","lat":"30.721200"},{"id":578139,"parent_id":578133,"level":4,"area_code":"511302107205","zip_code":"637546","city_code":"0817","name":"\u5cb3\u5bb6\u6c9f\u6751\u59d4\u4f1a","short_name":"\u5cb3\u5bb6\u6c9f","merger_name":"\u56db\u5ddd,\u5357\u5145,\u987a\u5e86,\u674e\u5bb6,\u5cb3\u5bb6\u6c9f","pinyin":"YueJiaGou","lng":"105.945200","lat":"30.768770"},{"id":578140,"parent_id":578133,"level":4,"area_code":"511302107206","zip_code":"637546","city_code":"0817","name":"\u90d1\u5bb6\u6c9f\u6751\u59d4\u4f1a","short_name":"\u90d1\u5bb6\u6c9f","merger_name":"\u56db\u5ddd,\u5357\u5145,\u987a\u5e86,\u674e\u5bb6,\u90d1\u5bb6\u6c9f","pinyin":"ZhengJiaGou","lng":"106.147730","lat":"31.070646"},{"id":578141,"parent_id":578133,"level":4,"area_code":"511302107207","zip_code":"637546","city_code":"0817","name":"\u91ce\u732a\u6c9f\u6751\u59d4\u4f1a","short_name":"\u91ce\u732a\u6c9f","merger_name":"\u56db\u5ddd,\u5357\u5145,\u987a\u5e86,\u674e\u5bb6,\u91ce\u732a\u6c9f","pinyin":"YeZhuGou","lng":"106.165000","lat":"31.079760"},{"id":578142,"parent_id":578133,"level":4,"area_code":"511302107208","zip_code":"637546","city_code":"0817","name":"\u91d1\u73af\u4e95\u6751\u59d4\u4f1a","short_name":"\u91d1\u73af\u4e95","merger_name":"\u56db\u5ddd,\u5357\u5145,\u987a\u5e86,\u674e\u5bb6,\u91d1\u73af\u4e95","pinyin":"JinHuanJing","lng":"106.160670","lat":"31.071890"},{"id":578143,"parent_id":578133,"level":4,"area_code":"511302107209","zip_code":"637546","city_code":"0817","name":"\u9ad8\u5bb6\u6c9f\u6751\u59d4\u4f1a","short_name":"\u9ad8\u5bb6\u6c9f","merger_name":"\u56db\u5ddd,\u5357\u5145,\u987a\u5e86,\u674e\u5bb6,\u9ad8\u5bb6\u6c9f","pinyin":"GaoJiaGou","lng":"106.312420","lat":"30.877380"},{"id":578144,"parent_id":578133,"level":4,"area_code":"511302107210","zip_code":"637546","city_code":"0817","name":"\u5e9e\u5bb6\u5eb5\u6751\u59d4\u4f1a","short_name":"\u5e9e\u5bb6\u5eb5","merger_name":"\u56db\u5ddd,\u5357\u5145,\u987a\u5e86,\u674e\u5bb6,\u5e9e\u5bb6\u5eb5","pinyin":"PangJiaAn","lng":"105.935760","lat":"31.175890"},{"id":578145,"parent_id":578133,"level":4,"area_code":"511302107211","zip_code":"637546","city_code":"0817","name":"\u6aac\u5b50\u6c9f\u6751\u59d4\u4f1a","short_name":"\u6aac\u5b50\u6c9f","merger_name":"\u56db\u5ddd,\u5357\u5145,\u987a\u5e86,\u674e\u5bb6,\u6aac\u5b50\u6c9f","pinyin":"MengZiGou","lng":"106.008990","lat":"30.510070"},{"id":578146,"parent_id":578133,"level":4,"area_code":"511302107212","zip_code":"637546","city_code":"0817","name":"\u56de\u9f99\u6c9f\u6751\u59d4\u4f1a","short_name":"\u56de\u9f99\u6c9f","merger_name":"\u56db\u5ddd,\u5357\u5145,\u987a\u5e86,\u674e\u5bb6,\u56de\u9f99\u6c9f","pinyin":"HuiLongGou","lng":"106.138604","lat":"31.052602"},{"id":578147,"parent_id":578133,"level":4,"area_code":"511302107213","zip_code":"637546","city_code":"0817","name":"\u90d1\u5bb6\u575d\u6751\u59d4\u4f1a","short_name":"\u90d1\u5bb6\u575d","merger_name":"\u56db\u5ddd,\u5357\u5145,\u987a\u5e86,\u674e\u5bb6,\u90d1\u5bb6\u575d","pinyin":"ZhengJiaBa","lng":"106.138604","lat":"31.052602"},{"id":578148,"parent_id":578133,"level":4,"area_code":"511302107214","zip_code":"637546","city_code":"0817","name":"\u6c34\u89c2\u97f3\u6751\u59d4\u4f1a","short_name":"\u6c34\u89c2\u97f3","merger_name":"\u56db\u5ddd,\u5357\u5145,\u987a\u5e86,\u674e\u5bb6,\u6c34\u89c2\u97f3","pinyin":"ShuiGuanYin","lng":"106.148552","lat":"31.079209"},{"id":578149,"parent_id":578133,"level":4,"area_code":"511302107215","zip_code":"637546","city_code":"0817","name":"\u6768\u67f3\u6e7e\u6751\u59d4\u4f1a","short_name":"\u6768\u67f3\u6e7e","merger_name":"\u56db\u5ddd,\u5357\u5145,\u987a\u5e86,\u674e\u5bb6,\u6768\u67f3\u6e7e","pinyin":"YangLiuWan","lng":"106.150130","lat":"31.083830"},{"id":578150,"parent_id":578133,"level":4,"area_code":"511302107216","zip_code":"637546","city_code":"0817","name":"\u6307\u8def\u7891\u6751\u59d4\u4f1a","short_name":"\u6307\u8def\u7891","merger_name":"\u56db\u5ddd,\u5357\u5145,\u987a\u5e86,\u674e\u5bb6,\u6307\u8def\u7891","pinyin":"ZhiLuBei","lng":"106.197010","lat":"30.869150"},{"id":578151,"parent_id":577969,"level":3,"area_code":"511302108000","zip_code":"637548","city_code":"0817","name":"\u53cc\u6865\u9547","short_name":"\u53cc\u6865","merger_name":"\u56db\u5ddd,\u5357\u5145,\u987a\u5e86,\u53cc\u6865","pinyin":"ShuangQiao","lng":"106.072830","lat":"31.053590"},{"id":578152,"parent_id":578151,"level":4,"area_code":"511302108201","zip_code":"637548","city_code":"0817","name":"\u9ec4\u695d\u6c9f\u6751\u59d4\u4f1a","short_name":"\u9ec4\u695d\u6c9f","merger_name":"\u56db\u5ddd,\u5357\u5145,\u987a\u5e86,\u53cc\u6865,\u9ec4\u695d\u6c9f","pinyin":"HuangLianGou","lng":"106.019060","lat":"30.946890"},{"id":578153,"parent_id":578151,"level":4,"area_code":"511302108202","zip_code":"637548","city_code":"0817","name":"\u4e54\u5bb6\u6e7e\u6751\u59d4\u4f1a","short_name":"\u4e54\u5bb6\u6e7e","merger_name":"\u56db\u5ddd,\u5357\u5145,\u987a\u5e86,\u53cc\u6865,\u4e54\u5bb6\u6e7e","pinyin":"QiaoJiaWan","lng":"106.296076","lat":"31.626401"},{"id":578154,"parent_id":578151,"level":4,"area_code":"511302108203","zip_code":"637548","city_code":"0817","name":"\u5b98\u4e8c\u6c9f\u6751\u59d4\u4f1a","short_name":"\u5b98\u4e8c\u6c9f","merger_name":"\u56db\u5ddd,\u5357\u5145,\u987a\u5e86,\u53cc\u6865,\u5b98\u4e8c\u6c9f","pinyin":"GuanErGou","lng":"106.059460","lat":"31.044530"},{"id":578155,"parent_id":578151,"level":4,"area_code":"511302108204","zip_code":"637548","city_code":"0817","name":"\u818f\u5b50\u6c9f\u6751\u59d4\u4f1a","short_name":"\u818f\u5b50\u6c9f","merger_name":"\u56db\u5ddd,\u5357\u5145,\u987a\u5e86,\u53cc\u6865,\u818f\u5b50\u6c9f","pinyin":"GaoZiGou","lng":"106.070120","lat":"31.049660"},{"id":578156,"parent_id":578151,"level":4,"area_code":"511302108205","zip_code":"637548","city_code":"0817","name":"\u767d\u9e64\u6c9f\u6751\u59d4\u4f1a","short_name":"\u767d\u9e64\u6c9f","merger_name":"\u56db\u5ddd,\u5357\u5145,\u987a\u5e86,\u53cc\u6865,\u767d\u9e64\u6c9f","pinyin":"BaiHeGou","lng":"106.093560","lat":"31.046710"},{"id":578157,"parent_id":578151,"level":4,"area_code":"511302108206","zip_code":"637548","city_code":"0817","name":"\u8881\u5bb6\u6c9f\u6751\u59d4\u4f1a","short_name":"\u8881\u5bb6\u6c9f","merger_name":"\u56db\u5ddd,\u5357\u5145,\u987a\u5e86,\u53cc\u6865,\u8881\u5bb6\u6c9f","pinyin":"YuanJiaGou","lng":"106.084960","lat":"31.063510"},{"id":578158,"parent_id":578151,"level":4,"area_code":"511302108207","zip_code":"637548","city_code":"0817","name":"\u65b0\u573a\u57ad\u6751\u59d4\u4f1a","short_name":"\u65b0\u573a\u57ad","merger_name":"\u56db\u5ddd,\u5357\u5145,\u987a\u5e86,\u53cc\u6865,\u65b0\u573a\u57ad","pinyin":"XinChangYa","lng":"105.964100","lat":"31.339636"},{"id":578159,"parent_id":578151,"level":4,"area_code":"511302108208","zip_code":"637548","city_code":"0817","name":"\u5927\u78e8\u6e7e\u6751\u59d4\u4f1a","short_name":"\u5927\u78e8\u6e7e","merger_name":"\u56db\u5ddd,\u5357\u5145,\u987a\u5e86,\u53cc\u6865,\u5927\u78e8\u6e7e","pinyin":"DaMoWan","lng":"106.071240","lat":"31.073900"},{"id":578160,"parent_id":578151,"level":4,"area_code":"511302108209","zip_code":"637548","city_code":"0817","name":"\u5f6d\u5c4b\u6751\u59d4\u4f1a","short_name":"\u5f6d\u5c4b","merger_name":"\u56db\u5ddd,\u5357\u5145,\u987a\u5e86,\u53cc\u6865,\u5f6d\u5c4b","pinyin":"PengWu","lng":"106.077830","lat":"31.062530"},{"id":578161,"parent_id":578151,"level":4,"area_code":"511302108210","zip_code":"637548","city_code":"0817","name":"\u9a6c\u9e23\u57ad\u6751\u59d4\u4f1a","short_name":"\u9a6c\u9e23\u57ad","merger_name":"\u56db\u5ddd,\u5357\u5145,\u987a\u5e86,\u53cc\u6865,\u9a6c\u9e23\u57ad","pinyin":"MaMingYa","lng":"106.086580","lat":"31.055370"},{"id":578162,"parent_id":577969,"level":3,"area_code":"511302110000","zip_code":"637504","city_code":"0817","name":"\u642c\u7f7e\u9547","short_name":"\u642c\u7f7e","merger_name":"\u56db\u5ddd,\u5357\u5145,\u987a\u5e86,\u642c\u7f7e","pinyin":"BanZeng","lng":"106.166850","lat":"30.884070"},{"id":578163,"parent_id":578162,"level":4,"area_code":"511302110001","zip_code":"637504","city_code":"0817","name":"\u77f3\u72d7\u575d\u793e\u533a\u5c45\u59d4\u4f1a","short_name":"\u77f3\u72d7\u575d","merger_name":"\u56db\u5ddd,\u5357\u5145,\u987a\u5e86,\u642c\u7f7e,\u77f3\u72d7\u575d","pinyin":"ShiGouBa","lng":"106.117599","lat":"30.828383"},{"id":578164,"parent_id":578162,"level":4,"area_code":"511302110002","zip_code":"637504","city_code":"0817","name":"\u7ee2\u7eba\u793e\u533a\u5c45\u59d4\u4f1a","short_name":"\u7ee2\u7eba","merger_name":"\u56db\u5ddd,\u5357\u5145,\u987a\u5e86,\u642c\u7f7e,\u7ee2\u7eba","pinyin":"JuanFang","lng":"106.121244","lat":"30.836551"},{"id":578165,"parent_id":578162,"level":4,"area_code":"511302110201","zip_code":"637504","city_code":"0817","name":"\u5e9e\u5bb6\u5be8\u6751\u59d4\u4f1a","short_name":"\u5e9e\u5bb6\u5be8","merger_name":"\u56db\u5ddd,\u5357\u5145,\u987a\u5e86,\u642c\u7f7e,\u5e9e\u5bb6\u5be8","pinyin":"PangJiaZhai","lng":"106.164670","lat":"30.878150"},{"id":578166,"parent_id":578162,"level":4,"area_code":"511302110202","zip_code":"637504","city_code":"0817","name":"\u8001\u9e73\u5e99\u6751\u59d4\u4f1a","short_name":"\u8001\u9e73\u5e99","merger_name":"\u56db\u5ddd,\u5357\u5145,\u987a\u5e86,\u642c\u7f7e,\u8001\u9e73\u5e99","pinyin":"LaoGuanMiao","lng":"106.128430","lat":"30.874890"},{"id":578167,"parent_id":578162,"level":4,"area_code":"511302110203","zip_code":"637504","city_code":"0817","name":"\u6768\u56db\u575d\u6751\u59d4\u4f1a","short_name":"\u6768\u56db\u575d","merger_name":"\u56db\u5ddd,\u5357\u5145,\u987a\u5e86,\u642c\u7f7e,\u6768\u56db\u575d","pinyin":"YangSiBa","lng":"106.149650","lat":"30.900970"},{"id":578168,"parent_id":578162,"level":4,"area_code":"511302110204","zip_code":"637504","city_code":"0817","name":"\u5eb7\u5bb6\u5e97\u6751\u59d4\u4f1a","short_name":"\u5eb7\u5bb6\u5e97","merger_name":"\u56db\u5ddd,\u5357\u5145,\u987a\u5e86,\u642c\u7f7e,\u5eb7\u5bb6\u5e97","pinyin":"KangJiaDian","lng":"106.149650","lat":"30.900970"},{"id":578169,"parent_id":578162,"level":4,"area_code":"511302110205","zip_code":"637504","city_code":"0817","name":"\u51c9\u6c34\u4e95\u6751\u59d4\u4f1a","short_name":"\u51c9\u6c34\u4e95","merger_name":"\u56db\u5ddd,\u5357\u5145,\u987a\u5e86,\u642c\u7f7e,\u51c9\u6c34\u4e95","pinyin":"LiangShuiJing","lng":"106.171930","lat":"30.902240"},{"id":578170,"parent_id":578162,"level":4,"area_code":"511302110206","zip_code":"637504","city_code":"0817","name":"\u77f3\u5e99\u5b50\u6751\u59d4\u4f1a","short_name":"\u77f3\u5e99\u5b50","merger_name":"\u56db\u5ddd,\u5357\u5145,\u987a\u5e86,\u642c\u7f7e,\u77f3\u5e99\u5b50","pinyin":"ShiMiaoZi","lng":"106.171930","lat":"30.902240"},{"id":578171,"parent_id":578162,"level":4,"area_code":"511302110207","zip_code":"637504","city_code":"0817","name":"\u5c0f\u6cb3\u575d\u6751\u59d4\u4f1a","short_name":"\u5c0f\u6cb3\u575d","merger_name":"\u56db\u5ddd,\u5357\u5145,\u987a\u5e86,\u642c\u7f7e,\u5c0f\u6cb3\u575d","pinyin":"XiaoHeBa","lng":"106.145200","lat":"30.936140"},{"id":578172,"parent_id":578162,"level":4,"area_code":"511302110208","zip_code":"637504","city_code":"0817","name":"\u9752\u5c71\u575d\u6751\u59d4\u4f1a","short_name":"\u9752\u5c71\u575d","merger_name":"\u56db\u5ddd,\u5357\u5145,\u987a\u5e86,\u642c\u7f7e,\u9752\u5c71\u575d","pinyin":"QingShanBa","lng":"106.163720","lat":"30.918610"},{"id":578173,"parent_id":578162,"level":4,"area_code":"511302110209","zip_code":"637504","city_code":"0817","name":"\u5e72\u5830\u5858\u6751\u59d4\u4f1a","short_name":"\u5e72\u5830\u5858","merger_name":"\u56db\u5ddd,\u5357\u5145,\u987a\u5e86,\u642c\u7f7e,\u5e72\u5830\u5858","pinyin":"GanYanTang","lng":"106.171930","lat":"30.902240"},{"id":578174,"parent_id":578162,"level":4,"area_code":"511302110210","zip_code":"637504","city_code":"0817","name":"\u7af9\u6797\u5bfa\u6751\u59d4\u4f1a","short_name":"\u7af9\u6797\u5bfa","merger_name":"\u56db\u5ddd,\u5357\u5145,\u987a\u5e86,\u642c\u7f7e,\u7af9\u6797\u5bfa","pinyin":"ZhuLinSi","lng":"106.149650","lat":"30.900970"},{"id":578175,"parent_id":578162,"level":4,"area_code":"511302110211","zip_code":"637504","city_code":"0817","name":"\u5ef6\u5bff\u5bfa\u6751\u59d4\u4f1a","short_name":"\u5ef6\u5bff\u5bfa","merger_name":"\u56db\u5ddd,\u5357\u5145,\u987a\u5e86,\u642c\u7f7e,\u5ef6\u5bff\u5bfa","pinyin":"YanShouSi","lng":"106.151000","lat":"30.890240"},{"id":578176,"parent_id":578162,"level":4,"area_code":"511302110212","zip_code":"637504","city_code":"0817","name":"\u642c\u7f7e\u6eaa\u6751\u59d4\u4f1a","short_name":"\u642c\u7f7e\u6eaa","merger_name":"\u56db\u5ddd,\u5357\u5145,\u987a\u5e86,\u642c\u7f7e,\u642c\u7f7e\u6eaa","pinyin":"BanZengXi","lng":"106.128430","lat":"30.874890"},{"id":578177,"parent_id":577969,"level":3,"area_code":"511302111000","zip_code":"637552","city_code":"0817","name":"\u5927\u6797\u9547","short_name":"\u5927\u6797","merger_name":"\u56db\u5ddd,\u5357\u5145,\u987a\u5e86,\u5927\u6797","pinyin":"DaLin","lng":"106.145680","lat":"30.934030"},{"id":578178,"parent_id":578177,"level":4,"area_code":"511302111201","zip_code":"637552","city_code":"0817","name":"\u5927\u6797\u5bfa\u6751\u59d4\u4f1a","short_name":"\u5927\u6797\u5bfa","merger_name":"\u56db\u5ddd,\u5357\u5145,\u987a\u5e86,\u5927\u6797,\u5927\u6797\u5bfa","pinyin":"DaLinSi","lng":"106.145200","lat":"30.936140"},{"id":578179,"parent_id":578177,"level":4,"area_code":"511302111202","zip_code":"637552","city_code":"0817","name":"\u9976\u5bb6\u5899\u6751\u59d4\u4f1a","short_name":"\u9976\u5bb6\u5899","merger_name":"\u56db\u5ddd,\u5357\u5145,\u987a\u5e86,\u5927\u6797,\u9976\u5bb6\u5899","pinyin":"RaoJiaQiang","lng":"106.149650","lat":"30.900970"},{"id":578180,"parent_id":578177,"level":4,"area_code":"511302111203","zip_code":"637552","city_code":"0817","name":"\u77f3\u5cad\u6751\u59d4\u4f1a","short_name":"\u77f3\u5cad","merger_name":"\u56db\u5ddd,\u5357\u5145,\u987a\u5e86,\u5927\u6797,\u77f3\u5cad","pinyin":"ShiLing","lng":"106.146610","lat":"30.934890"},{"id":578181,"parent_id":578177,"level":4,"area_code":"511302111204","zip_code":"637552","city_code":"0817","name":"\u5357\u7530\u5bfa\u6751\u59d4\u4f1a","short_name":"\u5357\u7530\u5bfa","merger_name":"\u56db\u5ddd,\u5357\u5145,\u987a\u5e86,\u5927\u6797,\u5357\u7530\u5bfa","pinyin":"NanTianSi","lng":"106.157790","lat":"30.936230"},{"id":578182,"parent_id":578177,"level":4,"area_code":"511302111205","zip_code":"637552","city_code":"0817","name":"\u6cb9\u623f\u6751\u59d4\u4f1a","short_name":"\u6cb9\u623f","merger_name":"\u56db\u5ddd,\u5357\u5145,\u987a\u5e86,\u5927\u6797,\u6cb9\u623f","pinyin":"YouFang","lng":"106.171930","lat":"30.902240"},{"id":578183,"parent_id":578177,"level":4,"area_code":"511302111206","zip_code":"637552","city_code":"0817","name":"\u660c\u5bab\u6751\u59d4\u4f1a","short_name":"\u660c\u5bab","merger_name":"\u56db\u5ddd,\u5357\u5145,\u987a\u5e86,\u5927\u6797,\u660c\u5bab","pinyin":"ChangGong","lng":"106.157830","lat":"30.958710"},{"id":578184,"parent_id":578177,"level":4,"area_code":"511302111207","zip_code":"637552","city_code":"0817","name":"\u6587\u5bb6\u6c9f\u6751\u59d4\u4f1a","short_name":"\u6587\u5bb6\u6c9f","merger_name":"\u56db\u5ddd,\u5357\u5145,\u987a\u5e86,\u5927\u6797,\u6587\u5bb6\u6c9f","pinyin":"WenJiaGou","lng":"106.371443","lat":"31.484780"},{"id":578185,"parent_id":578177,"level":4,"area_code":"511302111208","zip_code":"637552","city_code":"0817","name":"\u77f3\u9a6c\u5634\u6751\u59d4\u4f1a","short_name":"\u77f3\u9a6c\u5634","merger_name":"\u56db\u5ddd,\u5357\u5145,\u987a\u5e86,\u5927\u6797,\u77f3\u9a6c\u5634","pinyin":"ShiMaZui","lng":"106.145200","lat":"30.936140"},{"id":578186,"parent_id":578177,"level":4,"area_code":"511302111209","zip_code":"637552","city_code":"0817","name":"\u674e\u5bb6\u575d\u6751\u59d4\u4f1a","short_name":"\u674e\u5bb6\u575d","merger_name":"\u56db\u5ddd,\u5357\u5145,\u987a\u5e86,\u5927\u6797,\u674e\u5bb6\u575d","pinyin":"LiJiaBa","lng":"106.171930","lat":"30.902240"},{"id":578187,"parent_id":577969,"level":3,"area_code":"511302112000","zip_code":"637549","city_code":"0817","name":"\u8f89\u666f\u9547","short_name":"\u8f89\u666f","merger_name":"\u56db\u5ddd,\u5357\u5145,\u987a\u5e86,\u8f89\u666f","pinyin":"HuiJing","lng":"106.133507","lat":"31.020836"},{"id":578188,"parent_id":578187,"level":4,"area_code":"511302112201","zip_code":"637549","city_code":"0817","name":"\u8349\u575d\u573a\u6751\u59d4\u4f1a","short_name":"\u8349\u575d\u573a","merger_name":"\u56db\u5ddd,\u5357\u5145,\u987a\u5e86,\u8f89\u666f,\u8349\u575d\u573a","pinyin":"CaoBaChang","lng":"106.148000","lat":"31.015050"},{"id":578189,"parent_id":578187,"level":4,"area_code":"511302112202","zip_code":"637549","city_code":"0817","name":"\u6865\u575d\u6c9f\u6751\u59d4\u4f1a","short_name":"\u6865\u575d\u6c9f","merger_name":"\u56db\u5ddd,\u5357\u5145,\u987a\u5e86,\u8f89\u666f,\u6865\u575d\u6c9f","pinyin":"QiaoBaGou","lng":"106.175576","lat":"31.221182"},{"id":578190,"parent_id":578187,"level":4,"area_code":"511302112203","zip_code":"637549","city_code":"0817","name":"\u6bdb\u575d\u5b50\u6751\u59d4\u4f1a","short_name":"\u6bdb\u575d\u5b50","merger_name":"\u56db\u5ddd,\u5357\u5145,\u987a\u5e86,\u8f89\u666f,\u6bdb\u575d\u5b50","pinyin":"MaoBaZi","lng":"106.174970","lat":"31.011360"},{"id":578191,"parent_id":578187,"level":4,"area_code":"511302112204","zip_code":"637549","city_code":"0817","name":"\u5cb3\u5bb6\u5c71\u6751\u59d4\u4f1a","short_name":"\u5cb3\u5bb6\u5c71","merger_name":"\u56db\u5ddd,\u5357\u5145,\u987a\u5e86,\u8f89\u666f,\u5cb3\u5bb6\u5c71","pinyin":"YueJiaShan","lng":"106.085960","lat":"30.855390"},{"id":578192,"parent_id":578187,"level":4,"area_code":"511302112205","zip_code":"637549","city_code":"0817","name":"\u5927\u5830\u6c9f\u6751\u59d4\u4f1a","short_name":"\u5927\u5830\u6c9f","merger_name":"\u56db\u5ddd,\u5357\u5145,\u987a\u5e86,\u8f89\u666f,\u5927\u5830\u6c9f","pinyin":"DaYanGou","lng":"106.085960","lat":"30.855390"},{"id":578193,"parent_id":578187,"level":4,"area_code":"511302112206","zip_code":"637549","city_code":"0817","name":"\u4e94\u9f99\u6865\u6751\u59d4\u4f1a","short_name":"\u4e94\u9f99\u6865","merger_name":"\u56db\u5ddd,\u5357\u5145,\u987a\u5e86,\u8f89\u666f,\u4e94\u9f99\u6865","pinyin":"WuLongQiao","lng":"106.147730","lat":"31.070646"},{"id":578194,"parent_id":578187,"level":4,"area_code":"511302112207","zip_code":"637549","city_code":"0817","name":"\u53cc\u6842\u6751\u59d4\u4f1a","short_name":"\u53cc\u6842","merger_name":"\u56db\u5ddd,\u5357\u5145,\u987a\u5e86,\u8f89\u666f,\u53cc\u6842","pinyin":"ShuangGui","lng":"106.175576","lat":"31.221182"},{"id":578195,"parent_id":578187,"level":4,"area_code":"511302112208","zip_code":"637549","city_code":"0817","name":"\u5f3a\u5bb6\u5634\u6751\u59d4\u4f1a","short_name":"\u5f3a\u5bb6\u5634","merger_name":"\u56db\u5ddd,\u5357\u5145,\u987a\u5e86,\u8f89\u666f,\u5f3a\u5bb6\u5634","pinyin":"QiangJiaZui","lng":"106.175576","lat":"31.221182"},{"id":578196,"parent_id":578187,"level":4,"area_code":"511302112209","zip_code":"637549","city_code":"0817","name":"\u6e05\u5e73\u6751\u59d4\u4f1a","short_name":"\u6e05\u5e73","merger_name":"\u56db\u5ddd,\u5357\u5145,\u987a\u5e86,\u8f89\u666f,\u6e05\u5e73","pinyin":"QingPing","lng":"106.134440","lat":"31.020610"},{"id":578197,"parent_id":578187,"level":4,"area_code":"511302112210","zip_code":"637549","city_code":"0817","name":"\u9a6c\u978d\u5c71\u6751\u59d4\u4f1a","short_name":"\u9a6c\u978d\u5c71","merger_name":"\u56db\u5ddd,\u5357\u5145,\u987a\u5e86,\u8f89\u666f,\u9a6c\u978d\u5c71","pinyin":"MaAnShan","lng":"106.131620","lat":"31.013280"},{"id":578198,"parent_id":578187,"level":4,"area_code":"511302112211","zip_code":"637549","city_code":"0817","name":"\u91ce\u9e2d\u6ee9\u6751\u59d4\u4f1a","short_name":"\u91ce\u9e2d\u6ee9","merger_name":"\u56db\u5ddd,\u5357\u5145,\u987a\u5e86,\u8f89\u666f,\u91ce\u9e2d\u6ee9","pinyin":"YeYaTan","lng":"106.124540","lat":"31.003490"},{"id":578199,"parent_id":578187,"level":4,"area_code":"511302112212","zip_code":"637549","city_code":"0817","name":"\u6d2a\u6b66\u6c9f\u6751\u59d4\u4f1a","short_name":"\u6d2a\u6b66\u6c9f","merger_name":"\u56db\u5ddd,\u5357\u5145,\u987a\u5e86,\u8f89\u666f,\u6d2a\u6b66\u6c9f","pinyin":"HongWuGou","lng":"106.141480","lat":"31.002030"},{"id":578200,"parent_id":578187,"level":4,"area_code":"511302112213","zip_code":"637549","city_code":"0817","name":"\u534e\u5149\u5e99\u6751\u59d4\u4f1a","short_name":"\u534e\u5149\u5e99","merger_name":"\u56db\u5ddd,\u5357\u5145,\u987a\u5e86,\u8f89\u666f,\u534e\u5149\u5e99","pinyin":"HuaGuangMiao","lng":"106.139540","lat":"31.006530"},{"id":578201,"parent_id":577969,"level":3,"area_code":"511302113000","zip_code":"637550","city_code":"0817","name":"\u6c38\u4e30\u9547","short_name":"\u6c38\u4e30","merger_name":"\u56db\u5ddd,\u5357\u5145,\u987a\u5e86,\u6c38\u4e30","pinyin":"YongFeng","lng":"106.075758","lat":"31.027672"},{"id":578202,"parent_id":578201,"level":4,"area_code":"511302113201","zip_code":"637550","city_code":"0817","name":"\u6c38\u4e30\u6751\u59d4\u4f1a","short_name":"\u6c38\u4e30","merger_name":"\u56db\u5ddd,\u5357\u5145,\u987a\u5e86,\u6c38\u4e30,\u6c38\u4e30","pinyin":"YongFeng","lng":"106.075758","lat":"31.027672"},{"id":578203,"parent_id":578201,"level":4,"area_code":"511302113202","zip_code":"637550","city_code":"0817","name":"\u4f5c\u574a\u5634\u6751\u59d4\u4f1a","short_name":"\u4f5c\u574a\u5634","merger_name":"\u56db\u5ddd,\u5357\u5145,\u987a\u5e86,\u6c38\u4e30,\u4f5c\u574a\u5634","pinyin":"ZuoFangZui","lng":"106.079480","lat":"31.037490"},{"id":578204,"parent_id":578201,"level":4,"area_code":"511302113203","zip_code":"637550","city_code":"0817","name":"\u7389\u7687\u5cad\u6751\u59d4\u4f1a","short_name":"\u7389\u7687\u5cad","merger_name":"\u56db\u5ddd,\u5357\u5145,\u987a\u5e86,\u6c38\u4e30,\u7389\u7687\u5cad","pinyin":"YuHuangLing","lng":"106.065830","lat":"31.033070"},{"id":578205,"parent_id":578201,"level":4,"area_code":"511302113204","zip_code":"637550","city_code":"0817","name":"\u9ec4\u571f\u89c2\u6751\u59d4\u4f1a","short_name":"\u9ec4\u571f\u89c2","merger_name":"\u56db\u5ddd,\u5357\u5145,\u987a\u5e86,\u6c38\u4e30,\u9ec4\u571f\u89c2","pinyin":"HuangTuGuan","lng":"106.049920","lat":"31.019290"},{"id":578206,"parent_id":578201,"level":4,"area_code":"511302113205","zip_code":"637550","city_code":"0817","name":"\u5e99\u5c71\u5cad\u6751\u59d4\u4f1a","short_name":"\u5e99\u5c71\u5cad","merger_name":"\u56db\u5ddd,\u5357\u5145,\u987a\u5e86,\u6c38\u4e30,\u5e99\u5c71\u5cad","pinyin":"MiaoShanLing","lng":"106.061490","lat":"31.020590"},{"id":578207,"parent_id":578201,"level":4,"area_code":"511302113206","zip_code":"637550","city_code":"0817","name":"\u592a\u9633\u5c71\u6751\u59d4\u4f1a","short_name":"\u592a\u9633\u5c71","merger_name":"\u56db\u5ddd,\u5357\u5145,\u987a\u5e86,\u6c38\u4e30,\u592a\u9633\u5c71","pinyin":"TaiYangShan","lng":"106.096240","lat":"31.042700"},{"id":578208,"parent_id":578201,"level":4,"area_code":"511302113207","zip_code":"637550","city_code":"0817","name":"\u6253\u9523\u5c71\u6751\u59d4\u4f1a","short_name":"\u6253\u9523\u5c71","merger_name":"\u56db\u5ddd,\u5357\u5145,\u987a\u5e86,\u6c38\u4e30,\u6253\u9523\u5c71","pinyin":"DaLuoShan","lng":"106.072290","lat":"31.012130"},{"id":578209,"parent_id":578201,"level":4,"area_code":"511302113208","zip_code":"637550","city_code":"0817","name":"\u8299\u84c9\u5bfa\u6751\u59d4\u4f1a","short_name":"\u8299\u84c9\u5bfa","merger_name":"\u56db\u5ddd,\u5357\u5145,\u987a\u5e86,\u6c38\u4e30,\u8299\u84c9\u5bfa","pinyin":"FuRongSi","lng":"106.089720","lat":"31.031840"},{"id":578210,"parent_id":578201,"level":4,"area_code":"511302113209","zip_code":"637550","city_code":"0817","name":"\u4e34\u6c5f\u5bfa\u6751\u59d4\u4f1a","short_name":"\u4e34\u6c5f\u5bfa","merger_name":"\u56db\u5ddd,\u5357\u5145,\u987a\u5e86,\u6c38\u4e30,\u4e34\u6c5f\u5bfa","pinyin":"LinJiangSi","lng":"106.085920","lat":"30.993940"},{"id":578211,"parent_id":578201,"level":4,"area_code":"511302113210","zip_code":"637550","city_code":"0817","name":"\u8001\u864e\u5634\u6751\u59d4\u4f1a","short_name":"\u8001\u864e\u5634","merger_name":"\u56db\u5ddd,\u5357\u5145,\u987a\u5e86,\u6c38\u4e30,\u8001\u864e\u5634","pinyin":"LaoHuZui","lng":"106.084370","lat":"31.004380"},{"id":578212,"parent_id":578201,"level":4,"area_code":"511302113211","zip_code":"637550","city_code":"0817","name":"\u6851\u6811\u6e7e\u6751\u59d4\u4f1a","short_name":"\u6851\u6811\u6e7e","merger_name":"\u56db\u5ddd,\u5357\u5145,\u987a\u5e86,\u6c38\u4e30,\u6851\u6811\u6e7e","pinyin":"SangShuWan","lng":"106.142780","lat":"30.587780"},{"id":578213,"parent_id":578201,"level":4,"area_code":"511302113212","zip_code":"637550","city_code":"0817","name":"\u674e\u671d\u6c9f\u6751\u59d4\u4f1a","short_name":"\u674e\u671d\u6c9f","merger_name":"\u56db\u5ddd,\u5357\u5145,\u987a\u5e86,\u6c38\u4e30,\u674e\u671d\u6c9f","pinyin":"LiChaoGou","lng":"106.110760","lat":"31.004140"},{"id":578214,"parent_id":578201,"level":4,"area_code":"511302113213","zip_code":"637550","city_code":"0817","name":"\u957f\u6865\u6751\u59d4\u4f1a","short_name":"\u957f\u6865","merger_name":"\u56db\u5ddd,\u5357\u5145,\u987a\u5e86,\u6c38\u4e30,\u957f\u6865","pinyin":"ChangQiao","lng":"106.075758","lat":"31.027672"},{"id":578215,"parent_id":577969,"level":3,"area_code":"511302200000","zip_code":"637535","city_code":"0817","name":"\u65b0\u590d\u4e61","short_name":"\u65b0\u590d","merger_name":"\u56db\u5ddd,\u5357\u5145,\u987a\u5e86,\u65b0\u590d","pinyin":"XinFu","lng":"106.017470","lat":"30.850010"},{"id":578216,"parent_id":578215,"level":4,"area_code":"511302200201","zip_code":"637535","city_code":"0817","name":"\u5766\u5c71\u94fa\u6751\u59d4\u4f1a","short_name":"\u5766\u5c71\u94fa","merger_name":"\u56db\u5ddd,\u5357\u5145,\u987a\u5e86,\u65b0\u590d,\u5766\u5c71\u94fa","pinyin":"TanShanPu","lng":"106.046240","lat":"30.854020"},{"id":578217,"parent_id":578215,"level":4,"area_code":"511302200202","zip_code":"637535","city_code":"0817","name":"\u9ad8\u9636\u6cbf\u6751\u59d4\u4f1a","short_name":"\u9ad8\u9636\u6cbf","merger_name":"\u56db\u5ddd,\u5357\u5145,\u987a\u5e86,\u65b0\u590d,\u9ad8\u9636\u6cbf","pinyin":"GaoJieYan","lng":"106.027060","lat":"30.857760"},{"id":578218,"parent_id":578215,"level":4,"area_code":"511302200203","zip_code":"637535","city_code":"0817","name":"\u5143\u6c60\u575d\u6751\u59d4\u4f1a","short_name":"\u5143\u6c60\u575d","merger_name":"\u56db\u5ddd,\u5357\u5145,\u987a\u5e86,\u65b0\u590d,\u5143\u6c60\u575d","pinyin":"YuanChiBa","lng":"106.078250","lat":"30.784630"},{"id":578219,"parent_id":578215,"level":4,"area_code":"511302200204","zip_code":"637535","city_code":"0817","name":"\u5929\u751f\u6865\u6751\u59d4\u4f1a","short_name":"\u5929\u751f\u6865","merger_name":"\u56db\u5ddd,\u5357\u5145,\u987a\u5e86,\u65b0\u590d,\u5929\u751f\u6865","pinyin":"TianShengQiao","lng":"106.064664","lat":"30.828020"},{"id":578220,"parent_id":578215,"level":4,"area_code":"511302200205","zip_code":"637535","city_code":"0817","name":"\u6c34\u6c60\u575d\u6751\u59d4\u4f1a","short_name":"\u6c34\u6c60\u575d","merger_name":"\u56db\u5ddd,\u5357\u5145,\u987a\u5e86,\u65b0\u590d,\u6c34\u6c60\u575d","pinyin":"ShuiChiBa","lng":"106.064664","lat":"30.828020"},{"id":578221,"parent_id":578215,"level":4,"area_code":"511302200206","zip_code":"637535","city_code":"0817","name":"\u897f\u6cb3\u8fb9\u6751\u59d4\u4f1a","short_name":"\u897f\u6cb3\u8fb9","merger_name":"\u56db\u5ddd,\u5357\u5145,\u987a\u5e86,\u65b0\u590d,\u897f\u6cb3\u8fb9","pinyin":"XiHeBian","lng":"106.006330","lat":"30.854400"},{"id":578222,"parent_id":578215,"level":4,"area_code":"511302200207","zip_code":"637535","city_code":"0817","name":"\u957f\u8fdc\u6c9f\u6751\u59d4\u4f1a","short_name":"\u957f\u8fdc\u6c9f","merger_name":"\u56db\u5ddd,\u5357\u5145,\u987a\u5e86,\u65b0\u590d,\u957f\u8fdc\u6c9f","pinyin":"ChangYuanGou","lng":"106.000420","lat":"30.864000"},{"id":578223,"parent_id":578215,"level":4,"area_code":"511302200208","zip_code":"637535","city_code":"0817","name":"\u8c22\u6751\u6cb3\u6751\u59d4\u4f1a","short_name":"\u8c22\u6751\u6cb3","merger_name":"\u56db\u5ddd,\u5357\u5145,\u987a\u5e86,\u65b0\u590d,\u8c22\u6751\u6cb3","pinyin":"XieCunHe","lng":"106.085960","lat":"30.855390"},{"id":578224,"parent_id":578215,"level":4,"area_code":"511302200209","zip_code":"637535","city_code":"0817","name":"\u56de\u9f99\u573a\u6751\u59d4\u4f1a","short_name":"\u56de\u9f99\u573a","merger_name":"\u56db\u5ddd,\u5357\u5145,\u987a\u5e86,\u65b0\u590d,\u56de\u9f99\u573a","pinyin":"HuiLongChang","lng":"106.175576","lat":"31.221182"},{"id":578225,"parent_id":578215,"level":4,"area_code":"511302200210","zip_code":"637535","city_code":"0817","name":"\u534a\u622a\u6c9f\u6751\u59d4\u4f1a","short_name":"\u534a\u622a\u6c9f","merger_name":"\u56db\u5ddd,\u5357\u5145,\u987a\u5e86,\u65b0\u590d,\u534a\u622a\u6c9f","pinyin":"BanJieGou","lng":"106.064664","lat":"30.828020"},{"id":578226,"parent_id":577969,"level":3,"area_code":"511302201000","zip_code":"637538","city_code":"0817","name":"\u540c\u4ec1\u4e61","short_name":"\u540c\u4ec1","merger_name":"\u56db\u5ddd,\u5357\u5145,\u987a\u5e86,\u540c\u4ec1","pinyin":"TongRen","lng":"105.964520","lat":"30.904700"},{"id":578227,"parent_id":578226,"level":4,"area_code":"511302201201","zip_code":"637538","city_code":"0817","name":"\u9001\u706b\u57ad\u6751\u59d4\u4f1a","short_name":"\u9001\u706b\u57ad","merger_name":"\u56db\u5ddd,\u5357\u5145,\u987a\u5e86,\u540c\u4ec1,\u9001\u706b\u57ad","pinyin":"SongHuoYa","lng":"105.975020","lat":"30.907630"},{"id":578228,"parent_id":578226,"level":4,"area_code":"511302201202","zip_code":"637538","city_code":"0817","name":"\u9752\u6728\u6865\u6751\u59d4\u4f1a","short_name":"\u9752\u6728\u6865","merger_name":"\u56db\u5ddd,\u5357\u5145,\u987a\u5e86,\u540c\u4ec1,\u9752\u6728\u6865","pinyin":"QingMuQiao","lng":"105.953960","lat":"30.897870"},{"id":578229,"parent_id":578226,"level":4,"area_code":"511302201203","zip_code":"637538","city_code":"0817","name":"\u56db\u65b9\u5be8\u6751\u59d4\u4f1a","short_name":"\u56db\u65b9\u5be8","merger_name":"\u56db\u5ddd,\u5357\u5145,\u987a\u5e86,\u540c\u4ec1,\u56db\u65b9\u5be8","pinyin":"SiFangZhai","lng":"105.964520","lat":"30.904700"},{"id":578230,"parent_id":578226,"level":4,"area_code":"511302201204","zip_code":"637538","city_code":"0817","name":"\u77f3\u4f5b\u5bfa\u6751\u59d4\u4f1a","short_name":"\u77f3\u4f5b\u5bfa","merger_name":"\u56db\u5ddd,\u5357\u5145,\u987a\u5e86,\u540c\u4ec1,\u77f3\u4f5b\u5bfa","pinyin":"ShiFoSi","lng":"105.827120","lat":"30.990370"},{"id":578231,"parent_id":578226,"level":4,"area_code":"511302201205","zip_code":"637538","city_code":"0817","name":"\u7ea2\u5ca9\u6751\u59d4\u4f1a","short_name":"\u7ea2\u5ca9","merger_name":"\u56db\u5ddd,\u5357\u5145,\u987a\u5e86,\u540c\u4ec1,\u7ea2\u5ca9","pinyin":"HongYan","lng":"105.990004","lat":"30.900064"},{"id":578232,"parent_id":578226,"level":4,"area_code":"511302201206","zip_code":"637538","city_code":"0817","name":"\u5370\u949f\u5bfa\u6751\u59d4\u4f1a","short_name":"\u5370\u949f\u5bfa","merger_name":"\u56db\u5ddd,\u5357\u5145,\u987a\u5e86,\u540c\u4ec1,\u5370\u949f\u5bfa","pinyin":"YinZhongSi","lng":"105.990004","lat":"30.900064"},{"id":578233,"parent_id":578226,"level":4,"area_code":"511302201207","zip_code":"637538","city_code":"0817","name":"\u767d\u8721\u575d\u6751\u59d4\u4f1a","short_name":"\u767d\u8721\u575d","merger_name":"\u56db\u5ddd,\u5357\u5145,\u987a\u5e86,\u540c\u4ec1,\u767d\u8721\u575d","pinyin":"BaiLaBa","lng":"105.988790","lat":"30.926990"},{"id":578234,"parent_id":578226,"level":4,"area_code":"511302201208","zip_code":"637538","city_code":"0817","name":"\u9f9f\u77f3\u575d\u6751\u59d4\u4f1a","short_name":"\u9f9f\u77f3\u575d","merger_name":"\u56db\u5ddd,\u5357\u5145,\u987a\u5e86,\u540c\u4ec1,\u9f9f\u77f3\u575d","pinyin":"GuiShiBa","lng":"105.977420","lat":"30.925210"},{"id":578235,"parent_id":578226,"level":4,"area_code":"511302201209","zip_code":"637538","city_code":"0817","name":"\u6ce5\u5c4b\u57ad\u6751\u59d4\u4f1a","short_name":"\u6ce5\u5c4b\u57ad","merger_name":"\u56db\u5ddd,\u5357\u5145,\u987a\u5e86,\u540c\u4ec1,\u6ce5\u5c4b\u57ad","pinyin":"NiWuYa","lng":"105.988970","lat":"30.938760"},{"id":578236,"parent_id":577969,"level":3,"area_code":"511302205000","zip_code":"637545","city_code":"0817","name":"\u68b5\u6bbf\u4e61","short_name":"\u68b5\u6bbf","merger_name":"\u56db\u5ddd,\u5357\u5145,\u987a\u5e86,\u68b5\u6bbf","pinyin":"FanDian","lng":"106.074920","lat":"30.959780"},{"id":578237,"parent_id":578236,"level":4,"area_code":"511302205201","zip_code":"637545","city_code":"0817","name":"\u9ece\u5bb6\u6c9f\u6751\u59d4\u4f1a","short_name":"\u9ece\u5bb6\u6c9f","merger_name":"\u56db\u5ddd,\u5357\u5145,\u987a\u5e86,\u68b5\u6bbf,\u9ece\u5bb6\u6c9f","pinyin":"LiJiaGou","lng":"106.175576","lat":"31.221182"},{"id":578238,"parent_id":578236,"level":4,"area_code":"511302205202","zip_code":"637545","city_code":"0817","name":"\u9648\u5bb6\u6c9f\u6751\u59d4\u4f1a","short_name":"\u9648\u5bb6\u6c9f","merger_name":"\u56db\u5ddd,\u5357\u5145,\u987a\u5e86,\u68b5\u6bbf,\u9648\u5bb6\u6c9f","pinyin":"ChenJiaGou","lng":"106.074920","lat":"30.959780"},{"id":578239,"parent_id":578236,"level":4,"area_code":"511302205203","zip_code":"637545","city_code":"0817","name":"\u5085\u5bb6\u6c9f\u6751\u59d4\u4f1a","short_name":"\u5085\u5bb6\u6c9f","merger_name":"\u56db\u5ddd,\u5357\u5145,\u987a\u5e86,\u68b5\u6bbf,\u5085\u5bb6\u6c9f","pinyin":"FuJiaGou","lng":"106.085960","lat":"30.855390"},{"id":578240,"parent_id":578236,"level":4,"area_code":"511302205204","zip_code":"637545","city_code":"0817","name":"\u5f90\u5bb6\u6c9f\u6751\u59d4\u4f1a","short_name":"\u5f90\u5bb6\u6c9f","merger_name":"\u56db\u5ddd,\u5357\u5145,\u987a\u5e86,\u68b5\u6bbf,\u5f90\u5bb6\u6c9f","pinyin":"XuJiaGou","lng":"106.006953","lat":"30.926152"},{"id":578241,"parent_id":578236,"level":4,"area_code":"511302205205","zip_code":"637545","city_code":"0817","name":"\u4e25\u5bb6\u6c9f\u6751\u59d4\u4f1a","short_name":"\u4e25\u5bb6\u6c9f","merger_name":"\u56db\u5ddd,\u5357\u5145,\u987a\u5e86,\u68b5\u6bbf,\u4e25\u5bb6\u6c9f","pinyin":"YanJiaGou","lng":"105.719110","lat":"31.580490"},{"id":578242,"parent_id":578236,"level":4,"area_code":"511302205206","zip_code":"637545","city_code":"0817","name":"\u8463\u5e72\u6c9f\u6751\u59d4\u4f1a","short_name":"\u8463\u5e72\u6c9f","merger_name":"\u56db\u5ddd,\u5357\u5145,\u987a\u5e86,\u68b5\u6bbf,\u8463\u5e72\u6c9f","pinyin":"DongGanGou","lng":"106.092260","lat":"30.953770"},{"id":578243,"parent_id":578236,"level":4,"area_code":"511302205207","zip_code":"637545","city_code":"0817","name":"\u8d39\u5bb6\u6c9f\u6751\u59d4\u4f1a","short_name":"\u8d39\u5bb6\u6c9f","merger_name":"\u56db\u5ddd,\u5357\u5145,\u987a\u5e86,\u68b5\u6bbf,\u8d39\u5bb6\u6c9f","pinyin":"FeiJiaGou","lng":"106.175576","lat":"31.221182"},{"id":578244,"parent_id":578236,"level":4,"area_code":"511302205208","zip_code":"637545","city_code":"0817","name":"\u5510\u5bb6\u6e7e\u6751\u59d4\u4f1a","short_name":"\u5510\u5bb6\u6e7e","merger_name":"\u56db\u5ddd,\u5357\u5145,\u987a\u5e86,\u68b5\u6bbf,\u5510\u5bb6\u6e7e","pinyin":"TangJiaWan","lng":"106.074920","lat":"30.959780"},{"id":578245,"parent_id":578236,"level":4,"area_code":"511302205209","zip_code":"637545","city_code":"0817","name":"\u5e38\u5b81\u9662\u6751\u59d4\u4f1a","short_name":"\u5e38\u5b81\u9662","merger_name":"\u56db\u5ddd,\u5357\u5145,\u987a\u5e86,\u68b5\u6bbf,\u5e38\u5b81\u9662","pinyin":"ChangNingYuan","lng":"106.095190","lat":"30.981970"},{"id":578246,"parent_id":578236,"level":4,"area_code":"511302205210","zip_code":"637545","city_code":"0817","name":"\u738b\u5bb6\u6c9f\u6751\u59d4\u4f1a","short_name":"\u738b\u5bb6\u6c9f","merger_name":"\u56db\u5ddd,\u5357\u5145,\u987a\u5e86,\u68b5\u6bbf,\u738b\u5bb6\u6c9f","pinyin":"WangJiaGou","lng":"106.006953","lat":"30.926152"},{"id":578247,"parent_id":577969,"level":3,"area_code":"511302206000","zip_code":"637542","city_code":"0817","name":"\u987a\u6cb3\u4e61","short_name":"\u987a\u6cb3","merger_name":"\u56db\u5ddd,\u5357\u5145,\u987a\u5e86,\u987a\u6cb3","pinyin":"ShunHe","lng":"106.035150","lat":"30.988380"},{"id":578248,"parent_id":578247,"level":4,"area_code":"511302206201","zip_code":"637542","city_code":"0817","name":"\u674e\u5bb6\u6e7e\u6751\u59d4\u4f1a","short_name":"\u674e\u5bb6\u6e7e","merger_name":"\u56db\u5ddd,\u5357\u5145,\u987a\u5e86,\u987a\u6cb3,\u674e\u5bb6\u6e7e","pinyin":"LiJiaWan","lng":"106.148552","lat":"31.079209"},{"id":578249,"parent_id":578247,"level":4,"area_code":"511302206202","zip_code":"637542","city_code":"0817","name":"\u6cd5\u534e\u6c9f\u6751\u59d4\u4f1a","short_name":"\u6cd5\u534e\u6c9f","merger_name":"\u56db\u5ddd,\u5357\u5145,\u987a\u5e86,\u987a\u6cb3,\u6cd5\u534e\u6c9f","pinyin":"FaHuaGou","lng":"106.025740","lat":"30.968970"},{"id":578250,"parent_id":578247,"level":4,"area_code":"511302206203","zip_code":"637542","city_code":"0817","name":"\u7075\u6f7c\u5c71\u6751\u59d4\u4f1a","short_name":"\u7075\u6f7c\u5c71","merger_name":"\u56db\u5ddd,\u5357\u5145,\u987a\u5e86,\u987a\u6cb3,\u7075\u6f7c\u5c71","pinyin":"LingTongShan","lng":"106.037050","lat":"30.989280"},{"id":578251,"parent_id":578247,"level":4,"area_code":"511302206204","zip_code":"637542","city_code":"0817","name":"\u9752\u5bb6\u5c71\u6751\u59d4\u4f1a","short_name":"\u9752\u5bb6\u5c71","merger_name":"\u56db\u5ddd,\u5357\u5145,\u987a\u5e86,\u987a\u6cb3,\u9752\u5bb6\u5c71","pinyin":"QingJiaShan","lng":"106.041190","lat":"30.968060"},{"id":578252,"parent_id":578247,"level":4,"area_code":"511302206205","zip_code":"637542","city_code":"0817","name":"\u4e03\u6c9f\u6751\u59d4\u4f1a","short_name":"\u4e03\u6c9f","merger_name":"\u56db\u5ddd,\u5357\u5145,\u987a\u5e86,\u987a\u6cb3,\u4e03\u6c9f","pinyin":"QiGou","lng":"106.131154","lat":"30.746125"},{"id":578253,"parent_id":578247,"level":4,"area_code":"511302206206","zip_code":"637542","city_code":"0817","name":"\u8d3e\u5bb6\u5e99\u6751\u59d4\u4f1a","short_name":"\u8d3e\u5bb6\u5e99","merger_name":"\u56db\u5ddd,\u5357\u5145,\u987a\u5e86,\u987a\u6cb3,\u8d3e\u5bb6\u5e99","pinyin":"JiaJiaMiao","lng":"106.113662","lat":"30.925375"},{"id":578254,"parent_id":578247,"level":4,"area_code":"511302206207","zip_code":"637542","city_code":"0817","name":"\u91d1\u89c2\u97f3\u6751\u59d4\u4f1a","short_name":"\u91d1\u89c2\u97f3","merger_name":"\u56db\u5ddd,\u5357\u5145,\u987a\u5e86,\u987a\u6cb3,\u91d1\u89c2\u97f3","pinyin":"JinGuanYin","lng":"106.056620","lat":"30.976200"},{"id":578255,"parent_id":578247,"level":4,"area_code":"511302206208","zip_code":"637542","city_code":"0817","name":"\u76d0\u4e95\u574e\u6751\u59d4\u4f1a","short_name":"\u76d0\u4e95\u574e","merger_name":"\u56db\u5ddd,\u5357\u5145,\u987a\u5e86,\u987a\u6cb3,\u76d0\u4e95\u574e","pinyin":"YanJingKan","lng":"106.067435","lat":"30.991554"},{"id":578256,"parent_id":578247,"level":4,"area_code":"511302206209","zip_code":"637542","city_code":"0817","name":"\u97f3\u5802\u6751\u59d4\u4f1a","short_name":"\u97f3\u5802","merger_name":"\u56db\u5ddd,\u5357\u5145,\u987a\u5e86,\u987a\u6cb3,\u97f3\u5802","pinyin":"YinTang","lng":"106.052730","lat":"30.999700"},{"id":578257,"parent_id":578247,"level":4,"area_code":"511302206210","zip_code":"637542","city_code":"0817","name":"\u4e94\u663e\u5e99\u6751\u59d4\u4f1a","short_name":"\u4e94\u663e\u5e99","merger_name":"\u56db\u5ddd,\u5357\u5145,\u987a\u5e86,\u987a\u6cb3,\u4e94\u663e\u5e99","pinyin":"WuXianMiao","lng":"105.854370","lat":"31.048290"},{"id":578258,"parent_id":577969,"level":3,"area_code":"511302207000","zip_code":"637543","city_code":"0817","name":"\u706f\u53f0\u4e61","short_name":"\u706f\u53f0","merger_name":"\u56db\u5ddd,\u5357\u5145,\u987a\u5e86,\u706f\u53f0","pinyin":"DengTai","lng":"106.184370","lat":"30.984960"},{"id":578259,"parent_id":578258,"level":4,"area_code":"511302207201","zip_code":"637543","city_code":"0817","name":"\u5362\u5bb6\u6e7e\u6751\u59d4\u4f1a","short_name":"\u5362\u5bb6\u6e7e","merger_name":"\u56db\u5ddd,\u5357\u5145,\u987a\u5e86,\u706f\u53f0,\u5362\u5bb6\u6e7e","pinyin":"LuJiaWan","lng":"106.361610","lat":"31.415270"},{"id":578260,"parent_id":578258,"level":4,"area_code":"511302207202","zip_code":"637543","city_code":"0817","name":"\u8c37\u5bb6\u5e99\u6751\u59d4\u4f1a","short_name":"\u8c37\u5bb6\u5e99","merger_name":"\u56db\u5ddd,\u5357\u5145,\u987a\u5e86,\u706f\u53f0,\u8c37\u5bb6\u5e99","pinyin":"GuJiaMiao","lng":"106.200410","lat":"30.991970"},{"id":578261,"parent_id":578258,"level":4,"area_code":"511302207203","zip_code":"637543","city_code":"0817","name":"\u8881\u5bb6\u5e99\u6751\u59d4\u4f1a","short_name":"\u8881\u5bb6\u5e99","merger_name":"\u56db\u5ddd,\u5357\u5145,\u987a\u5e86,\u706f\u53f0,\u8881\u5bb6\u5e99","pinyin":"YuanJiaMiao","lng":"106.081370","lat":"30.518780"},{"id":578262,"parent_id":578258,"level":4,"area_code":"511302207204","zip_code":"637543","city_code":"0817","name":"\u5c39\u5bb6\u7960\u6751\u59d4\u4f1a","short_name":"\u5c39\u5bb6\u7960","merger_name":"\u56db\u5ddd,\u5357\u5145,\u987a\u5e86,\u706f\u53f0,\u5c39\u5bb6\u7960","pinyin":"YinJiaCi","lng":"106.296422","lat":"31.716211"},{"id":578263,"parent_id":578258,"level":4,"area_code":"511302207205","zip_code":"637543","city_code":"0817","name":"\u6a1f\u6728\u6e7e\u6751\u59d4\u4f1a","short_name":"\u6a1f\u6728\u6e7e","merger_name":"\u56db\u5ddd,\u5357\u5145,\u987a\u5e86,\u706f\u53f0,\u6a1f\u6728\u6e7e","pinyin":"ZhangMuWan","lng":"106.173200","lat":"30.990600"},{"id":578264,"parent_id":578258,"level":4,"area_code":"511302207206","zip_code":"637543","city_code":"0817","name":"\u9ad8\u677f\u6865\u6751\u59d4\u4f1a","short_name":"\u9ad8\u677f\u6865","merger_name":"\u56db\u5ddd,\u5357\u5145,\u987a\u5e86,\u706f\u53f0,\u9ad8\u677f\u6865","pinyin":"GaoBanQiao","lng":"106.171830","lat":"30.998180"},{"id":578265,"parent_id":578258,"level":4,"area_code":"511302207207","zip_code":"637543","city_code":"0817","name":"\u4efb\u5bb6\u7960\u6751\u59d4\u4f1a","short_name":"\u4efb\u5bb6\u7960","merger_name":"\u56db\u5ddd,\u5357\u5145,\u987a\u5e86,\u706f\u53f0,\u4efb\u5bb6\u7960","pinyin":"RenJiaCi","lng":"106.160230","lat":"30.989750"},{"id":578266,"parent_id":578258,"level":4,"area_code":"511302207208","zip_code":"637543","city_code":"0817","name":"\u5b57\u5e93\u7891\u6751\u59d4\u4f1a","short_name":"\u5b57\u5e93\u7891","merger_name":"\u56db\u5ddd,\u5357\u5145,\u987a\u5e86,\u706f\u53f0,\u5b57\u5e93\u7891","pinyin":"ZiKuBei","lng":"106.296422","lat":"31.716211"},{"id":578267,"parent_id":578258,"level":4,"area_code":"511302207209","zip_code":"637543","city_code":"0817","name":"\u6bb7\u5bb6\u5e99\u6751\u59d4\u4f1a","short_name":"\u6bb7\u5bb6\u5e99","merger_name":"\u56db\u5ddd,\u5357\u5145,\u987a\u5e86,\u706f\u53f0,\u6bb7\u5bb6\u5e99","pinyin":"YinJiaMiao","lng":"106.175576","lat":"31.221182"},{"id":578268,"parent_id":577969,"level":3,"area_code":"511302209000","zip_code":"637547","city_code":"0817","name":"\u9f99\u6842\u4e61","short_name":"\u9f99\u6842","merger_name":"\u56db\u5ddd,\u5357\u5145,\u987a\u5e86,\u9f99\u6842","pinyin":"LongGui","lng":"106.108470","lat":"31.062580"},{"id":578269,"parent_id":578268,"level":4,"area_code":"511302209201","zip_code":"637547","city_code":"0817","name":"\u9f99\u6842\u6751\u59d4\u4f1a","short_name":"\u9f99\u6842","merger_name":"\u56db\u5ddd,\u5357\u5145,\u987a\u5e86,\u9f99\u6842,\u9f99\u6842","pinyin":"LongGui","lng":"106.175576","lat":"31.221182"},{"id":578270,"parent_id":578268,"level":4,"area_code":"511302209202","zip_code":"637547","city_code":"0817","name":"\u4f55\u5bb6\u5e97\u6751\u59d4\u4f1a","short_name":"\u4f55\u5bb6\u5e97","merger_name":"\u56db\u5ddd,\u5357\u5145,\u987a\u5e86,\u9f99\u6842,\u4f55\u5bb6\u5e97","pinyin":"HeJiaDian","lng":"106.744450","lat":"31.181500"},{"id":578271,"parent_id":578268,"level":4,"area_code":"511302209203","zip_code":"637547","city_code":"0817","name":"\u6587\u5bb6\u575d\u6751\u59d4\u4f1a","short_name":"\u6587\u5bb6\u575d","merger_name":"\u56db\u5ddd,\u5357\u5145,\u987a\u5e86,\u9f99\u6842,\u6587\u5bb6\u575d","pinyin":"WenJiaBa","lng":"106.116640","lat":"31.080590"},{"id":578272,"parent_id":578268,"level":4,"area_code":"511302209204","zip_code":"637547","city_code":"0817","name":"\u4e94\u901a\u5c71\u6751\u59d4\u4f1a","short_name":"\u4e94\u901a\u5c71","merger_name":"\u56db\u5ddd,\u5357\u5145,\u987a\u5e86,\u9f99\u6842,\u4e94\u901a\u5c71","pinyin":"WuTongShan","lng":"106.147730","lat":"31.070646"},{"id":578273,"parent_id":578268,"level":4,"area_code":"511302209205","zip_code":"637547","city_code":"0817","name":"\u4e5d\u5cad\u5c71\u6751\u59d4\u4f1a","short_name":"\u4e5d\u5cad\u5c71","merger_name":"\u56db\u5ddd,\u5357\u5145,\u987a\u5e86,\u9f99\u6842,\u4e5d\u5cad\u5c71","pinyin":"JiuLingShan","lng":"105.850764","lat":"31.151580"},{"id":578274,"parent_id":578268,"level":4,"area_code":"511302209206","zip_code":"637547","city_code":"0817","name":"\u82cf\u5bb6\u5e97\u6751\u59d4\u4f1a","short_name":"\u82cf\u5bb6\u5e97","merger_name":"\u56db\u5ddd,\u5357\u5145,\u987a\u5e86,\u9f99\u6842,\u82cf\u5bb6\u5e97","pinyin":"SuJiaDian","lng":"106.098140","lat":"31.085830"},{"id":578275,"parent_id":578268,"level":4,"area_code":"511302209207","zip_code":"637547","city_code":"0817","name":"\u9752\u5ca9\u5bfa\u6751\u59d4\u4f1a","short_name":"\u9752\u5ca9\u5bfa","merger_name":"\u56db\u5ddd,\u5357\u5145,\u987a\u5e86,\u9f99\u6842,\u9752\u5ca9\u5bfa","pinyin":"QingYanSi","lng":"106.175576","lat":"31.221182"},{"id":578276,"parent_id":578268,"level":4,"area_code":"511302209208","zip_code":"637547","city_code":"0817","name":"\u5f6d\u5bb6\u575d\u6751\u59d4\u4f1a","short_name":"\u5f6d\u5bb6\u575d","merger_name":"\u56db\u5ddd,\u5357\u5145,\u987a\u5e86,\u9f99\u6842,\u5f6d\u5bb6\u575d","pinyin":"PengJiaBa","lng":"105.704890","lat":"31.562940"},{"id":578277,"parent_id":578268,"level":4,"area_code":"511302209209","zip_code":"637547","city_code":"0817","name":"\u4e09\u6cb3\u53e3\u6751\u59d4\u4f1a","short_name":"\u4e09\u6cb3\u53e3","merger_name":"\u56db\u5ddd,\u5357\u5145,\u987a\u5e86,\u9f99\u6842,\u4e09\u6cb3\u53e3","pinyin":"SanHeKou","lng":"106.102328","lat":"30.840709"},{"id":578278,"parent_id":578268,"level":4,"area_code":"511302209210","zip_code":"637547","city_code":"0817","name":"\u7530\u5bb6\u575d\u6751\u59d4\u4f1a","short_name":"\u7530\u5bb6\u575d","merger_name":"\u56db\u5ddd,\u5357\u5145,\u987a\u5e86,\u9f99\u6842,\u7530\u5bb6\u575d","pinyin":"TianJiaBa","lng":"106.352270","lat":"30.800940"},{"id":578279,"parent_id":578268,"level":4,"area_code":"511302209211","zip_code":"637547","city_code":"0817","name":"\u9523\u6253\u5c71\u6751\u59d4\u4f1a","short_name":"\u9523\u6253\u5c71","merger_name":"\u56db\u5ddd,\u5357\u5145,\u987a\u5e86,\u9f99\u6842,\u9523\u6253\u5c71","pinyin":"LuoDaShan","lng":"106.148552","lat":"31.079209"},{"id":578280,"parent_id":578268,"level":4,"area_code":"511302209212","zip_code":"637547","city_code":"0817","name":"\u5f20\u62d4\u5c71\u6751\u59d4\u4f1a","short_name":"\u5f20\u62d4\u5c71","merger_name":"\u56db\u5ddd,\u5357\u5145,\u987a\u5e86,\u9f99\u6842,\u5f20\u62d4\u5c71","pinyin":"ZhangBaShan","lng":"106.147730","lat":"31.070646"},{"id":578281,"parent_id":578268,"level":4,"area_code":"511302209213","zip_code":"637547","city_code":"0817","name":"\u706b\u76d0\u5ca9\u6751\u59d4\u4f1a","short_name":"\u706b\u76d0\u5ca9","merger_name":"\u56db\u5ddd,\u5357\u5145,\u987a\u5e86,\u9f99\u6842,\u706b\u76d0\u5ca9","pinyin":"HuoYanYan","lng":"106.109560","lat":"31.063400"},{"id":578282,"parent_id":577969,"level":3,"area_code":"511302211000","zip_code":"637553","city_code":"0817","name":"\u6842\u82b1\u4e61","short_name":"\u6842\u82b1","merger_name":"\u56db\u5ddd,\u5357\u5145,\u987a\u5e86,\u6842\u82b1","pinyin":"GuiHua","lng":"106.189460","lat":"31.042170"},{"id":578283,"parent_id":578282,"level":4,"area_code":"511302211201","zip_code":"637553","city_code":"0817","name":"\u9f99\u51e4\u6751\u59d4\u4f1a","short_name":"\u9f99\u51e4","merger_name":"\u56db\u5ddd,\u5357\u5145,\u987a\u5e86,\u6842\u82b1,\u9f99\u51e4","pinyin":"LongFeng","lng":"106.189460","lat":"31.042170"},{"id":578284,"parent_id":578282,"level":4,"area_code":"511302211202","zip_code":"637553","city_code":"0817","name":"\u5b9d\u9876\u5c71\u6751\u59d4\u4f1a","short_name":"\u5b9d\u9876\u5c71","merger_name":"\u56db\u5ddd,\u5357\u5145,\u987a\u5e86,\u6842\u82b1,\u5b9d\u9876\u5c71","pinyin":"BaoDingShan","lng":"106.627040","lat":"31.227230"},{"id":578285,"parent_id":578282,"level":4,"area_code":"511302211203","zip_code":"637553","city_code":"0817","name":"\u5e99\u6c9f\u6751\u59d4\u4f1a","short_name":"\u5e99\u6c9f","merger_name":"\u56db\u5ddd,\u5357\u5145,\u987a\u5e86,\u6842\u82b1,\u5e99\u6c9f","pinyin":"MiaoGou","lng":"106.189460","lat":"31.042170"},{"id":578286,"parent_id":578282,"level":4,"area_code":"511302211204","zip_code":"637553","city_code":"0817","name":"\u5377\u6d1e\u95e8\u6751\u59d4\u4f1a","short_name":"\u5377\u6d1e\u95e8","merger_name":"\u56db\u5ddd,\u5357\u5145,\u987a\u5e86,\u6842\u82b1,\u5377\u6d1e\u95e8","pinyin":"JuanDongMen","lng":"106.219450","lat":"31.026110"},{"id":578287,"parent_id":578282,"level":4,"area_code":"511302211205","zip_code":"637553","city_code":"0817","name":"\u9f99\u6f6d\u6c9f\u6751\u59d4\u4f1a","short_name":"\u9f99\u6f6d\u6c9f","merger_name":"\u56db\u5ddd,\u5357\u5145,\u987a\u5e86,\u6842\u82b1,\u9f99\u6f6d\u6c9f","pinyin":"LongTanGou","lng":"106.187130","lat":"31.014430"},{"id":578288,"parent_id":578282,"level":4,"area_code":"511302211206","zip_code":"637553","city_code":"0817","name":"\u4e1c\u5c71\u89c2\u6751\u59d4\u4f1a","short_name":"\u4e1c\u5c71\u89c2","merger_name":"\u56db\u5ddd,\u5357\u5145,\u987a\u5e86,\u6842\u82b1,\u4e1c\u5c71\u89c2","pinyin":"DongShanGuan","lng":"106.174530","lat":"31.017390"},{"id":578289,"parent_id":578282,"level":4,"area_code":"511302211207","zip_code":"637553","city_code":"0817","name":"\u767d\u5e99\u6751\u59d4\u4f1a","short_name":"\u767d\u5e99","merger_name":"\u56db\u5ddd,\u5357\u5145,\u987a\u5e86,\u6842\u82b1,\u767d\u5e99","pinyin":"BaiMiao","lng":"106.189460","lat":"31.042170"},{"id":578290,"parent_id":578282,"level":4,"area_code":"511302211208","zip_code":"637553","city_code":"0817","name":"\u6842\u82b1\u6751\u59d4\u4f1a","short_name":"\u6842\u82b1","merger_name":"\u56db\u5ddd,\u5357\u5145,\u987a\u5e86,\u6842\u82b1,\u6842\u82b1","pinyin":"GuiHua","lng":"106.189460","lat":"31.042170"},{"id":578291,"parent_id":578282,"level":4,"area_code":"511302211209","zip_code":"637553","city_code":"0817","name":"\u65b0\u6865\u6751\u59d4\u4f1a","short_name":"\u65b0\u6865","merger_name":"\u56db\u5ddd,\u5357\u5145,\u987a\u5e86,\u6842\u82b1,\u65b0\u6865","pinyin":"XinQiao","lng":"106.189460","lat":"31.042170"},{"id":578292,"parent_id":578282,"level":4,"area_code":"511302211210","zip_code":"637553","city_code":"0817","name":"\u84b2\u5bb6\u6c9f\u6751\u59d4\u4f1a","short_name":"\u84b2\u5bb6\u6c9f","merger_name":"\u56db\u5ddd,\u5357\u5145,\u987a\u5e86,\u6842\u82b1,\u84b2\u5bb6\u6c9f","pinyin":"PuJiaGou","lng":"106.147730","lat":"31.070646"},{"id":578293,"parent_id":578282,"level":4,"area_code":"511302211211","zip_code":"637553","city_code":"0817","name":"\u5e73\u6865\u6751\u59d4\u4f1a","short_name":"\u5e73\u6865","merger_name":"\u56db\u5ddd,\u5357\u5145,\u987a\u5e86,\u6842\u82b1,\u5e73\u6865","pinyin":"PingQiao","lng":"106.172540","lat":"31.040770"},{"id":578294,"parent_id":578282,"level":4,"area_code":"511302211212","zip_code":"637553","city_code":"0817","name":"\u6cd5\u534e\u5bfa\u6751\u59d4\u4f1a","short_name":"\u6cd5\u534e\u5bfa","merger_name":"\u56db\u5ddd,\u5357\u5145,\u987a\u5e86,\u6842\u82b1,\u6cd5\u534e\u5bfa","pinyin":"FaHuaSi","lng":"106.013910","lat":"30.794900"},{"id":578295,"parent_id":577969,"level":3,"area_code":"511302212000","zip_code":"637505","city_code":"0817","name":"\u51e4\u5c71\u4e61","short_name":"\u51e4\u5c71","merger_name":"\u56db\u5ddd,\u5357\u5145,\u987a\u5e86,\u51e4\u5c71","pinyin":"FengShan","lng":"106.188660","lat":"30.956100"},{"id":578296,"parent_id":578295,"level":4,"area_code":"511302212201","zip_code":"637505","city_code":"0817","name":"\u5c0f\u575d\u5b50\u6751\u59d4\u4f1a","short_name":"\u5c0f\u575d\u5b50","merger_name":"\u56db\u5ddd,\u5357\u5145,\u987a\u5e86,\u51e4\u5c71,\u5c0f\u575d\u5b50","pinyin":"XiaoBaZi","lng":"106.570408","lat":"31.092965"},{"id":578297,"parent_id":578295,"level":4,"area_code":"511302212202","zip_code":"637505","city_code":"0817","name":"\u4f0d\u5bb6\u6c9f\u6751\u59d4\u4f1a","short_name":"\u4f0d\u5bb6\u6c9f","merger_name":"\u56db\u5ddd,\u5357\u5145,\u987a\u5e86,\u51e4\u5c71,\u4f0d\u5bb6\u6c9f","pinyin":"WuJiaGou","lng":"105.885510","lat":"30.503370"},{"id":578298,"parent_id":578295,"level":4,"area_code":"511302212203","zip_code":"637505","city_code":"0817","name":"\u4e09\u767e\u68af\u6751\u59d4\u4f1a","short_name":"\u4e09\u767e\u68af","merger_name":"\u56db\u5ddd,\u5357\u5145,\u987a\u5e86,\u51e4\u5c71,\u4e09\u767e\u68af","pinyin":"SanBaiTi","lng":"106.729007","lat":"31.161450"},{"id":578299,"parent_id":578295,"level":4,"area_code":"511302212204","zip_code":"637505","city_code":"0817","name":"\u8521\u5bb6\u6c9f\u6751\u59d4\u4f1a","short_name":"\u8521\u5bb6\u6c9f","merger_name":"\u56db\u5ddd,\u5357\u5145,\u987a\u5e86,\u51e4\u5c71,\u8521\u5bb6\u6c9f","pinyin":"CaiJiaGou","lng":"105.985900","lat":"30.612140"},{"id":578300,"parent_id":578295,"level":4,"area_code":"511302212205","zip_code":"637505","city_code":"0817","name":"\u8001\u9e70\u5bfa\u6751\u59d4\u4f1a","short_name":"\u8001\u9e70\u5bfa","merger_name":"\u56db\u5ddd,\u5357\u5145,\u987a\u5e86,\u51e4\u5c71,\u8001\u9e70\u5bfa","pinyin":"LaoYingSi","lng":"106.183170","lat":"30.975730"},{"id":578301,"parent_id":578295,"level":4,"area_code":"511302212206","zip_code":"637505","city_code":"0817","name":"\u9a6c\u5bb6\u5c71\u6751\u59d4\u4f1a","short_name":"\u9a6c\u5bb6\u5c71","merger_name":"\u56db\u5ddd,\u5357\u5145,\u987a\u5e86,\u51e4\u5c71,\u9a6c\u5bb6\u5c71","pinyin":"MaJiaShan","lng":"105.948230","lat":"31.580630"},{"id":578302,"parent_id":578295,"level":4,"area_code":"511302212207","zip_code":"637505","city_code":"0817","name":"\u6c99\u5768\u5b50\u6751\u59d4\u4f1a","short_name":"\u6c99\u5768\u5b50","merger_name":"\u56db\u5ddd,\u5357\u5145,\u987a\u5e86,\u51e4\u5c71,\u6c99\u5768\u5b50","pinyin":"ShaTuoZi","lng":"106.188660","lat":"30.956100"},