[{"id":678001,"parent_id":677987,"level":4,"area_code":"620171101212","zip_code":"730314","city_code":"0931","name":"\u5b97\u5bb6\u6881\u6751\u59d4\u4f1a","short_name":"\u5b97\u5bb6\u6881","merger_name":"\u7518\u8083,\u5170\u5dde,\u5170\u5dde,\u4e2d\u5ddd,\u5b97\u5bb6\u6881","pinyin":"ZongJiaLiang","lng":"103.639340","lat":"36.465120"},{"id":678002,"parent_id":677987,"level":4,"area_code":"620171101213","zip_code":"730087","city_code":"0931","name":"\u7ea2\u7389\u6751\u59d4\u4f1a","short_name":"\u7ea2\u7389","merger_name":"\u7518\u8083,\u5170\u5dde,\u5170\u5dde,\u4e2d\u5ddd,\u7ea2\u7389","pinyin":"HongYu","lng":"103.653100","lat":"36.487780"},{"id":678003,"parent_id":677987,"level":4,"area_code":"620171101214","zip_code":"730314","city_code":"0931","name":"\u82a6\u4e95\u6c34\u6751\u59d4\u4f1a","short_name":"\u82a6\u4e95\u6c34","merger_name":"\u7518\u8083,\u5170\u5dde,\u5170\u5dde,\u4e2d\u5ddd,\u82a6\u4e95\u6c34","pinyin":"LuJingShui","lng":"103.649690","lat":"36.458270"},{"id":678004,"parent_id":677987,"level":4,"area_code":"620171101215","zip_code":"730087","city_code":"0931","name":"\u5e73\u5c98\u6751\u59d4\u4f1a","short_name":"\u5e73\u5c98","merger_name":"\u7518\u8083,\u5170\u5dde,\u5170\u5dde,\u4e2d\u5ddd,\u5e73\u5c98","pinyin":"PingXian","lng":"103.683720","lat":"36.408060"},{"id":678005,"parent_id":677987,"level":4,"area_code":"620171101216","zip_code":"730087","city_code":"0931","name":"\u65b9\u5bb6\u5761\u6751\u59d4\u4f1a","short_name":"\u65b9\u5bb6\u5761","merger_name":"\u7518\u8083,\u5170\u5dde,\u5170\u5dde,\u4e2d\u5ddd,\u65b9\u5bb6\u5761","pinyin":"FangJiaPo","lng":"104.031520","lat":"35.914530"},{"id":678006,"parent_id":677987,"level":4,"area_code":"620171101217","zip_code":"730087","city_code":"0931","name":"\u9648\u5bb6\u6881\u6751\u59d4\u4f1a","short_name":"\u9648\u5bb6\u6881","merger_name":"\u7518\u8083,\u5170\u5dde,\u5170\u5dde,\u4e2d\u5ddd,\u9648\u5bb6\u6881","pinyin":"ChenJiaLiang","lng":"103.684380","lat":"36.486720"},{"id":678007,"parent_id":677987,"level":4,"area_code":"620171101218","zip_code":"730314","city_code":"0931","name":"\u5012\u6c34\u5858\u6751\u59d4\u4f1a","short_name":"\u5012\u6c34\u5858","merger_name":"\u7518\u8083,\u5170\u5dde,\u5170\u5dde,\u4e2d\u5ddd,\u5012\u6c34\u5858","pinyin":"DaoShuiTang","lng":"103.694820","lat":"36.502010"},{"id":678008,"parent_id":677987,"level":4,"area_code":"620171101219","zip_code":"730087","city_code":"0931","name":"\u5317\u576a\u6751\u59d4\u4f1a","short_name":"\u5317\u576a","merger_name":"\u7518\u8083,\u5170\u5dde,\u5170\u5dde,\u4e2d\u5ddd,\u5317\u576a","pinyin":"BeiPing","lng":"103.652700","lat":"36.091720"},{"id":678009,"parent_id":677986,"level":3,"area_code":"620171102000","zip_code":"730000","city_code":"0931","name":"\u79e6\u5ddd\u9547","short_name":"\u79e6\u5ddd","merger_name":"\u7518\u8083,\u5170\u5dde,\u5170\u5dde,\u79e6\u5ddd","pinyin":"QinChuan","lng":"103.647940","lat":"36.659530"},{"id":678010,"parent_id":678009,"level":4,"area_code":"620171102201","zip_code":"730311","city_code":"0931","name":"\u4e94\u9053\u5c98\u6751\u59d4\u4f1a","short_name":"\u4e94\u9053\u5c98","merger_name":"\u7518\u8083,\u5170\u5dde,\u5170\u5dde,\u79e6\u5ddd,\u4e94\u9053\u5c98","pinyin":"WuDaoXian","lng":"103.647710","lat":"36.659770"},{"id":678011,"parent_id":678009,"level":4,"area_code":"620171102202","zip_code":"730311","city_code":"0931","name":"\u70ae\u53f0\u6751\u59d4\u4f1a","short_name":"\u70ae\u53f0","merger_name":"\u7518\u8083,\u5170\u5dde,\u5170\u5dde,\u79e6\u5ddd,\u70ae\u53f0","pinyin":"PaoTai","lng":"103.711470","lat":"36.563280"},{"id":678012,"parent_id":678009,"level":4,"area_code":"620171102203","zip_code":"730311","city_code":"0931","name":"\u5c39\u5bb6\u5e84\u6751\u59d4\u4f1a","short_name":"\u5c39\u5bb6\u5e84","merger_name":"\u7518\u8083,\u5170\u5dde,\u5170\u5dde,\u79e6\u5ddd,\u5c39\u5bb6\u5e84","pinyin":"YinJiaZhuang","lng":"103.602030","lat":"36.658560"},{"id":678013,"parent_id":678009,"level":4,"area_code":"620171102204","zip_code":"730311","city_code":"0931","name":"\u897f\u5c0f\u5ddd\u6751\u59d4\u4f1a","short_name":"\u897f\u5c0f\u5ddd","merger_name":"\u7518\u8083,\u5170\u5dde,\u5170\u5dde,\u79e6\u5ddd,\u897f\u5c0f\u5ddd","pinyin":"XiXiaoChuan","lng":"103.611290","lat":"36.657610"},{"id":678014,"parent_id":678009,"level":4,"area_code":"620171102205","zip_code":"730311","city_code":"0931","name":"\u4fdd\u5bb6\u7a91\u6751\u59d4\u4f1a","short_name":"\u4fdd\u5bb6\u7a91","merger_name":"\u7518\u8083,\u5170\u5dde,\u5170\u5dde,\u79e6\u5ddd,\u4fdd\u5bb6\u7a91","pinyin":"BaoJiaYao","lng":"103.583470","lat":"36.630110"},{"id":678015,"parent_id":678009,"level":4,"area_code":"620171102206","zip_code":"730311","city_code":"0931","name":"\u4e0a\u534e\u5bb6\u4e95\u6751\u59d4\u4f1a","short_name":"\u4e0a\u534e\u5bb6\u4e95","merger_name":"\u7518\u8083,\u5170\u5dde,\u5170\u5dde,\u79e6\u5ddd,\u4e0a\u534e\u5bb6\u4e95","pinyin":"ShangHuaJiaJing","lng":"103.456075","lat":"36.715956"},{"id":678016,"parent_id":678009,"level":4,"area_code":"620171102207","zip_code":"730311","city_code":"0931","name":"\u80dc\u5229\u6751\u59d4\u4f1a","short_name":"\u80dc\u5229","merger_name":"\u7518\u8083,\u5170\u5dde,\u5170\u5dde,\u79e6\u5ddd,\u80dc\u5229","pinyin":"ShengLi","lng":"103.263060","lat":"36.731390"},{"id":678017,"parent_id":678009,"level":4,"area_code":"620171102208","zip_code":"730311","city_code":"0931","name":"\u516d\u58a9\u6751\u59d4\u4f1a","short_name":"\u516d\u58a9","merger_name":"\u7518\u8083,\u5170\u5dde,\u5170\u5dde,\u79e6\u5ddd,\u516d\u58a9","pinyin":"LiuDun","lng":"103.691274","lat":"36.633994"},{"id":678018,"parent_id":678009,"level":4,"area_code":"620171102209","zip_code":"730311","city_code":"0931","name":"\u6e90\u592a\u6751\u59d4\u4f1a","short_name":"\u6e90\u592a","merger_name":"\u7518\u8083,\u5170\u5dde,\u5170\u5dde,\u79e6\u5ddd,\u6e90\u592a","pinyin":"YuanTai","lng":"103.678890","lat":"36.662720"},{"id":678019,"parent_id":678009,"level":4,"area_code":"620171102210","zip_code":"730311","city_code":"0931","name":"\u77f3\u95e8\u6c9f\u6751\u59d4\u4f1a","short_name":"\u77f3\u95e8\u6c9f","merger_name":"\u7518\u8083,\u5170\u5dde,\u5170\u5dde,\u79e6\u5ddd,\u77f3\u95e8\u6c9f","pinyin":"ShiMenGou","lng":"103.847450","lat":"36.082700"},{"id":678020,"parent_id":678009,"level":4,"area_code":"620171102211","zip_code":"730311","city_code":"0931","name":"\u5c0f\u6a2a\u8def\u6751\u59d4\u4f1a","short_name":"\u5c0f\u6a2a\u8def","merger_name":"\u7518\u8083,\u5170\u5dde,\u5170\u5dde,\u79e6\u5ddd,\u5c0f\u6a2a\u8def","pinyin":"XiaoHengLu","lng":"103.678890","lat":"36.662720"},{"id":678021,"parent_id":678009,"level":4,"area_code":"620171102212","zip_code":"730311","city_code":"0931","name":"\u632f\u5174\u6751\u59d4\u4f1a","short_name":"\u632f\u5174","merger_name":"\u7518\u8083,\u5170\u5dde,\u5170\u5dde,\u79e6\u5ddd,\u632f\u5174","pinyin":"ZhenXing","lng":"103.611290","lat":"36.657610"},{"id":678022,"parent_id":678009,"level":4,"area_code":"620171102213","zip_code":"730311","city_code":"0931","name":"\u65b0\u56ed\u6751\u59d4\u4f1a","short_name":"\u65b0\u56ed","merger_name":"\u7518\u8083,\u5170\u5dde,\u5170\u5dde,\u79e6\u5ddd,\u65b0\u56ed","pinyin":"XinYuan","lng":"103.608560","lat":"36.636010"},{"id":678023,"parent_id":678009,"level":4,"area_code":"620171102214","zip_code":"730311","city_code":"0931","name":"\u5efa\u65b0\u6751\u59d4\u4f1a","short_name":"\u5efa\u65b0","merger_name":"\u7518\u8083,\u5170\u5dde,\u5170\u5dde,\u79e6\u5ddd,\u5efa\u65b0","pinyin":"JianXin","lng":"103.711470","lat":"36.563280"},{"id":678024,"parent_id":678009,"level":4,"area_code":"620171102215","zip_code":"730311","city_code":"0931","name":"\u897f\u660c\u6751\u59d4\u4f1a","short_name":"\u897f\u660c","merger_name":"\u7518\u8083,\u5170\u5dde,\u5170\u5dde,\u79e6\u5ddd,\u897f\u660c","pinyin":"XiChang","lng":"103.711470","lat":"36.563280"},{"id":678025,"parent_id":678009,"level":4,"area_code":"620171102216","zip_code":"730314","city_code":"0931","name":"\u4e1c\u5ddd\u6751\u59d4\u4f1a","short_name":"\u4e1c\u5ddd","merger_name":"\u7518\u8083,\u5170\u5dde,\u5170\u5dde,\u79e6\u5ddd,\u4e1c\u5ddd","pinyin":"DongChuan","lng":"103.647940","lat":"36.659530"},{"id":678026,"parent_id":678009,"level":4,"area_code":"620171102217","zip_code":"730314","city_code":"0931","name":"\u7ea2\u661f\u6751\u59d4\u4f1a","short_name":"\u7ea2\u661f","merger_name":"\u7518\u8083,\u5170\u5dde,\u5170\u5dde,\u79e6\u5ddd,\u7ea2\u661f","pinyin":"HongXing","lng":"103.864610","lat":"36.035630"},{"id":678027,"parent_id":678009,"level":4,"area_code":"620171102218","zip_code":"730311","city_code":"0931","name":"\u9f99\u897f\u6751\u59d4\u4f1a","short_name":"\u9f99\u897f","merger_name":"\u7518\u8083,\u5170\u5dde,\u5170\u5dde,\u79e6\u5ddd,\u9f99\u897f","pinyin":"LongXi","lng":"103.711470","lat":"36.563280"},{"id":678028,"parent_id":678009,"level":4,"area_code":"620171102219","zip_code":"730311","city_code":"0931","name":"\u859b\u5bb6\u94fa\u6751\u59d4\u4f1a","short_name":"\u859b\u5bb6\u94fa","merger_name":"\u7518\u8083,\u5170\u5dde,\u5170\u5dde,\u79e6\u5ddd,\u859b\u5bb6\u94fa","pinyin":"XueJiaPu","lng":"103.602030","lat":"36.658560"},{"id":678029,"parent_id":678009,"level":4,"area_code":"620171102220","zip_code":"730311","city_code":"0931","name":"\u65b0\u660c\u6751\u59d4\u4f1a","short_name":"\u65b0\u660c","merger_name":"\u7518\u8083,\u5170\u5dde,\u5170\u5dde,\u79e6\u5ddd,\u65b0\u660c","pinyin":"XinChang","lng":"103.711470","lat":"36.563280"},{"id":678030,"parent_id":678009,"level":4,"area_code":"620171102221","zip_code":"730311","city_code":"0931","name":"\u6986\u5ddd\u6751\u59d4\u4f1a","short_name":"\u6986\u5ddd","merger_name":"\u7518\u8083,\u5170\u5dde,\u5170\u5dde,\u79e6\u5ddd,\u6986\u5ddd","pinyin":"YuChuan","lng":"103.585830","lat":"36.653300"},{"id":678031,"parent_id":677986,"level":3,"area_code":"620171103000","zip_code":"730000","city_code":"0931","name":"\u897f\u5c94\u9547","short_name":"\u897f\u5c94","merger_name":"\u7518\u8083,\u5170\u5dde,\u5170\u5dde,\u897f\u5c94","pinyin":"XiCha","lng":"103.771760","lat":"36.523560"},{"id":678032,"parent_id":678031,"level":4,"area_code":"620171103202","zip_code":"730207","city_code":"0931","name":"\u5c98\u5b50\u6751\u59d4\u4f1a","short_name":"\u5c98\u5b50","merger_name":"\u7518\u8083,\u5170\u5dde,\u5170\u5dde,\u897f\u5c94,\u5c98\u5b50","pinyin":"XianZi","lng":"103.844260","lat":"36.423190"},{"id":678033,"parent_id":678031,"level":4,"area_code":"620171103203","zip_code":"730207","city_code":"0931","name":"\u56e2\u5e84\u6751\u59d4\u4f1a","short_name":"\u56e2\u5e84","merger_name":"\u7518\u8083,\u5170\u5dde,\u5170\u5dde,\u897f\u5c94,\u56e2\u5e84","pinyin":"TuanZhuang","lng":"103.834090","lat":"36.433470"},{"id":678034,"parent_id":678031,"level":4,"area_code":"620171103204","zip_code":"730207","city_code":"0931","name":"\u6f2b\u6e7e\u6751\u59d4\u4f1a","short_name":"\u6f2b\u6e7e","merger_name":"\u7518\u8083,\u5170\u5dde,\u5170\u5dde,\u897f\u5c94,\u6f2b\u6e7e","pinyin":"ManWan","lng":"103.697680","lat":"36.712170"},{"id":678035,"parent_id":678031,"level":4,"area_code":"620171103205","zip_code":"730207","city_code":"0931","name":"\u9648\u5bb6\u4e95\u6751\u59d4\u4f1a","short_name":"\u9648\u5bb6\u4e95","merger_name":"\u7518\u8083,\u5170\u5dde,\u5170\u5dde,\u897f\u5c94,\u9648\u5bb6\u4e95","pinyin":"ChenJiaJing","lng":"103.797760","lat":"36.484210"},{"id":678036,"parent_id":678031,"level":4,"area_code":"620171103206","zip_code":"730207","city_code":"0931","name":"\u897f\u5c94\u6751\u59d4\u4f1a","short_name":"\u897f\u5c94","merger_name":"\u7518\u8083,\u5170\u5dde,\u5170\u5dde,\u897f\u5c94,\u897f\u5c94","pinyin":"XiCha","lng":"103.760370","lat":"36.525570"},{"id":678037,"parent_id":678031,"level":4,"area_code":"620171103207","zip_code":"730207","city_code":"0931","name":"\u94e7\u5c16\u6751\u59d4\u4f1a","short_name":"\u94e7\u5c16","merger_name":"\u7518\u8083,\u5170\u5dde,\u5170\u5dde,\u897f\u5c94,\u94e7\u5c16","pinyin":"HuaJian","lng":"104.306900","lat":"35.609420"},{"id":678038,"parent_id":678031,"level":4,"area_code":"620171103208","zip_code":"730207","city_code":"0931","name":"\u6bb5\u5bb6\u5ddd\u6751\u59d4\u4f1a","short_name":"\u6bb5\u5bb6\u5ddd","merger_name":"\u7518\u8083,\u5170\u5dde,\u5170\u5dde,\u897f\u5c94,\u6bb5\u5bb6\u5ddd","pinyin":"DuanJiaChuan","lng":"103.758610","lat":"36.611120"},{"id":678039,"parent_id":678031,"level":4,"area_code":"620171103209","zip_code":"730207","city_code":"0931","name":"\u4e94\u58a9\u6751\u59d4\u4f1a","short_name":"\u4e94\u58a9","merger_name":"\u7518\u8083,\u5170\u5dde,\u5170\u5dde,\u897f\u5c94,\u4e94\u58a9","pinyin":"WuDun","lng":"103.697140","lat":"36.609180"},{"id":678040,"parent_id":678031,"level":4,"area_code":"620171103210","zip_code":"730207","city_code":"0931","name":"\u56db\u58a9\u6751\u59d4\u4f1a","short_name":"\u56db\u58a9","merger_name":"\u7518\u8083,\u5170\u5dde,\u5170\u5dde,\u897f\u5c94,\u56db\u58a9","pinyin":"SiDun","lng":"103.693597","lat":"36.573238"},{"id":678041,"parent_id":678031,"level":4,"area_code":"620171103211","zip_code":"730207","city_code":"0931","name":"\u706b\u5bb6\u6e7e\u6751\u59d4\u4f1a","short_name":"\u706b\u5bb6\u6e7e","merger_name":"\u7518\u8083,\u5170\u5dde,\u5170\u5dde,\u897f\u5c94,\u706b\u5bb6\u6e7e","pinyin":"HuoJiaWan","lng":"104.025098","lat":"36.036257"},{"id":678042,"parent_id":678031,"level":4,"area_code":"620171103212","zip_code":"730207","city_code":"0931","name":"\u4e2d\u5ddd\u6751\u59d4\u4f1a","short_name":"\u4e2d\u5ddd","merger_name":"\u7518\u8083,\u5170\u5dde,\u5170\u5dde,\u897f\u5c94,\u4e2d\u5ddd","pinyin":"ZhongChuan","lng":"103.697680","lat":"36.712170"},{"id":678043,"parent_id":678031,"level":4,"area_code":"620171103213","zip_code":"730207","city_code":"0931","name":"\u5c71\u5b57\u58a9\u6751\u59d4\u4f1a","short_name":"\u5c71\u5b57\u58a9","merger_name":"\u7518\u8083,\u5170\u5dde,\u5170\u5dde,\u897f\u5c94,\u5c71\u5b57\u58a9","pinyin":"ShanZiDun","lng":"103.721121","lat":"36.519255"},{"id":678044,"parent_id":678031,"level":4,"area_code":"620171103214","zip_code":"730207","city_code":"0931","name":"\u8d75\u5bb6\u94fa\u6751\u59d4\u4f1a","short_name":"\u8d75\u5bb6\u94fa","merger_name":"\u7518\u8083,\u5170\u5dde,\u5170\u5dde,\u897f\u5c94,\u8d75\u5bb6\u94fa","pinyin":"ZhaoJiaPu","lng":"103.751090","lat":"36.473710"},{"id":678045,"parent_id":678031,"level":4,"area_code":"620171103215","zip_code":"730000","city_code":"0931","name":"\u7a9d\u7a9d\u4e95\u6751\u59d4\u4f1a","short_name":"\u7a9d\u7a9d\u4e95","merger_name":"\u7518\u8083,\u5170\u5dde,\u5170\u5dde,\u897f\u5c94,\u7a9d\u7a9d\u4e95","pinyin":"WoWoJing","lng":"103.775320","lat":"36.422790"},{"id":678046,"parent_id":676777,"level":1,"area_code":"620200000000","zip_code":"735100","city_code":"1937","name":"\u5609\u5cea\u5173\u5e02","short_name":"\u5609\u5cea\u5173","merger_name":"\u7518\u8083,\u5609\u5cea\u5173","pinyin":"JiaYuGuan","lng":"98.289152","lat":"39.773130"},{"id":678047,"parent_id":678046,"level":2,"area_code":"620201000000","zip_code":"735100","city_code":"1937","name":"\u5e02\u8f96\u533a","short_name":"\u5609\u5cea\u5173","merger_name":"\u7518\u8083,\u5609\u5cea\u5173","pinyin":"JiaYuGuan","lng":"98.289152","lat":"39.773130"},{"id":678048,"parent_id":678047,"level":3,"area_code":"620201100000","zip_code":"735106","city_code":"1937","name":"\u65b0\u57ce\u9547","short_name":"\u65b0\u57ce","merger_name":"\u7518\u8083,\u5609\u5cea\u5173,\u65b0\u57ce","pinyin":"XinCheng","lng":"98.448130","lat":"39.916100"},{"id":678049,"parent_id":678048,"level":4,"area_code":"620201100200","zip_code":"735106","city_code":"1937","name":"\u91ce\u9ebb\u6e7e\u6751\u59d4\u4f1a","short_name":"\u91ce\u9ebb\u6e7e","merger_name":"\u7518\u8083,\u5609\u5cea\u5173,\u65b0\u57ce,\u91ce\u9ebb\u6e7e","pinyin":"YeMaWan","lng":"98.375070","lat":"39.926360"},{"id":678050,"parent_id":678048,"level":4,"area_code":"620201100201","zip_code":"735106","city_code":"1937","name":"\u6a2a\u6c9f\u6751\u59d4\u4f1a","short_name":"\u6a2a\u6c9f","merger_name":"\u7518\u8083,\u5609\u5cea\u5173,\u65b0\u57ce,\u6a2a\u6c9f","pinyin":"HengGou","lng":"98.365070","lat":"39.873980"},{"id":678051,"parent_id":678048,"level":4,"area_code":"620201100202","zip_code":"735106","city_code":"1937","name":"\u957f\u57ce\u6751\u59d4\u4f1a","short_name":"\u957f\u57ce","merger_name":"\u7518\u8083,\u5609\u5cea\u5173,\u65b0\u57ce,\u957f\u57ce","pinyin":"ChangCheng","lng":"98.405070","lat":"39.906880"},{"id":678052,"parent_id":678048,"level":4,"area_code":"620201100203","zip_code":"735106","city_code":"1937","name":"\u65b0\u57ce\u6751\u59d4\u4f1a","short_name":"\u65b0\u57ce","merger_name":"\u7518\u8083,\u5609\u5cea\u5173,\u65b0\u57ce,\u65b0\u57ce","pinyin":"XinCheng","lng":"98.434250","lat":"39.883920"},{"id":678053,"parent_id":678048,"level":4,"area_code":"620201100204","zip_code":"735106","city_code":"1937","name":"\u4e2d\u6c9f\u6751\u59d4\u4f1a","short_name":"\u4e2d\u6c9f","merger_name":"\u7518\u8083,\u5609\u5cea\u5173,\u65b0\u57ce,\u4e2d\u6c9f","pinyin":"ZhongGou","lng":"98.419110","lat":"39.854250"},{"id":678054,"parent_id":678048,"level":4,"area_code":"620201100205","zip_code":"735106","city_code":"1937","name":"\u89c2\u84b2\u6751\u59d4\u4f1a","short_name":"\u89c2\u84b2","merger_name":"\u7518\u8083,\u5609\u5cea\u5173,\u65b0\u57ce,\u89c2\u84b2","pinyin":"GuanPu","lng":"98.458440","lat":"39.850830"},{"id":678055,"parent_id":678048,"level":4,"area_code":"620201100206","zip_code":"735106","city_code":"1937","name":"\u6ce5\u6c9f\u6751\u59d4\u4f1a","short_name":"\u6ce5\u6c9f","merger_name":"\u7518\u8083,\u5609\u5cea\u5173,\u65b0\u57ce,\u6ce5\u6c9f","pinyin":"NiGou","lng":"98.507350","lat":"39.902170"},{"id":678056,"parent_id":678048,"level":4,"area_code":"620201100207","zip_code":"735106","city_code":"1937","name":"\u5b89\u8fdc\u6c9f\u6751\u59d4\u4f1a","short_name":"\u5b89\u8fdc\u6c9f","merger_name":"\u7518\u8083,\u5609\u5cea\u5173,\u65b0\u57ce,\u5b89\u8fdc\u6c9f","pinyin":"AnYuanGou","lng":"98.322640","lat":"39.772880"},{"id":678057,"parent_id":678047,"level":3,"area_code":"620201101000","zip_code":"735106","city_code":"1937","name":"\u5cea\u6cc9\u9547","short_name":"\u5cea\u6cc9","merger_name":"\u7518\u8083,\u5609\u5cea\u5173,\u5cea\u6cc9","pinyin":"YuQuan","lng":"98.215420","lat":"39.802110"},{"id":678058,"parent_id":678057,"level":4,"area_code":"620201101201","zip_code":"735106","city_code":"1937","name":"\u5609\u5cea\u5173\u6751\u59d4\u4f1a","short_name":"\u5609\u5cea\u5173","merger_name":"\u7518\u8083,\u5609\u5cea\u5173,\u5cea\u6cc9,\u5609\u5cea\u5173","pinyin":"JiaYuGuan","lng":"98.401300","lat":"39.902600"},{"id":678059,"parent_id":678057,"level":4,"area_code":"620201101202","zip_code":"735106","city_code":"1937","name":"\u9ec4\u8349\u8425\u6751\u59d4\u4f1a","short_name":"\u9ec4\u8349\u8425","merger_name":"\u7518\u8083,\u5609\u5cea\u5173,\u5cea\u6cc9,\u9ec4\u8349\u8425","pinyin":"HuangCaoYing","lng":"98.374254","lat":"39.672665"},{"id":678060,"parent_id":678057,"level":4,"area_code":"620201101203","zip_code":"735106","city_code":"1937","name":"\u6bb5\u5c71\u53e3\u6751\u59d4\u4f1a","short_name":"\u6bb5\u5c71\u53e3","merger_name":"\u7518\u8083,\u5609\u5cea\u5173,\u5cea\u6cc9,\u6bb5\u5c71\u53e3","pinyin":"DuanShanKou","lng":"98.323540","lat":"39.783300"},{"id":678061,"parent_id":678047,"level":3,"area_code":"620201102000","zip_code":"735104","city_code":"1937","name":"\u6587\u6b8a\u9547","short_name":"\u6587\u6b8a","merger_name":"\u7518\u8083,\u5609\u5cea\u5173,\u6587\u6b8a","pinyin":"WenShu","lng":"98.374940","lat":"39.694320"},{"id":678062,"parent_id":678061,"level":4,"area_code":"620201102200","zip_code":"735104","city_code":"1937","name":"\u51af\u5bb6\u6c9f\u6751\u59d4\u4f1a","short_name":"\u51af\u5bb6\u6c9f","merger_name":"\u7518\u8083,\u5609\u5cea\u5173,\u6587\u6b8a,\u51af\u5bb6\u6c9f","pinyin":"FengJiaGou","lng":"98.401770","lat":"39.708810"},{"id":678063,"parent_id":678061,"level":4,"area_code":"620201102201","zip_code":"735104","city_code":"1937","name":"\u77f3\u6865\u6751\u59d4\u4f1a","short_name":"\u77f3\u6865","merger_name":"\u7518\u8083,\u5609\u5cea\u5173,\u6587\u6b8a,\u77f3\u6865","pinyin":"ShiQiao","lng":"98.318810","lat":"39.750700"},{"id":678064,"parent_id":678061,"level":4,"area_code":"620201102202","zip_code":"735104","city_code":"1937","name":"\u5854\u6e7e\u6751\u59d4\u4f1a","short_name":"\u5854\u6e7e","merger_name":"\u7518\u8083,\u5609\u5cea\u5173,\u6587\u6b8a,\u5854\u6e7e","pinyin":"TaWan","lng":"98.383170","lat":"39.701350"},{"id":678065,"parent_id":678061,"level":4,"area_code":"620201102203","zip_code":"735104","city_code":"1937","name":"\u56e2\u7ed3\u6751\u59d4\u4f1a","short_name":"\u56e2\u7ed3","merger_name":"\u7518\u8083,\u5609\u5cea\u5173,\u6587\u6b8a,\u56e2\u7ed3","pinyin":"TuanJie","lng":"98.318810","lat":"39.750700"},{"id":678066,"parent_id":678061,"level":4,"area_code":"620201102204","zip_code":"735104","city_code":"1937","name":"\u6587\u6b8a\u6751\u59d4\u4f1a","short_name":"\u6587\u6b8a","merger_name":"\u7518\u8083,\u5609\u5cea\u5173,\u6587\u6b8a,\u6587\u6b8a","pinyin":"WenShu","lng":"98.374254","lat":"39.672665"},{"id":678067,"parent_id":678061,"level":4,"area_code":"620201102205","zip_code":"735104","city_code":"1937","name":"\u6cb3\u53e3\u6751\u59d4\u4f1a","short_name":"\u6cb3\u53e3","merger_name":"\u7518\u8083,\u5609\u5cea\u5173,\u6587\u6b8a,\u6cb3\u53e3","pinyin":"HeKou","lng":"98.318775","lat":"39.750809"},{"id":678068,"parent_id":678047,"level":3,"area_code":"620201401000","zip_code":"735103","city_code":"1937","name":"\u96c4\u5173\u533a","short_name":"\u96c4\u5173","merger_name":"\u7518\u8083,\u5609\u5cea\u5173,\u96c4\u5173","pinyin":"XiongGuan","lng":"98.264560","lat":"39.790450"},{"id":678069,"parent_id":678068,"level":4,"area_code":"620201401001","zip_code":"735103","city_code":"1937","name":"\u798f\u6c11\u793e\u533a\u5c45\u59d4\u4f1a","short_name":"\u798f\u6c11","merger_name":"\u7518\u8083,\u5609\u5cea\u5173,\u96c4\u5173,\u798f\u6c11","pinyin":"FuMin","lng":"98.247488","lat":"39.808061"},{"id":678070,"parent_id":678068,"level":4,"area_code":"620201401002","zip_code":"735103","city_code":"1937","name":"\u80dc\u5229\u793e\u533a\u5c45\u59d4\u4f1a","short_name":"\u80dc\u5229","merger_name":"\u7518\u8083,\u5609\u5cea\u5173,\u96c4\u5173,\u80dc\u5229","pinyin":"ShengLi","lng":"98.263730","lat":"39.805470"},{"id":678071,"parent_id":678068,"level":4,"area_code":"620201401003","zip_code":"735103","city_code":"1937","name":"\u7eff\u5316\u793e\u533a\u5c45\u59d4\u4f1a","short_name":"\u7eff\u5316","merger_name":"\u7518\u8083,\u5609\u5cea\u5173,\u96c4\u5173,\u7eff\u5316","pinyin":"LvHua","lng":"98.259332","lat":"39.796798"},{"id":678072,"parent_id":678068,"level":4,"area_code":"620201401004","zip_code":"735103","city_code":"1937","name":"\u7941\u8fde\u793e\u533a\u5c45\u59d4\u4f1a","short_name":"\u7941\u8fde","merger_name":"\u7518\u8083,\u5609\u5cea\u5173,\u96c4\u5173,\u7941\u8fde","pinyin":"QiLian","lng":"98.268325","lat":"39.785526"},{"id":678073,"parent_id":678068,"level":4,"area_code":"620201401005","zip_code":"735103","city_code":"1937","name":"\u4eba\u6c11\u793e\u533a\u5c45\u59d4\u4f1a","short_name":"\u4eba\u6c11","merger_name":"\u7518\u8083,\u5609\u5cea\u5173,\u96c4\u5173,\u4eba\u6c11","pinyin":"RenMin","lng":"98.269610","lat":"39.796370"},{"id":678074,"parent_id":678068,"level":4,"area_code":"620201401006","zip_code":"735103","city_code":"1937","name":"\u96cd\u548c\u793e\u533a\u5c45\u59d4\u4f1a","short_name":"\u96cd\u548c","merger_name":"\u7518\u8083,\u5609\u5cea\u5173,\u96c4\u5173,\u96cd\u548c","pinyin":"YongHe","lng":"98.279630","lat":"39.780860"},{"id":678075,"parent_id":678068,"level":4,"area_code":"620201401007","zip_code":"735103","city_code":"1937","name":"\u53cb\u8c0a\u793e\u533a\u5c45\u59d4\u4f1a","short_name":"\u53cb\u8c0a","merger_name":"\u7518\u8083,\u5609\u5cea\u5173,\u96c4\u5173,\u53cb\u8c0a","pinyin":"YouYi","lng":"98.259332","lat":"39.796798"},{"id":678076,"parent_id":678068,"level":4,"area_code":"620201401008","zip_code":"735103","city_code":"1937","name":"\u5609\u5317\u793e\u533a\u5c45\u59d4\u4f1a","short_name":"\u5609\u5317","merger_name":"\u7518\u8083,\u5609\u5cea\u5173,\u96c4\u5173,\u5609\u5317","pinyin":"JiaBei","lng":"98.286060","lat":"39.772900"},{"id":678077,"parent_id":678068,"level":4,"area_code":"620201401009","zip_code":"735103","city_code":"1937","name":"\u96c4\u5173\u793e\u533a\u5c45\u59d4\u4f1a","short_name":"\u96c4\u5173","merger_name":"\u7518\u8083,\u5609\u5cea\u5173,\u96c4\u5173,\u96c4\u5173","pinyin":"XiongGuan","lng":"98.268325","lat":"39.785526"},{"id":678078,"parent_id":678047,"level":3,"area_code":"620201402000","zip_code":"735101","city_code":"1937","name":"\u955c\u94c1\u533a","short_name":"\u955c\u94c1","merger_name":"\u7518\u8083,\u5609\u5cea\u5173,\u955c\u94c1","pinyin":"JingTie","lng":"98.258020","lat":"39.789580"},{"id":678079,"parent_id":678078,"level":4,"area_code":"620201402001","zip_code":"735101","city_code":"1937","name":"\u94c1\u5317\u793e\u533a\u5c45\u59d4\u4f1a","short_name":"\u94c1\u5317","merger_name":"\u7518\u8083,\u5609\u5cea\u5173,\u955c\u94c1,\u94c1\u5317","pinyin":"TieBei","lng":"98.259332","lat":"39.796798"},{"id":678080,"parent_id":678078,"level":4,"area_code":"620201402002","zip_code":"735103","city_code":"1937","name":"\u8fce\u5bbe\u793e\u533a\u5c45\u59d4\u4f1a","short_name":"\u8fce\u5bbe","merger_name":"\u7518\u8083,\u5609\u5cea\u5173,\u955c\u94c1,\u8fce\u5bbe","pinyin":"YingBin","lng":"98.260610","lat":"39.764300"},{"id":678081,"parent_id":678078,"level":4,"area_code":"620201402003","zip_code":"735101","city_code":"1937","name":"\u94c1\u5357\u793e\u533a\u5c45\u59d4\u4f1a","short_name":"\u94c1\u5357","merger_name":"\u7518\u8083,\u5609\u5cea\u5173,\u955c\u94c1,\u94c1\u5357","pinyin":"TieNan","lng":"98.264990","lat":"39.760650"},{"id":678082,"parent_id":678078,"level":4,"area_code":"620201402004","zip_code":"735103","city_code":"1937","name":"\u5fb7\u60e0\u793e\u533a\u5c45\u59d4\u4f1a","short_name":"\u5fb7\u60e0","merger_name":"\u7518\u8083,\u5609\u5cea\u5173,\u955c\u94c1,\u5fb7\u60e0","pinyin":"DeHui","lng":"98.265090","lat":"39.763481"},{"id":678083,"parent_id":678078,"level":4,"area_code":"620201402005","zip_code":"735101","city_code":"1937","name":"\u660c\u76db\u793e\u533a\u5c45\u59d4\u4f1a","short_name":"\u660c\u76db","merger_name":"\u7518\u8083,\u5609\u5cea\u5173,\u955c\u94c1,\u660c\u76db","pinyin":"ChangSheng","lng":"98.273193","lat":"39.800905"},{"id":678084,"parent_id":678078,"level":4,"area_code":"620201402006","zip_code":"735101","city_code":"1937","name":"\u5cea\u82d1\u793e\u533a\u5c45\u59d4\u4f1a","short_name":"\u5cea\u82d1","merger_name":"\u7518\u8083,\u5609\u5cea\u5173,\u955c\u94c1,\u5cea\u82d1","pinyin":"YuYuan","lng":"98.268501","lat":"39.765263"},{"id":678085,"parent_id":678078,"level":4,"area_code":"620201402007","zip_code":"735101","city_code":"1937","name":"\u66d9\u5149\u793e\u533a\u5c45\u59d4\u4f1a","short_name":"\u66d9\u5149","merger_name":"\u7518\u8083,\u5609\u5cea\u5173,\u955c\u94c1,\u66d9\u5149","pinyin":"ShuGuang","lng":"98.285250","lat":"39.769300"},{"id":678086,"parent_id":678078,"level":4,"area_code":"620201402008","zip_code":"735112","city_code":"1937","name":"\u548c\u8bda\u793e\u533a\u5c45\u59d4\u4f1a","short_name":"\u548c\u8bda","merger_name":"\u7518\u8083,\u5609\u5cea\u5173,\u955c\u94c1,\u548c\u8bda","pinyin":"HeCheng","lng":"98.281940","lat":"39.764290"},{"id":678087,"parent_id":678078,"level":4,"area_code":"620201402009","zip_code":"735101","city_code":"1937","name":"\u4f73\u82d1\u793e\u533a\u5c45\u59d4\u4f1a","short_name":"\u4f73\u82d1","merger_name":"\u7518\u8083,\u5609\u5cea\u5173,\u955c\u94c1,\u4f73\u82d1","pinyin":"JiaYuan","lng":"98.293598","lat":"39.769689"},{"id":678088,"parent_id":678078,"level":4,"area_code":"620201402010","zip_code":"735101","city_code":"1937","name":"\u671d\u6656\u793e\u533a\u5c45\u59d4\u4f1a","short_name":"\u671d\u6656","merger_name":"\u7518\u8083,\u5609\u5cea\u5173,\u955c\u94c1,\u671d\u6656","pinyin":"ZhaoHui","lng":"98.301550","lat":"39.780370"},{"id":678089,"parent_id":678078,"level":4,"area_code":"620201402011","zip_code":"735101","city_code":"1937","name":"\u7d2b\u8f69\u793e\u533a\u5c45\u59d4\u4f1a","short_name":"\u7d2b\u8f69","merger_name":"\u7518\u8083,\u5609\u5cea\u5173,\u955c\u94c1,\u7d2b\u8f69","pinyin":"ZiXuan","lng":"98.305176","lat":"39.763660"},{"id":678090,"parent_id":678078,"level":4,"area_code":"620201402012","zip_code":"735112","city_code":"1937","name":"\u660e\u73e0\u793e\u533a\u5c45\u59d4\u4f1a","short_name":"\u660e\u73e0","merger_name":"\u7518\u8083,\u5609\u5cea\u5173,\u955c\u94c1,\u660e\u73e0","pinyin":"MingZhu","lng":"98.316900","lat":"39.763570"},{"id":678091,"parent_id":678047,"level":3,"area_code":"620201403000","zip_code":"735106","city_code":"1937","name":"\u957f\u57ce\u533a","short_name":"\u957f\u57ce","merger_name":"\u7518\u8083,\u5609\u5cea\u5173,\u957f\u57ce","pinyin":"ChangCheng","lng":"98.223200","lat":"39.802320"},{"id":678092,"parent_id":678091,"level":4,"area_code":"620201403001","zip_code":"735106","city_code":"1937","name":"\u5170\u65b0\u793e\u533a\u5c45\u59d4\u4f1a","short_name":"\u5170\u65b0","merger_name":"\u7518\u8083,\u5609\u5cea\u5173,\u957f\u57ce,\u5170\u65b0","pinyin":"LanXin","lng":"98.281310","lat":"39.786850"},{"id":678093,"parent_id":678091,"level":4,"area_code":"620201403002","zip_code":"735106","city_code":"1937","name":"\u5efa\u8bbe\u793e\u533a\u5c45\u59d4\u4f1a","short_name":"\u5efa\u8bbe","merger_name":"\u7518\u8083,\u5609\u5cea\u5173,\u957f\u57ce,\u5efa\u8bbe","pinyin":"JianShe","lng":"98.283270","lat":"39.783040"},{"id":678094,"parent_id":678091,"level":4,"area_code":"620201403003","zip_code":"735106","city_code":"1937","name":"\u6c38\u4e50\u793e\u533a\u5c45\u59d4\u4f1a","short_name":"\u6c38\u4e50","merger_name":"\u7518\u8083,\u5609\u5cea\u5173,\u957f\u57ce,\u6c38\u4e50","pinyin":"YongLe","lng":"98.287640","lat":"39.786230"},{"id":678095,"parent_id":678091,"level":4,"area_code":"620201403004","zip_code":"735106","city_code":"1937","name":"\u5efa\u6797\u793e\u533a\u5c45\u59d4\u4f1a","short_name":"\u5efa\u6797","merger_name":"\u7518\u8083,\u5609\u5cea\u5173,\u957f\u57ce,\u5efa\u6797","pinyin":"JianLin","lng":"98.374950","lat":"39.926470"},{"id":678096,"parent_id":678091,"level":4,"area_code":"620201403005","zip_code":"735106","city_code":"1937","name":"\u4e1c\u5b89\u793e\u533a\u5c45\u59d4\u4f1a","short_name":"\u4e1c\u5b89","merger_name":"\u7518\u8083,\u5609\u5cea\u5173,\u957f\u57ce,\u4e1c\u5b89","pinyin":"DongAn","lng":"98.303550","lat":"39.783820"},{"id":678097,"parent_id":678091,"level":4,"area_code":"620201403006","zip_code":"735106","city_code":"1937","name":"\u65b0\u534e\u793e\u533a\u5c45\u59d4\u4f1a","short_name":"\u65b0\u534e","merger_name":"\u7518\u8083,\u5609\u5cea\u5173,\u957f\u57ce,\u65b0\u534e","pinyin":"XinHua","lng":"98.273193","lat":"39.800905"},{"id":678098,"parent_id":678091,"level":4,"area_code":"620201403007","zip_code":"735106","city_code":"1937","name":"\u5927\u4f17\u793e\u533a\u5c45\u59d4\u4f1a","short_name":"\u5927\u4f17","merger_name":"\u7518\u8083,\u5609\u5cea\u5173,\u957f\u57ce,\u5927\u4f17","pinyin":"DaZhong","lng":"98.268418","lat":"39.806736"},{"id":678099,"parent_id":678091,"level":4,"area_code":"620201403008","zip_code":"735106","city_code":"1937","name":"\u4e94\u4e00\u793e\u533a\u5c45\u59d4\u4f1a","short_name":"\u4e94\u4e00","merger_name":"\u7518\u8083,\u5609\u5cea\u5173,\u957f\u57ce,\u4e94\u4e00","pinyin":"WuYi","lng":"98.374950","lat":"39.926470"},{"id":678100,"parent_id":678091,"level":4,"area_code":"620201403009","zip_code":"735106","city_code":"1937","name":"\u5229\u6c11\u793e\u533a\u5c45\u59d4\u4f1a","short_name":"\u5229\u6c11","merger_name":"\u7518\u8083,\u5609\u5cea\u5173,\u957f\u57ce,\u5229\u6c11","pinyin":"LiMin","lng":"98.373240","lat":"39.921380"},{"id":678101,"parent_id":676777,"level":1,"area_code":"620300000000","zip_code":"737100","city_code":"0935","name":"\u91d1\u660c\u5e02","short_name":"\u91d1\u660c","merger_name":"\u7518\u8083,\u91d1\u660c","pinyin":"JinChang","lng":"102.188043","lat":"38.520089"},{"id":678102,"parent_id":678101,"level":2,"area_code":"620301000000","zip_code":"737100","city_code":"0935","name":"\u5e02\u8f96\u533a","short_name":"\u91d1\u660c","merger_name":"\u7518\u8083,\u91d1\u660c","pinyin":"JinChang","lng":"102.188043","lat":"38.520089"},{"id":678103,"parent_id":678101,"level":2,"area_code":"620302000000","zip_code":"737100","city_code":"0935","name":"\u91d1\u5ddd\u533a","short_name":"\u91d1\u5ddd","merger_name":"\u7518\u8083,\u91d1\u660c,\u91d1\u5ddd","pinyin":"JinChuan","lng":"102.194089","lat":"38.521085"},{"id":678104,"parent_id":678103,"level":3,"area_code":"620302001000","zip_code":"737103","city_code":"0935","name":"\u6ee8\u6cb3\u8def\u8857\u9053","short_name":"\u6ee8\u6cb3\u8def","merger_name":"\u7518\u8083,\u91d1\u660c,\u91d1\u5ddd,\u6ee8\u6cb3\u8def","pinyin":"BinHeLu","lng":"102.170740","lat":"38.497260"},{"id":678105,"parent_id":678104,"level":4,"area_code":"620302001001","zip_code":"737102","city_code":"0935","name":"\u9f99\u5c97\u91cc\u793e\u533a\u5c45\u59d4\u4f1a","short_name":"\u9f99\u5c97\u91cc","merger_name":"\u7518\u8083,\u91d1\u660c,\u91d1\u5ddd,\u6ee8\u6cb3\u8def,\u9f99\u5c97\u91cc","pinyin":"LongGangLi","lng":"102.163185","lat":"38.494042"},{"id":678106,"parent_id":678104,"level":4,"area_code":"620302001002","zip_code":"737102","city_code":"0935","name":"\u9f99\u96c6\u91cc\u793e\u533a\u5c45\u59d4\u4f1a","short_name":"\u9f99\u96c6\u91cc","merger_name":"\u7518\u8083,\u91d1\u660c,\u91d1\u5ddd,\u6ee8\u6cb3\u8def,\u9f99\u96c6\u91cc","pinyin":"LongJiLi","lng":"102.164535","lat":"38.504370"},{"id":678107,"parent_id":678104,"level":4,"area_code":"620302001003","zip_code":"737102","city_code":"0935","name":"\u9f99\u6cc9\u91cc\u793e\u533a\u5c45\u59d4\u4f1a","short_name":"\u9f99\u6cc9\u91cc","merger_name":"\u7518\u8083,\u91d1\u660c,\u91d1\u5ddd,\u6ee8\u6cb3\u8def,\u9f99\u6cc9\u91cc","pinyin":"LongQuanLi","lng":"102.163185","lat":"38.494042"},{"id":678108,"parent_id":678103,"level":3,"area_code":"620302002000","zip_code":"737101","city_code":"0935","name":"\u6842\u6797\u8def\u8857\u9053","short_name":"\u6842\u6797\u8def","merger_name":"\u7518\u8083,\u91d1\u660c,\u91d1\u5ddd,\u6842\u6797\u8def","pinyin":"GuiLinLu","lng":"102.203660","lat":"38.527660"},{"id":678109,"parent_id":678108,"level":4,"area_code":"620302002001","zip_code":"737100","city_code":"0935","name":"\u660c\u6587\u91cc\u793e\u533a\u5c45\u59d4\u4f1a","short_name":"\u660c\u6587\u91cc","merger_name":"\u7518\u8083,\u91d1\u660c,\u91d1\u5ddd,\u6842\u6797\u8def,\u660c\u6587\u91cc","pinyin":"ChangWenLi","lng":"102.163185","lat":"38.494042"},{"id":678110,"parent_id":678108,"level":4,"area_code":"620302002002","zip_code":"737101","city_code":"0935","name":"\u5b9d\u6797\u91cc\u793e\u533a\u5c45\u59d4\u4f1a","short_name":"\u5b9d\u6797\u91cc","merger_name":"\u7518\u8083,\u91d1\u660c,\u91d1\u5ddd,\u6842\u6797\u8def,\u5b9d\u6797\u91cc","pinyin":"BaoLinLi","lng":"102.163185","lat":"38.494042"},{"id":678111,"parent_id":678108,"level":4,"area_code":"620302002003","zip_code":"737101","city_code":"0935","name":"\u5b9d\u661f\u91cc\u793e\u533a\u5c45\u59d4\u4f1a","short_name":"\u5b9d\u661f\u91cc","merger_name":"\u7518\u8083,\u91d1\u660c,\u91d1\u5ddd,\u6842\u6797\u8def,\u5b9d\u661f\u91cc","pinyin":"BaoXingLi","lng":"102.198090","lat":"38.525620"},{"id":678112,"parent_id":678103,"level":3,"area_code":"620302003000","zip_code":"737103","city_code":"0935","name":"\u5317\u4eac\u8def\u8857\u9053","short_name":"\u5317\u4eac\u8def","merger_name":"\u7518\u8083,\u91d1\u660c,\u91d1\u5ddd,\u5317\u4eac\u8def","pinyin":"BeiJingLu","lng":"102.185850","lat":"38.501350"},{"id":678113,"parent_id":678112,"level":4,"area_code":"620302003001","zip_code":"737103","city_code":"0935","name":"\u91d1\u51b6\u91cc\u793e\u533a\u5c45\u59d4\u4f1a","short_name":"\u91d1\u51b6\u91cc","merger_name":"\u7518\u8083,\u91d1\u660c,\u91d1\u5ddd,\u5317\u4eac\u8def,\u91d1\u51b6\u91cc","pinyin":"JinYeLi","lng":"102.163185","lat":"38.494042"},{"id":678114,"parent_id":678112,"level":4,"area_code":"620302003002","zip_code":"737104","city_code":"0935","name":"\u9f99\u95e8\u91cc\u793e\u533a\u5c45\u59d4\u4f1a","short_name":"\u9f99\u95e8\u91cc","merger_name":"\u7518\u8083,\u91d1\u660c,\u91d1\u5ddd,\u5317\u4eac\u8def,\u9f99\u95e8\u91cc","pinyin":"LongMenLi","lng":"102.183480","lat":"38.493090"},{"id":678115,"parent_id":678103,"level":3,"area_code":"620302004000","zip_code":"737101","city_code":"0935","name":"\u91d1\u5ddd\u8def\u8857\u9053","short_name":"\u91d1\u5ddd\u8def","merger_name":"\u7518\u8083,\u91d1\u660c,\u91d1\u5ddd,\u91d1\u5ddd\u8def","pinyin":"JinChuanLu","lng":"102.188430","lat":"38.509690"},{"id":678116,"parent_id":678115,"level":4,"area_code":"620302004001","zip_code":"737100","city_code":"0935","name":"\u91d1\u9633\u91cc\u793e\u533a\u5c45\u59d4\u4f1a","short_name":"\u91d1\u9633\u91cc","merger_name":"\u7518\u8083,\u91d1\u660c,\u91d1\u5ddd,\u91d1\u5ddd\u8def,\u91d1\u9633\u91cc","pinyin":"JinYangLi","lng":"102.179410","lat":"38.517700"},{"id":678117,"parent_id":678115,"level":4,"area_code":"620302004002","zip_code":"737103","city_code":"0935","name":"\u91d1\u6c34\u91cc\u793e\u533a\u5c45\u59d4\u4f1a","short_name":"\u91d1\u6c34\u91cc","merger_name":"\u7518\u8083,\u91d1\u660c,\u91d1\u5ddd,\u91d1\u5ddd\u8def,\u91d1\u6c34\u91cc","pinyin":"JinShuiLi","lng":"102.163185","lat":"38.494042"},{"id":678118,"parent_id":678115,"level":4,"area_code":"620302004003","zip_code":"737100","city_code":"0935","name":"\u91d1\u829d\u91cc\u793e\u533a\u5c45\u59d4\u4f1a","short_name":"\u91d1\u829d\u91cc","merger_name":"\u7518\u8083,\u91d1\u660c,\u91d1\u5ddd,\u91d1\u5ddd\u8def,\u91d1\u829d\u91cc","pinyin":"JinZhiLi","lng":"102.196190","lat":"38.516670"},{"id":678119,"parent_id":678103,"level":3,"area_code":"620302005000","zip_code":"737101","city_code":"0935","name":"\u65b0\u534e\u8def\u8857\u9053","short_name":"\u65b0\u534e\u8def","merger_name":"\u7518\u8083,\u91d1\u660c,\u91d1\u5ddd,\u65b0\u534e\u8def","pinyin":"XinHuaLu","lng":"102.181150","lat":"38.523170"},{"id":678120,"parent_id":678119,"level":4,"area_code":"620302005001","zip_code":"737100","city_code":"0935","name":"\u660c\u534e\u91cc\u793e\u533a\u5c45\u59d4\u4f1a","short_name":"\u660c\u534e\u91cc","merger_name":"\u7518\u8083,\u91d1\u660c,\u91d1\u5ddd,\u65b0\u534e\u8def,\u660c\u534e\u91cc","pinyin":"ChangHuaLi","lng":"102.163185","lat":"38.494042"},{"id":678121,"parent_id":678119,"level":4,"area_code":"620302005002","zip_code":"737100","city_code":"0935","name":"\u660c\u8363\u91cc\u793e\u533a\u5c45\u59d4\u4f1a","short_name":"\u660c\u8363\u91cc","merger_name":"\u7518\u8083,\u91d1\u660c,\u91d1\u5ddd,\u65b0\u534e\u8def,\u660c\u8363\u91cc","pinyin":"ChangRongLi","lng":"102.163185","lat":"38.494042"},{"id":678122,"parent_id":678119,"level":4,"area_code":"620302005003","zip_code":"737100","city_code":"0935","name":"\u660c\u6cf0\u91cc\u793e\u533a\u5c45\u59d4\u4f1a","short_name":"\u660c\u6cf0\u91cc","merger_name":"\u7518\u8083,\u91d1\u660c,\u91d1\u5ddd,\u65b0\u534e\u8def,\u660c\u6cf0\u91cc","pinyin":"ChangTaiLi","lng":"102.175640","lat":"38.522390"},{"id":678123,"parent_id":678103,"level":3,"area_code":"620302006000","zip_code":"737100","city_code":"0935","name":"\u5e7f\u5dde\u8def\u8857\u9053","short_name":"\u5e7f\u5dde\u8def","merger_name":"\u7518\u8083,\u91d1\u660c,\u91d1\u5ddd,\u5e7f\u5dde\u8def","pinyin":"GuangZhouLu","lng":"102.201300","lat":"38.523910"},{"id":678124,"parent_id":678123,"level":4,"area_code":"620302006001","zip_code":"737100","city_code":"0935","name":"\u5b9d\u6676\u91cc\u793e\u533a\u5c45\u59d4\u4f1a","short_name":"\u5b9d\u6676\u91cc","merger_name":"\u7518\u8083,\u91d1\u660c,\u91d1\u5ddd,\u5e7f\u5dde\u8def,\u5b9d\u6676\u91cc","pinyin":"BaoJingLi","lng":"102.163185","lat":"38.494042"},{"id":678125,"parent_id":678123,"level":4,"area_code":"620302006002","zip_code":"737101","city_code":"0935","name":"\u5b9d\u8fd0\u91cc\u793e\u533a\u5c45\u59d4\u4f1a","short_name":"\u5b9d\u8fd0\u91cc","merger_name":"\u7518\u8083,\u91d1\u660c,\u91d1\u5ddd,\u5e7f\u5dde\u8def,\u5b9d\u8fd0\u91cc","pinyin":"BaoYunLi","lng":"102.163185","lat":"38.494042"},{"id":678126,"parent_id":678103,"level":3,"area_code":"620302100000","zip_code":"737106","city_code":"0935","name":"\u5b81\u8fdc\u5821\u9547","short_name":"\u5b81\u8fdc","merger_name":"\u7518\u8083,\u91d1\u660c,\u91d1\u5ddd,\u5b81\u8fdc","pinyin":"NingYuan","lng":"102.183650","lat":"38.492960"},{"id":678127,"parent_id":678126,"level":4,"area_code":"620302100200","zip_code":"737106","city_code":"0935","name":"\u5c71\u6e7e\u6751\u59d4\u4f1a","short_name":"\u5c71\u6e7e","merger_name":"\u7518\u8083,\u91d1\u660c,\u91d1\u5ddd,\u5b81\u8fdc,\u5c71\u6e7e","pinyin":"ShanWan","lng":"102.133390","lat":"38.424020"},{"id":678128,"parent_id":678126,"level":4,"area_code":"620302100201","zip_code":"737106","city_code":"0935","name":"\u9f99\u666f\u6751\u59d4\u4f1a","short_name":"\u9f99\u666f","merger_name":"\u7518\u8083,\u91d1\u660c,\u91d1\u5ddd,\u5b81\u8fdc,\u9f99\u666f","pinyin":"LongJing","lng":"102.174600","lat":"38.435200"},{"id":678129,"parent_id":678126,"level":4,"area_code":"620302100202","zip_code":"737106","city_code":"0935","name":"\u5b81\u8fdc\u6751\u59d4\u4f1a","short_name":"\u5b81\u8fdc","merger_name":"\u7518\u8083,\u91d1\u660c,\u91d1\u5ddd,\u5b81\u8fdc,\u5b81\u8fdc","pinyin":"NingYuan","lng":"102.199090","lat":"38.456380"},{"id":678130,"parent_id":678126,"level":4,"area_code":"620302100203","zip_code":"737106","city_code":"0935","name":"\u4e2d\u724c\u6751\u59d4\u4f1a","short_name":"\u4e2d\u724c","merger_name":"\u7518\u8083,\u91d1\u660c,\u91d1\u5ddd,\u5b81\u8fdc,\u4e2d\u724c","pinyin":"ZhongPai","lng":"102.199090","lat":"38.456380"},{"id":678131,"parent_id":678126,"level":4,"area_code":"620302100204","zip_code":"737106","city_code":"0935","name":"\u4e1c\u6e7e\u6751\u59d4\u4f1a","short_name":"\u4e1c\u6e7e","merger_name":"\u7518\u8083,\u91d1\u660c,\u91d1\u5ddd,\u5b81\u8fdc,\u4e1c\u6e7e","pinyin":"DongWan","lng":"102.242680","lat":"38.465950"},{"id":678132,"parent_id":678126,"level":4,"area_code":"620302100205","zip_code":"737106","city_code":"0935","name":"\u897f\u6e7e\u6751\u59d4\u4f1a","short_name":"\u897f\u6e7e","merger_name":"\u7518\u8083,\u91d1\u660c,\u91d1\u5ddd,\u5b81\u8fdc,\u897f\u6e7e","pinyin":"XiWan","lng":"102.235920","lat":"38.458000"},{"id":678133,"parent_id":678126,"level":4,"area_code":"620302100206","zip_code":"737105","city_code":"0935","name":"\u767d\u5bb6\u5480\u6751\u59d4\u4f1a","short_name":"\u767d\u5bb6\u5480","merger_name":"\u7518\u8083,\u91d1\u660c,\u91d1\u5ddd,\u5b81\u8fdc,\u767d\u5bb6\u5480","pinyin":"BaiJiaJu","lng":"102.200920","lat":"38.478130"},{"id":678134,"parent_id":678126,"level":4,"area_code":"620302100207","zip_code":"737106","city_code":"0935","name":"\u9ad8\u5cb8\u5b50\u6751\u59d4\u4f1a","short_name":"\u9ad8\u5cb8\u5b50","merger_name":"\u7518\u8083,\u91d1\u660c,\u91d1\u5ddd,\u5b81\u8fdc,\u9ad8\u5cb8\u5b50","pinyin":"GaoAnZi","lng":"102.225070","lat":"38.517290"},{"id":678135,"parent_id":678126,"level":4,"area_code":"620302100208","zip_code":"737100","city_code":"0935","name":"\u897f\u5761\u6751\u59d4\u4f1a","short_name":"\u897f\u5761","merger_name":"\u7518\u8083,\u91d1\u660c,\u91d1\u5ddd,\u5b81\u8fdc,\u897f\u5761","pinyin":"XiPo","lng":"102.171330","lat":"38.517150"},{"id":678136,"parent_id":678126,"level":4,"area_code":"620302100209","zip_code":"737106","city_code":"0935","name":"\u9a6c\u5bb6\u5cb8\u6751\u59d4\u4f1a","short_name":"\u9a6c\u5bb6\u5cb8","merger_name":"\u7518\u8083,\u91d1\u660c,\u91d1\u5ddd,\u5b81\u8fdc,\u9a6c\u5bb6\u5cb8","pinyin":"MaJiaAn","lng":"102.193810","lat":"38.546930"},{"id":678137,"parent_id":678126,"level":4,"area_code":"620302100210","zip_code":"737106","city_code":"0935","name":"\u65b0\u5b89\u6751\u59d4\u4f1a","short_name":"\u65b0\u5b89","merger_name":"\u7518\u8083,\u91d1\u660c,\u91d1\u5ddd,\u5b81\u8fdc,\u65b0\u5b89","pinyin":"XinAn","lng":"102.226240","lat":"38.600940"},{"id":678138,"parent_id":678126,"level":4,"area_code":"620302100211","zip_code":"737106","city_code":"0935","name":"\u6cb9\u7c7d\u6d3c\u6751\u59d4\u4f1a","short_name":"\u6cb9\u7c7d\u6d3c","merger_name":"\u7518\u8083,\u91d1\u660c,\u91d1\u5ddd,\u5b81\u8fdc,\u6cb9\u7c7d\u6d3c","pinyin":"YouZiWa","lng":"102.271090","lat":"38.601970"},{"id":678139,"parent_id":678126,"level":4,"area_code":"620302100212","zip_code":"737101","city_code":"0935","name":"\u65b0\u534e\u6751\u59d4\u4f1a","short_name":"\u65b0\u534e","merger_name":"\u7518\u8083,\u91d1\u660c,\u91d1\u5ddd,\u5b81\u8fdc,\u65b0\u534e","pinyin":"XinHua","lng":"102.329200","lat":"38.588670"},{"id":678140,"parent_id":678126,"level":4,"area_code":"620302100213","zip_code":"737106","city_code":"0935","name":"\u4e0b\u56db\u5206\u6751\u59d4\u4f1a","short_name":"\u4e0b\u56db\u5206","merger_name":"\u7518\u8083,\u91d1\u660c,\u91d1\u5ddd,\u5b81\u8fdc,\u4e0b\u56db\u5206","pinyin":"XiaSiFen","lng":"102.272330","lat":"38.635430"},{"id":678141,"parent_id":678103,"level":3,"area_code":"620302101000","zip_code":"737107","city_code":"0935","name":"\u53cc\u6e7e\u9547","short_name":"\u53cc\u6e7e","merger_name":"\u7518\u8083,\u91d1\u660c,\u91d1\u5ddd,\u53cc\u6e7e","pinyin":"ShuangWan","lng":"102.338510","lat":"38.625770"},{"id":678142,"parent_id":678141,"level":4,"area_code":"620302101200","zip_code":"737100","city_code":"0935","name":"\u4e5d\u4e2a\u4e95\u6751\u59d4\u4f1a","short_name":"\u4e5d\u4e2a\u4e95","merger_name":"\u7518\u8083,\u91d1\u660c,\u91d1\u5ddd,\u53cc\u6e7e,\u4e5d\u4e2a\u4e95","pinyin":"JiuGeJing","lng":"102.431550","lat":"38.626420"},{"id":678143,"parent_id":678141,"level":4,"area_code":"620302101201","zip_code":"737107","city_code":"0935","name":"\u4e09\u89d2\u57ce\u6751\u59d4\u4f1a","short_name":"\u4e09\u89d2\u57ce","merger_name":"\u7518\u8083,\u91d1\u660c,\u91d1\u5ddd,\u53cc\u6e7e,\u4e09\u89d2\u57ce","pinyin":"SanJiaoCheng","lng":"102.308440","lat":"38.615540"},{"id":678144,"parent_id":678141,"level":4,"area_code":"620302101202","zip_code":"737107","city_code":"0935","name":"\u9648\u5bb6\u6c9f\u6751\u59d4\u4f1a","short_name":"\u9648\u5bb6\u6c9f","merger_name":"\u7518\u8083,\u91d1\u660c,\u91d1\u5ddd,\u53cc\u6e7e,\u9648\u5bb6\u6c9f","pinyin":"ChenJiaGou","lng":"102.337960","lat":"38.625410"},{"id":678145,"parent_id":678141,"level":4,"area_code":"620302101203","zip_code":"737107","city_code":"0935","name":"\u8bb8\u5bb6\u6c9f\u6751\u59d4\u4f1a","short_name":"\u8bb8\u5bb6\u6c9f","merger_name":"\u7518\u8083,\u91d1\u660c,\u91d1\u5ddd,\u53cc\u6e7e,\u8bb8\u5bb6\u6c9f","pinyin":"XuJiaGou","lng":"102.348230","lat":"38.612960"},{"id":678146,"parent_id":678141,"level":4,"area_code":"620302101204","zip_code":"737107","city_code":"0935","name":"\u9f99\u6e90\u6751\u59d4\u4f1a","short_name":"\u9f99\u6e90","merger_name":"\u7518\u8083,\u91d1\u660c,\u91d1\u5ddd,\u53cc\u6e7e,\u9f99\u6e90","pinyin":"LongYuan","lng":"102.320420","lat":"38.644890"},{"id":678147,"parent_id":678141,"level":4,"area_code":"620302101205","zip_code":"737107","city_code":"0935","name":"\u9f99\u5be8\u6751\u59d4\u4f1a","short_name":"\u9f99\u5be8","merger_name":"\u7518\u8083,\u91d1\u660c,\u91d1\u5ddd,\u53cc\u6e7e,\u9f99\u5be8","pinyin":"LongZhai","lng":"102.334860","lat":"38.635560"},{"id":678148,"parent_id":678141,"level":4,"area_code":"620302101206","zip_code":"737107","city_code":"0935","name":"\u8425\u76d8\u6751\u59d4\u4f1a","short_name":"\u8425\u76d8","merger_name":"\u7518\u8083,\u91d1\u660c,\u91d1\u5ddd,\u53cc\u6e7e,\u8425\u76d8","pinyin":"YingPan","lng":"102.365120","lat":"38.638720"},{"id":678149,"parent_id":678141,"level":4,"area_code":"620302101207","zip_code":"737107","city_code":"0935","name":"\u65b0\u7cae\u5730\u6751\u59d4\u4f1a","short_name":"\u65b0\u7cae\u5730","merger_name":"\u7518\u8083,\u91d1\u660c,\u91d1\u5ddd,\u53cc\u6e7e,\u65b0\u7cae\u5730","pinyin":"XinLiangDi","lng":"102.375430","lat":"38.633120"},{"id":678150,"parent_id":678141,"level":4,"area_code":"620302101208","zip_code":"737107","city_code":"0935","name":"\u91d1\u6cb3\u6751\u59d4\u4f1a","short_name":"\u91d1\u6cb3","merger_name":"\u7518\u8083,\u91d1\u660c,\u91d1\u5ddd,\u53cc\u6e7e,\u91d1\u6cb3","pinyin":"JinHe","lng":"102.362610","lat":"38.599940"},{"id":678151,"parent_id":678141,"level":4,"area_code":"620302101209","zip_code":"737107","city_code":"0935","name":"\u5929\u751f\u5751\u6751\u59d4\u4f1a","short_name":"\u5929\u751f\u5751","merger_name":"\u7518\u8083,\u91d1\u660c,\u91d1\u5ddd,\u53cc\u6e7e,\u5929\u751f\u5751","pinyin":"TianShengKeng","lng":"102.389350","lat":"38.582970"},{"id":678152,"parent_id":678141,"level":4,"area_code":"620302101210","zip_code":"737107","city_code":"0935","name":"\u5eb7\u76db\u6751\u59d4\u4f1a","short_name":"\u5eb7\u76db","merger_name":"\u7518\u8083,\u91d1\u660c,\u91d1\u5ddd,\u53cc\u6e7e,\u5eb7\u76db","pinyin":"KangSheng","lng":"102.400420","lat":"38.565710"},{"id":678153,"parent_id":678141,"level":4,"area_code":"620302101211","zip_code":"737107","city_code":"0935","name":"\u53e4\u57ce\u6751\u59d4\u4f1a","short_name":"\u53e4\u57ce","merger_name":"\u7518\u8083,\u91d1\u660c,\u91d1\u5ddd,\u53cc\u6e7e,\u53e4\u57ce","pinyin":"GuCheng","lng":"102.440550","lat":"38.508930"},{"id":678154,"parent_id":678141,"level":4,"area_code":"620302101212","zip_code":"737107","city_code":"0935","name":"\u9f99\u53e3\u6751\u59d4\u4f1a","short_name":"\u9f99\u53e3","merger_name":"\u7518\u8083,\u91d1\u660c,\u91d1\u5ddd,\u53cc\u6e7e,\u9f99\u53e3","pinyin":"LongKou","lng":"102.452490","lat":"38.488700"},{"id":678155,"parent_id":678101,"level":2,"area_code":"620321000000","zip_code":"737200","city_code":"0935","name":"\u6c38\u660c\u53bf","short_name":"\u6c38\u660c","merger_name":"\u7518\u8083,\u91d1\u660c,\u6c38\u660c","pinyin":"YongChang","lng":"101.984649","lat":"38.243170"},{"id":678156,"parent_id":678155,"level":3,"area_code":"620321100000","zip_code":"737299","city_code":"0935","name":"\u57ce\u5173\u9547","short_name":"\u57ce\u5173","merger_name":"\u7518\u8083,\u91d1\u660c,\u6c38\u660c,\u57ce\u5173","pinyin":"ChengGuan","lng":"101.984630","lat":"38.243380"},{"id":678157,"parent_id":678156,"level":4,"area_code":"620321100001","zip_code":"737299","city_code":"0935","name":"\u6c38\u798f\u82d1\u793e\u533a\u5c45\u59d4\u4f1a","short_name":"\u6c38\u798f\u82d1","merger_name":"\u7518\u8083,\u91d1\u660c,\u6c38\u660c,\u57ce\u5173,\u6c38\u798f\u82d1","pinyin":"YongFuYuan","lng":"101.978480","lat":"38.249310"},{"id":678158,"parent_id":678156,"level":4,"area_code":"620321100002","zip_code":"737299","city_code":"0935","name":"\u660c\u5eb7\u82d1\u793e\u533a\u5c45\u59d4\u4f1a","short_name":"\u660c\u5eb7\u82d1","merger_name":"\u7518\u8083,\u91d1\u660c,\u6c38\u660c,\u57ce\u5173,\u660c\u5eb7\u82d1","pinyin":"ChangKangYuan","lng":"101.959600","lat":"38.254270"},{"id":678159,"parent_id":678156,"level":4,"area_code":"620321100003","zip_code":"737299","city_code":"0935","name":"\u5929\u9526\u82d1\u793e\u533a\u5c45\u59d4\u4f1a","short_name":"\u5929\u9526\u82d1","merger_name":"\u7518\u8083,\u91d1\u660c,\u6c38\u660c,\u57ce\u5173,\u5929\u9526\u82d1","pinyin":"TianJinYuan","lng":"101.976310","lat":"38.241830"},{"id":678160,"parent_id":678156,"level":4,"area_code":"620321100004","zip_code":"737299","city_code":"0935","name":"\u5b9d\u6cb3\u82d1\u793e\u533a\u5c45\u59d4\u4f1a","short_name":"\u5b9d\u6cb3\u82d1","merger_name":"\u7518\u8083,\u91d1\u660c,\u6c38\u660c,\u57ce\u5173,\u5b9d\u6cb3\u82d1","pinyin":"BaoHeYuan","lng":"101.963620","lat":"38.243150"},{"id":678161,"parent_id":678156,"level":4,"area_code":"620321100005","zip_code":"737299","city_code":"0935","name":"\u660c\u5b81\u82d1\u793e\u533a\u5c45\u59d4\u4f1a","short_name":"\u660c\u5b81\u82d1","merger_name":"\u7518\u8083,\u91d1\u660c,\u6c38\u660c,\u57ce\u5173,\u660c\u5b81\u82d1","pinyin":"ChangNingYuan","lng":"101.968110","lat":"38.252730"},{"id":678162,"parent_id":678156,"level":4,"area_code":"620321100006","zip_code":"737299","city_code":"0935","name":"\u5317\u666f\u82d1\u793e\u533a\u5c45\u59d4\u4f1a","short_name":"\u5317\u666f\u82d1","merger_name":"\u7518\u8083,\u91d1\u660c,\u6c38\u660c,\u57ce\u5173,\u5317\u666f\u82d1","pinyin":"BeiJingYuan","lng":"101.978480","lat":"38.249310"},{"id":678163,"parent_id":678156,"level":4,"area_code":"620321100007","zip_code":"737299","city_code":"0935","name":"\u5929\u7ee3\u82d1\u793e\u533a\u5c45\u59d4\u4f1a","short_name":"\u5929\u7ee3\u82d1","merger_name":"\u7518\u8083,\u91d1\u660c,\u6c38\u660c,\u57ce\u5173,\u5929\u7ee3\u82d1","pinyin":"TianXiuYuan","lng":"101.519020","lat":"38.209970"},{"id":678164,"parent_id":678156,"level":4,"area_code":"620321100008","zip_code":"737299","city_code":"0935","name":"\u897f\u5c9a\u82d1\u793e\u533a\u5c45\u59d4\u4f1a","short_name":"\u897f\u5c9a\u82d1","merger_name":"\u7518\u8083,\u91d1\u660c,\u6c38\u660c,\u57ce\u5173,\u897f\u5c9a\u82d1","pinyin":"XiLanYuan","lng":"101.971267","lat":"38.252550"},{"id":678165,"parent_id":678156,"level":4,"area_code":"620321100009","zip_code":"737299","city_code":"0935","name":"\u5357\u9f99\u82d1\u793e\u533a\u5c45\u59d4\u4f1a","short_name":"\u5357\u9f99\u82d1","merger_name":"\u7518\u8083,\u91d1\u660c,\u6c38\u660c,\u57ce\u5173,\u5357\u9f99\u82d1","pinyin":"NanLongYuan","lng":"101.973430","lat":"38.237760"},{"id":678166,"parent_id":678156,"level":4,"area_code":"620321100010","zip_code":"737299","city_code":"0935","name":"\u5b9d\u5c71\u82d1\u793e\u533a\u5c45\u59d4\u4f1a","short_name":"\u5b9d\u5c71\u82d1","merger_name":"\u7518\u8083,\u91d1\u660c,\u6c38\u660c,\u57ce\u5173,\u5b9d\u5c71\u82d1","pinyin":"BaoShanYuan","lng":"101.957910","lat":"38.251260"},{"id":678167,"parent_id":678156,"level":4,"area_code":"620321100200","zip_code":"737299","city_code":"0935","name":"\u8d75\u5bb6\u5e84\u6751\u59d4\u4f1a","short_name":"\u8d75\u5bb6\u5e84","merger_name":"\u7518\u8083,\u91d1\u660c,\u6c38\u660c,\u57ce\u5173,\u8d75\u5bb6\u5e84","pinyin":"ZhaoJiaZhuang","lng":"114.506270","lat":"34.854250"},{"id":678168,"parent_id":678156,"level":4,"area_code":"620321100201","zip_code":"737299","city_code":"0935","name":"\u9ec4\u5bb6\u5b66\u6751\u59d4\u4f1a","short_name":"\u9ec4\u5bb6\u5b66","merger_name":"\u7518\u8083,\u91d1\u660c,\u6c38\u660c,\u57ce\u5173,\u9ec4\u5bb6\u5b66","pinyin":"HuangJiaXue","lng":"101.987410","lat":"38.239290"},{"id":678169,"parent_id":678156,"level":4,"area_code":"620321100202","zip_code":"737299","city_code":"0935","name":"\u6c99\u6c9f\u5c94\u6751\u59d4\u4f1a","short_name":"\u6c99\u6c9f\u5c94","merger_name":"\u7518\u8083,\u91d1\u660c,\u6c38\u660c,\u57ce\u5173,\u6c99\u6c9f\u5c94","pinyin":"ShaGouCha","lng":"101.946560","lat":"38.233810"},{"id":678170,"parent_id":678156,"level":4,"area_code":"620321100203","zip_code":"737299","city_code":"0935","name":"\u4e2d\u5e84\u5b50\u6751\u59d4\u4f1a","short_name":"\u4e2d\u5e84\u5b50","merger_name":"\u7518\u8083,\u91d1\u660c,\u6c38\u660c,\u57ce\u5173,\u4e2d\u5e84\u5b50","pinyin":"ZhongZhuangZi","lng":"101.946560","lat":"38.233810"},{"id":678171,"parent_id":678156,"level":4,"area_code":"620321100204","zip_code":"737299","city_code":"0935","name":"\u5927\u575d\u6751\u6751\u59d4\u4f1a","short_name":"\u5927\u575d\u6751","merger_name":"\u7518\u8083,\u91d1\u660c,\u6c38\u660c,\u57ce\u5173,\u5927\u575d\u6751","pinyin":"DaBaCun","lng":"101.936490","lat":"38.259300"},{"id":678172,"parent_id":678156,"level":4,"area_code":"620321100205","zip_code":"737299","city_code":"0935","name":"\u5c0f\u575d\u6751\u6751\u59d4\u4f1a","short_name":"\u5c0f\u575d\u6751","merger_name":"\u7518\u8083,\u91d1\u660c,\u6c38\u660c,\u57ce\u5173,\u5c0f\u575d\u6751","pinyin":"XiaoBaCun","lng":"101.978480","lat":"38.249310"},{"id":678173,"parent_id":678156,"level":4,"area_code":"620321100206","zip_code":"737299","city_code":"0935","name":"\u5317\u6d77\u5b50\u6751\u59d4\u4f1a","short_name":"\u5317\u6d77\u5b50","merger_name":"\u7518\u8083,\u91d1\u660c,\u6c38\u660c,\u57ce\u5173,\u5317\u6d77\u5b50","pinyin":"BeiHaiZi","lng":"101.984940","lat":"38.244630"},{"id":678174,"parent_id":678156,"level":4,"area_code":"620321100207","zip_code":"737299","city_code":"0935","name":"\u91d1\u5ddd\u4e1c\u6751\u59d4\u4f1a","short_name":"\u91d1\u5ddd\u4e1c","merger_name":"\u7518\u8083,\u91d1\u660c,\u6c38\u660c,\u57ce\u5173,\u91d1\u5ddd\u4e1c","pinyin":"JinChuanDong","lng":"102.027770","lat":"38.253720"},{"id":678175,"parent_id":678156,"level":4,"area_code":"620321100208","zip_code":"737299","city_code":"0935","name":"\u91d1\u5ddd\u897f\u6751\u59d4\u4f1a","short_name":"\u91d1\u5ddd\u897f","merger_name":"\u7518\u8083,\u91d1\u660c,\u6c38\u660c,\u57ce\u5173,\u91d1\u5ddd\u897f","pinyin":"JinChuanXi","lng":"101.959740","lat":"38.326730"},{"id":678176,"parent_id":678156,"level":4,"area_code":"620321100209","zip_code":"737299","city_code":"0935","name":"\u76f4\u5ce1\u5c71\u6751\u59d4\u4f1a","short_name":"\u76f4\u5ce1\u5c71","merger_name":"\u7518\u8083,\u91d1\u660c,\u6c38\u660c,\u57ce\u5173,\u76f4\u5ce1\u5c71","pinyin":"ZhiXiaShan","lng":"101.989430","lat":"38.111020"},{"id":678177,"parent_id":678155,"level":3,"area_code":"620321101000","zip_code":"737202","city_code":"0935","name":"\u6cb3\u897f\u5821\u9547","short_name":"\u6cb3\u897f","merger_name":"\u7518\u8083,\u91d1\u660c,\u6c38\u660c,\u6cb3\u897f","pinyin":"HeXi","lng":"102.088340","lat":"38.381960"},{"id":678178,"parent_id":678177,"level":4,"area_code":"620321101001","zip_code":"737202","city_code":"0935","name":"\u8f66\u7ad9\u8def\u793e\u533a\u5c45\u59d4\u4f1a","short_name":"\u8f66\u7ad9\u8def","merger_name":"\u7518\u8083,\u91d1\u660c,\u6c38\u660c,\u6cb3\u897f,\u8f66\u7ad9\u8def","pinyin":"CheZhanLu","lng":"102.074300","lat":"38.368459"},{"id":678179,"parent_id":678177,"level":4,"area_code":"620321101002","zip_code":"737202","city_code":"0935","name":"\u7389\u6cb3\u8def\u793e\u533a\u5c45\u59d4\u4f1a","short_name":"\u7389\u6cb3\u8def","merger_name":"\u7518\u8083,\u91d1\u660c,\u6c38\u660c,\u6cb3\u897f,\u7389\u6cb3\u8def","pinyin":"YuHeLu","lng":"102.074300","lat":"38.368459"},{"id":678180,"parent_id":678177,"level":4,"area_code":"620321101003","zip_code":"737202","city_code":"0935","name":"\u6c38\u6cb3\u8def\u793e\u533a\u5c45\u59d4\u4f1a","short_name":"\u6c38\u6cb3\u8def","merger_name":"\u7518\u8083,\u91d1\u660c,\u6c38\u660c,\u6cb3\u897f,\u6c38\u6cb3\u8def","pinyin":"YongHeLu","lng":"102.074300","lat":"38.368459"},{"id":678181,"parent_id":678177,"level":4,"area_code":"620321101004","zip_code":"737202","city_code":"0935","name":"\u660c\u6cb3\u8def\u793e\u533a\u5c45\u59d4\u4f1a","short_name":"\u660c\u6cb3\u8def","merger_name":"\u7518\u8083,\u91d1\u660c,\u6c38\u660c,\u6cb3\u897f,\u660c\u6cb3\u8def","pinyin":"ChangHeLu","lng":"102.074300","lat":"38.368459"},{"id":678182,"parent_id":678177,"level":4,"area_code":"620321101005","zip_code":"737202","city_code":"0935","name":"\u94f6\u6cb3\u8def\u793e\u533a\u5c45\u59d4\u4f1a","short_name":"\u94f6\u6cb3\u8def","merger_name":"\u7518\u8083,\u91d1\u660c,\u6c38\u660c,\u6cb3\u897f,\u94f6\u6cb3\u8def","pinyin":"YinHeLu","lng":"102.074300","lat":"38.368459"},{"id":678183,"parent_id":678177,"level":4,"area_code":"620321101006","zip_code":"737202","city_code":"0935","name":"\u91d1\u6cb3\u8def\u793e\u533a\u5c45\u59d4\u4f1a","short_name":"\u91d1\u6cb3\u8def","merger_name":"\u7518\u8083,\u91d1\u660c,\u6c38\u660c,\u6cb3\u897f,\u91d1\u6cb3\u8def","pinyin":"JinHeLu","lng":"102.089750","lat":"38.381160"},{"id":678184,"parent_id":678177,"level":4,"area_code":"620321101200","zip_code":"737202","city_code":"0935","name":"\u6cb3\u897f\u5821\u6751\u59d4\u4f1a","short_name":"\u6cb3\u897f\u5821","merger_name":"\u7518\u8083,\u91d1\u660c,\u6c38\u660c,\u6cb3\u897f,\u6cb3\u897f\u5821","pinyin":"HeXiPu","lng":"102.070281","lat":"38.373524"},{"id":678185,"parent_id":678177,"level":4,"area_code":"620321101201","zip_code":"737202","city_code":"0935","name":"\u6c99\u7a9d\u6751\u59d4\u4f1a","short_name":"\u6c99\u7a9d","merger_name":"\u7518\u8083,\u91d1\u660c,\u6c38\u660c,\u6cb3\u897f,\u6c99\u7a9d","pinyin":"ShaWo","lng":"102.078870","lat":"38.378860"},{"id":678186,"parent_id":678177,"level":4,"area_code":"620321101202","zip_code":"737202","city_code":"0935","name":"\u9e33\u9e2f\u6c60\u6751\u59d4\u4f1a","short_name":"\u9e33\u9e2f\u6c60","merger_name":"\u7518\u8083,\u91d1\u660c,\u6c38\u660c,\u6cb3\u897f,\u9e33\u9e2f\u6c60","pinyin":"YuanYangChi","lng":"102.105360","lat":"38.386350"},{"id":678187,"parent_id":678177,"level":4,"area_code":"620321101203","zip_code":"737202","city_code":"0935","name":"\u6cb3\u4e1c\u5821\u6751\u59d4\u4f1a","short_name":"\u6cb3\u4e1c\u5821","merger_name":"\u7518\u8083,\u91d1\u660c,\u6c38\u660c,\u6cb3\u897f,\u6cb3\u4e1c\u5821","pinyin":"HeDongBao","lng":"102.070281","lat":"38.373524"},{"id":678188,"parent_id":678177,"level":4,"area_code":"620321101204","zip_code":"737202","city_code":"0935","name":"\u897f\u5e84\u5b50\u6751\u59d4\u4f1a","short_name":"\u897f\u5e84\u5b50","merger_name":"\u7518\u8083,\u91d1\u660c,\u6c38\u660c,\u6cb3\u897f,\u897f\u5e84\u5b50","pinyin":"XiZhuangZi","lng":"102.113010","lat":"38.353700"},{"id":678189,"parent_id":678177,"level":4,"area_code":"620321101205","zip_code":"737202","city_code":"0935","name":"\u4e0b\u6d3c\u5b50\u6751\u59d4\u4f1a","short_name":"\u4e0b\u6d3c\u5b50","merger_name":"\u7518\u8083,\u91d1\u660c,\u6c38\u660c,\u6cb3\u897f,\u4e0b\u6d3c\u5b50","pinyin":"XiaWaZi","lng":"102.134740","lat":"38.355460"},{"id":678190,"parent_id":678177,"level":4,"area_code":"620321101206","zip_code":"737202","city_code":"0935","name":"\u5b97\u5bb6\u5e84\u6751\u59d4\u4f1a","short_name":"\u5b97\u5bb6\u5e84","merger_name":"\u7518\u8083,\u91d1\u660c,\u6c38\u660c,\u6cb3\u897f,\u5b97\u5bb6\u5e84","pinyin":"ZongJiaZhuang","lng":"102.155660","lat":"38.170430"},{"id":678191,"parent_id":678177,"level":4,"area_code":"620321101207","zip_code":"737202","city_code":"0935","name":"\u7687\u5bb6\u6cc9\u6751\u59d4\u4f1a","short_name":"\u7687\u5bb6\u6cc9","merger_name":"\u7518\u8083,\u91d1\u660c,\u6c38\u660c,\u6cb3\u897f,\u7687\u5bb6\u6cc9","pinyin":"HuangJiaQuan","lng":"102.070281","lat":"38.373524"},{"id":678192,"parent_id":678177,"level":4,"area_code":"620321101208","zip_code":"737202","city_code":"0935","name":"\u4e0a\u4e09\u5e84\u6751\u59d4\u4f1a","short_name":"\u4e0a\u4e09\u5e84","merger_name":"\u7518\u8083,\u91d1\u660c,\u6c38\u660c,\u6cb3\u897f,\u4e0a\u4e09\u5e84","pinyin":"ShangSanZhuang","lng":"102.176000","lat":"38.338690"},{"id":678193,"parent_id":678177,"level":4,"area_code":"620321101209","zip_code":"737202","city_code":"0935","name":"\u9752\u5c71\u5821\u6751\u59d4\u4f1a","short_name":"\u9752\u5c71\u5821","merger_name":"\u7518\u8083,\u91d1\u660c,\u6c38\u660c,\u6cb3\u897f,\u9752\u5c71\u5821","pinyin":"QingShanBao","lng":"102.251370","lat":"38.307400"},{"id":678194,"parent_id":678177,"level":4,"area_code":"620321101210","zip_code":"737202","city_code":"0935","name":"\u5927\u5be8\u5b50\u6751\u59d4\u4f1a","short_name":"\u5927\u5be8\u5b50","merger_name":"\u7518\u8083,\u91d1\u660c,\u6c38\u660c,\u6cb3\u897f,\u5927\u5be8\u5b50","pinyin":"DaZhaiZi","lng":"102.288150","lat":"38.237150"},{"id":678195,"parent_id":678177,"level":4,"area_code":"620321101211","zip_code":"737202","city_code":"0935","name":"\u5bfa\u95e8\u6751\u59d4\u4f1a","short_name":"\u5bfa\u95e8","merger_name":"\u7518\u8083,\u91d1\u660c,\u6c38\u660c,\u6cb3\u897f,\u5bfa\u95e8","pinyin":"SiMen","lng":"102.145030","lat":"38.357190"},{"id":678196,"parent_id":678155,"level":3,"area_code":"620321102000","zip_code":"737200","city_code":"0935","name":"\u65b0\u57ce\u5b50\u9547","short_name":"\u65b0\u57ce","merger_name":"\u7518\u8083,\u91d1\u660c,\u6c38\u660c,\u65b0\u57ce","pinyin":"XinCheng","lng":"101.589730","lat":"38.198000"},{"id":678197,"parent_id":678196,"level":4,"area_code":"620321102200","zip_code":"737208","city_code":"0935","name":"\u8d75\u5b9a\u5e84\u6751\u59d4\u4f1a","short_name":"\u8d75\u5b9a\u5e84","merger_name":"\u7518\u8083,\u91d1\u660c,\u6c38\u660c,\u65b0\u57ce,\u8d75\u5b9a\u5e84","pinyin":"ZhaoDingZhuang","lng":"101.715000","lat":"38.233230"},{"id":678198,"parent_id":678196,"level":4,"area_code":"620321102201","zip_code":"737208","city_code":"0935","name":"\u5218\u514b\u5e84\u6751\u59d4\u4f1a","short_name":"\u5218\u514b\u5e84","merger_name":"\u7518\u8083,\u91d1\u660c,\u6c38\u660c,\u65b0\u57ce,\u5218\u514b\u5e84","pinyin":"LiuKeZhuang","lng":"101.740680","lat":"38.248140"},{"id":678199,"parent_id":678196,"level":4,"area_code":"620321102202","zip_code":"737208","city_code":"0935","name":"\u5854\u513f\u6e7e\u6751\u59d4\u4f1a","short_name":"\u5854\u513f\u6e7e","merger_name":"\u7518\u8083,\u91d1\u660c,\u6c38\u660c,\u65b0\u57ce,\u5854\u513f\u6e7e","pinyin":"TaErWan","lng":"101.768160","lat":"38.232130"},{"id":678200,"parent_id":678196,"level":4,"area_code":"620321102203","zip_code":"737208","city_code":"0935","name":"\u519c\u6797\u573a\u6751\u59d4\u4f1a","short_name":"\u519c\u6797\u573a","merger_name":"\u7518\u8083,\u91d1\u660c,\u6c38\u660c,\u65b0\u57ce,\u519c\u6797\u573a","pinyin":"NongLinChang","lng":"101.739100","lat":"38.259660"},{"id":678201,"parent_id":678196,"level":4,"area_code":"620321102204","zip_code":"737208","city_code":"0935","name":"\u6bdb\u5bb6\u5e84\u6751\u59d4\u4f1a","short_name":"\u6bdb\u5bb6\u5e84","merger_name":"\u7518\u8083,\u91d1\u660c,\u6c38\u660c,\u65b0\u57ce,\u6bdb\u5bb6\u5e84","pinyin":"MaoJiaZhuang","lng":"101.519020","lat":"38.209970"},{"id":678202,"parent_id":678196,"level":4,"area_code":"620321102205","zip_code":"737208","city_code":"0935","name":"\u5146\u7530\u6751\u59d4\u4f1a","short_name":"\u5146\u7530","merger_name":"\u7518\u8083,\u91d1\u660c,\u6c38\u660c,\u65b0\u57ce,\u5146\u7530","pinyin":"ZhaoTian","lng":"101.552710","lat":"38.212570"},{"id":678203,"parent_id":678196,"level":4,"area_code":"620321102206","zip_code":"737208","city_code":"0935","name":"\u897f\u6e7e\u6751\u59d4\u4f1a","short_name":"\u897f\u6e7e","merger_name":"\u7518\u8083,\u91d1\u660c,\u6c38\u660c,\u65b0\u57ce,\u897f\u6e7e","pinyin":"XiWan","lng":"102.235920","lat":"38.458000"},{"id":678204,"parent_id":678196,"level":4,"area_code":"620321102207","zip_code":"737208","city_code":"0935","name":"\u9a6c\u8425\u6c9f\u6751\u59d4\u4f1a","short_name":"\u9a6c\u8425\u6c9f","merger_name":"\u7518\u8083,\u91d1\u660c,\u6c38\u660c,\u65b0\u57ce,\u9a6c\u8425\u6c9f","pinyin":"MaYingGou","lng":"101.568770","lat":"38.142450"},{"id":678205,"parent_id":678196,"level":4,"area_code":"620321102208","zip_code":"737208","city_code":"0935","name":"\u5510\u5bb6\u5761\u6751\u59d4\u4f1a","short_name":"\u5510\u5bb6\u5761","merger_name":"\u7518\u8083,\u91d1\u660c,\u6c38\u660c,\u65b0\u57ce,\u5510\u5bb6\u5761","pinyin":"TangJiaPo","lng":"101.585850","lat":"38.188390"},{"id":678206,"parent_id":678196,"level":4,"area_code":"620321102209","zip_code":"737208","city_code":"0935","name":"\u65b0\u57ce\u5b50\u6751\u59d4\u4f1a","short_name":"\u65b0\u57ce\u5b50","merger_name":"\u7518\u8083,\u91d1\u660c,\u6c38\u660c,\u65b0\u57ce,\u65b0\u57ce\u5b50","pinyin":"XinChengZi","lng":"102.468922","lat":"38.167164"},{"id":678207,"parent_id":678196,"level":4,"area_code":"620321102210","zip_code":"737208","city_code":"0935","name":"\u90b5\u5bb6\u5e84\u6751\u59d4\u4f1a","short_name":"\u90b5\u5bb6\u5e84","merger_name":"\u7518\u8083,\u91d1\u660c,\u6c38\u660c,\u65b0\u57ce,\u90b5\u5bb6\u5e84","pinyin":"ShaoJiaZhuang","lng":"101.628130","lat":"38.224170"},{"id":678208,"parent_id":678196,"level":4,"area_code":"620321102211","zip_code":"737208","city_code":"0935","name":"\u901a\u4fe1\u5821\u6751\u59d4\u4f1a","short_name":"\u901a\u4fe1\u5821","merger_name":"\u7518\u8083,\u91d1\u660c,\u6c38\u660c,\u65b0\u57ce,\u901a\u4fe1\u5821","pinyin":"TongXinBao","lng":"101.642230","lat":"38.213910"},{"id":678209,"parent_id":678196,"level":4,"area_code":"620321102212","zip_code":"737208","city_code":"0935","name":"\u5357\u6e7e\u6751\u59d4\u4f1a","short_name":"\u5357\u6e7e","merger_name":"\u7518\u8083,\u91d1\u660c,\u6c38\u660c,\u65b0\u57ce,\u5357\u6e7e","pinyin":"NanWan","lng":"101.682300","lat":"38.238000"},{"id":678210,"parent_id":678155,"level":3,"area_code":"620321103000","zip_code":"737200","city_code":"0935","name":"\u6731\u738b\u5821\u9547","short_name":"\u6731\u738b","merger_name":"\u7518\u8083,\u91d1\u660c,\u6c38\u660c,\u6731\u738b","pinyin":"ZhuWang","lng":"102.613160","lat":"38.213910"},{"id":678211,"parent_id":678210,"level":4,"area_code":"620321103200","zip_code":"737206","city_code":"0935","name":"\u5934\u6c9f\u6751\u59d4\u4f1a","short_name":"\u5934\u6c9f","merger_name":"\u7518\u8083,\u91d1\u660c,\u6c38\u660c,\u6731\u738b,\u5934\u6c9f","pinyin":"TouGou","lng":"102.577130","lat":"38.184270"},{"id":678212,"parent_id":678210,"level":4,"area_code":"620321103201","zip_code":"737206","city_code":"0935","name":"\u4e09\u6c9f\u6751\u59d4\u4f1a","short_name":"\u4e09\u6c9f","merger_name":"\u7518\u8083,\u91d1\u660c,\u6c38\u660c,\u6731\u738b,\u4e09\u6c9f","pinyin":"SanGou","lng":"102.582350","lat":"38.193710"},{"id":678213,"parent_id":678210,"level":4,"area_code":"620321103202","zip_code":"737206","city_code":"0935","name":"\u6885\u5357\u6751\u59d4\u4f1a","short_name":"\u6885\u5357","merger_name":"\u7518\u8083,\u91d1\u660c,\u6c38\u660c,\u6731\u738b,\u6885\u5357","pinyin":"MeiNan","lng":"102.612030","lat":"38.208580"},{"id":678214,"parent_id":678210,"level":4,"area_code":"620321103203","zip_code":"737206","city_code":"0935","name":"\u65b0\u5821\u5b50\u6751\u59d4\u4f1a","short_name":"\u65b0\u5821\u5b50","merger_name":"\u7518\u8083,\u91d1\u660c,\u6c38\u660c,\u6731\u738b,\u65b0\u5821\u5b50","pinyin":"XinBuZi","lng":"102.612030","lat":"38.208580"},{"id":678215,"parent_id":678210,"level":4,"area_code":"620321103204","zip_code":"737206","city_code":"0935","name":"\u6731\u738b\u5821\u6751\u59d4\u4f1a","short_name":"\u6731\u738b\u5821","merger_name":"\u7518\u8083,\u91d1\u660c,\u6c38\u660c,\u6731\u738b,\u6731\u738b\u5821","pinyin":"ZhuWangBao","lng":"102.592690","lat":"38.220370"},{"id":678216,"parent_id":678210,"level":4,"area_code":"620321103205","zip_code":"737206","city_code":"0935","name":"\u6c64\u5b81\u6751\u59d4\u4f1a","short_name":"\u6c64\u5b81","merger_name":"\u7518\u8083,\u91d1\u660c,\u6c38\u660c,\u6731\u738b,\u6c64\u5b81","pinyin":"TangNing","lng":"102.592690","lat":"38.220370"},{"id":678217,"parent_id":678210,"level":4,"area_code":"620321103206","zip_code":"737206","city_code":"0935","name":"\u90d1\u5bb6\u5821\u6751\u59d4\u4f1a","short_name":"\u90d1\u5bb6\u5821","merger_name":"\u7518\u8083,\u91d1\u660c,\u6c38\u660c,\u6731\u738b,\u90d1\u5bb6\u5821","pinyin":"ZhengJiaBao","lng":"102.685500","lat":"38.253640"},{"id":678218,"parent_id":678210,"level":4,"area_code":"620321103207","zip_code":"737206","city_code":"0935","name":"\u8463\u5bb6\u5821\u6751\u59d4\u4f1a","short_name":"\u8463\u5bb6\u5821","merger_name":"\u7518\u8083,\u91d1\u660c,\u6c38\u660c,\u6731\u738b,\u8463\u5bb6\u5821","pinyin":"DongJiaBao","lng":"102.705570","lat":"38.245510"},{"id":678219,"parent_id":678210,"level":4,"area_code":"620321103208","zip_code":"737206","city_code":"0935","name":"\u4e0b\u6c64\u6751\u59d4\u4f1a","short_name":"\u4e0b\u6c64","merger_name":"\u7518\u8083,\u91d1\u660c,\u6c38\u660c,\u6731\u738b,\u4e0b\u6c64","pinyin":"XiaTang","lng":"102.680690","lat":"38.241240"},{"id":678220,"parent_id":678210,"level":4,"area_code":"620321103209","zip_code":"737206","city_code":"0935","name":"\u6d41\u6cc9\u6751\u59d4\u4f1a","short_name":"\u6d41\u6cc9","merger_name":"\u7518\u8083,\u91d1\u660c,\u6c38\u660c,\u6731\u738b,\u6d41\u6cc9","pinyin":"LiuQuan","lng":"102.468922","lat":"38.167164"},{"id":678221,"parent_id":678210,"level":4,"area_code":"620321103210","zip_code":"737206","city_code":"0935","name":"\u5218\u6b63\u6751\u59d4\u4f1a","short_name":"\u5218\u6b63","merger_name":"\u7518\u8083,\u91d1\u660c,\u6c38\u660c,\u6731\u738b,\u5218\u6b63","pinyin":"LiuZheng","lng":"102.592690","lat":"38.220370"},{"id":678222,"parent_id":678210,"level":4,"area_code":"620321103211","zip_code":"737206","city_code":"0935","name":"\u9648\u4ed3\u6751\u59d4\u4f1a","short_name":"\u9648\u4ed3","merger_name":"\u7518\u8083,\u91d1\u660c,\u6c38\u660c,\u6731\u738b,\u9648\u4ed3","pinyin":"ChenCang","lng":"102.626900","lat":"38.178600"},{"id":678223,"parent_id":678210,"level":4,"area_code":"620321103212","zip_code":"737206","city_code":"0935","name":"\u6885\u5317\u6751\u59d4\u4f1a","short_name":"\u6885\u5317","merger_name":"\u7518\u8083,\u91d1\u660c,\u6c38\u660c,\u6731\u738b,\u6885\u5317","pinyin":"MeiBei","lng":"102.617930","lat":"38.190140"},{"id":678224,"parent_id":678155,"level":3,"area_code":"620321104000","zip_code":"737299","city_code":"0935","name":"\u4e1c\u5be8\u9547","short_name":"\u4e1c\u5be8","merger_name":"\u7518\u8083,\u91d1\u660c,\u6c38\u660c,\u4e1c\u5be8","pinyin":"DongZhai","lng":"102.036060","lat":"38.154180"},{"id":678225,"parent_id":678224,"level":4,"area_code":"620321104200","zip_code":"737299","city_code":"0935","name":"\u5934\u575d\u6751\u59d4\u4f1a","short_name":"\u5934\u575d","merger_name":"\u7518\u8083,\u91d1\u660c,\u6c38\u660c,\u4e1c\u5be8,\u5934\u575d","pinyin":"TouBa","lng":"102.021381","lat":"38.229528"},{"id":678226,"parent_id":678224,"level":4,"area_code":"620321104201","zip_code":"737299","city_code":"0935","name":"\u6c38\u4e30\u6751\u59d4\u4f1a","short_name":"\u6c38\u4e30","merger_name":"\u7518\u8083,\u91d1\u660c,\u6c38\u660c,\u4e1c\u5be8,\u6c38\u4e30","pinyin":"YongFeng","lng":"102.021060","lat":"38.150320"},{"id":678227,"parent_id":678224,"level":4,"area_code":"620321104202","zip_code":"737299","city_code":"0935","name":"\u4e0a\u4e09\u575d\u6751\u59d4\u4f1a","short_name":"\u4e0a\u4e09\u575d","merger_name":"\u7518\u8083,\u91d1\u660c,\u6c38\u660c,\u4e1c\u5be8,\u4e0a\u4e09\u575d","pinyin":"ShangSanBa","lng":"102.048980","lat":"38.138650"},{"id":678228,"parent_id":678224,"level":4,"area_code":"620321104203","zip_code":"737299","city_code":"0935","name":"\u4e8c\u575d\u6751\u59d4\u4f1a","short_name":"\u4e8c\u575d","merger_name":"\u7518\u8083,\u91d1\u660c,\u6c38\u660c,\u4e1c\u5be8,\u4e8c\u575d","pinyin":"ErBa","lng":"102.016820","lat":"38.214320"},{"id":678229,"parent_id":678224,"level":4,"area_code":"620321104204","zip_code":"737299","city_code":"0935","name":"\u4e0b\u4e8c\u575d\u6751\u59d4\u4f1a","short_name":"\u4e0b\u4e8c\u575d","merger_name":"\u7518\u8083,\u91d1\u660c,\u6c38\u660c,\u4e1c\u5be8,\u4e0b\u4e8c\u575d","pinyin":"XiaErBa","lng":"101.987410","lat":"38.239290"},{"id":678230,"parent_id":678224,"level":4,"area_code":"620321104205","zip_code":"737299","city_code":"0935","name":"\u65b0\u4e8c\u575d\u6751\u59d4\u4f1a","short_name":"\u65b0\u4e8c\u575d","merger_name":"\u7518\u8083,\u91d1\u660c,\u6c38\u660c,\u4e1c\u5be8,\u65b0\u4e8c\u575d","pinyin":"XinErBa","lng":"102.016820","lat":"38.214320"},{"id":678231,"parent_id":678224,"level":4,"area_code":"620321104206","zip_code":"737299","city_code":"0935","name":"\u4e0a\u56db\u575d\u6751\u59d4\u4f1a","short_name":"\u4e0a\u56db\u575d","merger_name":"\u7518\u8083,\u91d1\u660c,\u6c38\u660c,\u4e1c\u5be8,\u4e0a\u56db\u575d","pinyin":"ShangSiBa","lng":"102.066840","lat":"38.178440"},{"id":678232,"parent_id":678224,"level":4,"area_code":"620321104207","zip_code":"737299","city_code":"0935","name":"\u53cc\u6865\u6751\u59d4\u4f1a","short_name":"\u53cc\u6865","merger_name":"\u7518\u8083,\u91d1\u660c,\u6c38\u660c,\u4e1c\u5be8,\u53cc\u6865","pinyin":"ShuangQiao","lng":"101.971510","lat":"38.247280"},{"id":678233,"parent_id":678224,"level":4,"area_code":"620321104208","zip_code":"737299","city_code":"0935","name":"\u4e0b\u4e09\u575d\u6751\u59d4\u4f1a","short_name":"\u4e0b\u4e09\u575d","merger_name":"\u7518\u8083,\u91d1\u660c,\u6c38\u660c,\u4e1c\u5be8,\u4e0b\u4e09\u575d","pinyin":"XiaSanBa","lng":"101.987653","lat":"38.239223"},{"id":678234,"parent_id":678224,"level":4,"area_code":"620321104209","zip_code":"737299","city_code":"0935","name":"\u9f99\u53e3\u6751\u59d4\u4f1a","short_name":"\u9f99\u53e3","merger_name":"\u7518\u8083,\u91d1\u660c,\u6c38\u660c,\u4e1c\u5be8,\u9f99\u53e3","pinyin":"LongKou","lng":"102.106180","lat":"38.250060"},{"id":678235,"parent_id":678224,"level":4,"area_code":"620321104210","zip_code":"737299","city_code":"0935","name":"\u4e0b\u56db\u575d\u6751\u59d4\u4f1a","short_name":"\u4e0b\u56db\u575d","merger_name":"\u7518\u8083,\u91d1\u660c,\u6c38\u660c,\u4e1c\u5be8,\u4e0b\u56db\u575d","pinyin":"XiaSiBa","lng":"102.136850","lat":"38.250580"},{"id":678236,"parent_id":678155,"level":3,"area_code":"620321105000","zip_code":"737205","city_code":"0935","name":"\u6c34\u6e90\u9547","short_name":"\u6c34\u6e90","merger_name":"\u7518\u8083,\u91d1\u660c,\u6c38\u660c,\u6c34\u6e90","pinyin":"ShuiYuan","lng":"102.531480","lat":"38.189540"},{"id":678237,"parent_id":678236,"level":4,"area_code":"620321105200","zip_code":"737205","city_code":"0935","name":"\u675c\u5bb6\u5be8\u6751\u59d4\u4f1a","short_name":"\u675c\u5bb6\u5be8","merger_name":"\u7518\u8083,\u91d1\u660c,\u6c38\u660c,\u6c34\u6e90,\u675c\u5bb6\u5be8","pinyin":"DuJiaZhai","lng":"102.471870","lat":"38.157470"},{"id":678238,"parent_id":678236,"level":4,"area_code":"620321105201","zip_code":"737205","city_code":"0935","name":"\u80dc\u5229\u6751\u59d4\u4f1a","short_name":"\u80dc\u5229","merger_name":"\u7518\u8083,\u91d1\u660c,\u6c38\u660c,\u6c34\u6e90,\u80dc\u5229","pinyin":"ShengLi","lng":"102.468922","lat":"38.167164"},{"id":678239,"parent_id":678236,"level":4,"area_code":"620321105202","zip_code":"737205","city_code":"0935","name":"\u5b8b\u5bb6\u6c9f\u6751\u59d4\u4f1a","short_name":"\u5b8b\u5bb6\u6c9f","merger_name":"\u7518\u8083,\u91d1\u660c,\u6c38\u660c,\u6c34\u6e90,\u5b8b\u5bb6\u6c9f","pinyin":"SongJiaGou","lng":"102.465560","lat":"38.179960"},{"id":678240,"parent_id":678236,"level":4,"area_code":"620321105203","zip_code":"737205","city_code":"0935","name":"\u534e\u5bb6\u6c9f\u6751\u59d4\u4f1a","short_name":"\u534e\u5bb6\u6c9f","merger_name":"\u7518\u8083,\u91d1\u660c,\u6c38\u660c,\u6c34\u6e90,\u534e\u5bb6\u6c9f","pinyin":"HuaJiaGou","lng":"102.497560","lat":"38.173820"},{"id":678241,"parent_id":678236,"level":4,"area_code":"620321105204","zip_code":"737205","city_code":"0935","name":"\u65b9\u6c9f\u6751\u59d4\u4f1a","short_name":"\u65b9\u6c9f","merger_name":"\u7518\u8083,\u91d1\u660c,\u6c38\u660c,\u6c34\u6e90,\u65b9\u6c9f","pinyin":"FangGou","lng":"102.506500","lat":"38.182910"},{"id":678242,"parent_id":678236,"level":4,"area_code":"620321105205","zip_code":"737205","city_code":"0935","name":"\u6c38\u5b81\u6751\u59d4\u4f1a","short_name":"\u6c38\u5b81","merger_name":"\u7518\u8083,\u91d1\u660c,\u6c38\u660c,\u6c34\u6e90,\u6c38\u5b81","pinyin":"YongNing","lng":"102.527390","lat":"38.189240"},{"id":678243,"parent_id":678236,"level":4,"area_code":"620321105206","zip_code":"737205","city_code":"0935","name":"\u5317\u5730\u6751\u59d4\u4f1a","short_name":"\u5317\u5730","merger_name":"\u7518\u8083,\u91d1\u660c,\u6c38\u660c,\u6c34\u6e90,\u5317\u5730","pinyin":"BeiDi","lng":"102.549870","lat":"38.207100"},{"id":678244,"parent_id":678236,"level":4,"area_code":"620321105207","zip_code":"737205","city_code":"0935","name":"\u4e1c\u6c9f\u6751\u59d4\u4f1a","short_name":"\u4e1c\u6c9f","merger_name":"\u7518\u8083,\u91d1\u660c,\u6c38\u660c,\u6c34\u6e90,\u4e1c\u6c9f","pinyin":"DongGou","lng":"102.572030","lat":"38.242230"},{"id":678245,"parent_id":678236,"level":4,"area_code":"620321105208","zip_code":"737205","city_code":"0935","name":"\u8d75\u6c9f\u6751\u59d4\u4f1a","short_name":"\u8d75\u6c9f","merger_name":"\u7518\u8083,\u91d1\u660c,\u6c38\u660c,\u6c34\u6e90,\u8d75\u6c9f","pinyin":"ZhaoGou","lng":"102.585200","lat":"38.239010"},{"id":678246,"parent_id":678236,"level":4,"area_code":"620321105209","zip_code":"737205","city_code":"0935","name":"\u65b0\u6c9f\u6751\u59d4\u4f1a","short_name":"\u65b0\u6c9f","merger_name":"\u7518\u8083,\u91d1\u660c,\u6c38\u660c,\u6c34\u6e90,\u65b0\u6c9f","pinyin":"XinGou","lng":"102.585810","lat":"38.268260"},{"id":678247,"parent_id":678236,"level":4,"area_code":"620321105210","zip_code":"737205","city_code":"0935","name":"\u897f\u6c9f\u6751\u59d4\u4f1a","short_name":"\u897f\u6c9f","merger_name":"\u7518\u8083,\u91d1\u660c,\u6c38\u660c,\u6c34\u6e90,\u897f\u6c9f","pinyin":"XiGou","lng":"102.572640","lat":"38.253420"},{"id":678248,"parent_id":678155,"level":3,"area_code":"620321106000","zip_code":"737209","city_code":"0935","name":"\u7ea2\u5c71\u7a91\u9547","short_name":"\u7ea2\u5c71","merger_name":"\u7518\u8083,\u91d1\u660c,\u6c38\u660c,\u7ea2\u5c71","pinyin":"HongShan","lng":"101.585870","lat":"38.309020"},{"id":678249,"parent_id":678248,"level":4,"area_code":"620321106200","zip_code":"737209","city_code":"0935","name":"\u571f\u6c9f\u6751\u59d4\u4f1a","short_name":"\u571f\u6c9f","merger_name":"\u7518\u8083,\u91d1\u660c,\u6c38\u660c,\u7ea2\u5c71,\u571f\u6c9f","pinyin":"TuGou","lng":"101.585870","lat":"38.309020"},{"id":678250,"parent_id":678248,"level":4,"area_code":"620321106201","zip_code":"737209","city_code":"0935","name":"\u9ad8\u53e4\u57ce\u6751\u59d4\u4f1a","short_name":"\u9ad8\u53e4\u57ce","merger_name":"\u7518\u8083,\u91d1\u660c,\u6c38\u660c,\u7ea2\u5c71,\u9ad8\u53e4\u57ce","pinyin":"GaoGuCheng","lng":"101.553660","lat":"38.259620"},{"id":678251,"parent_id":678248,"level":4,"area_code":"620321106202","zip_code":"737209","city_code":"0935","name":"\u6cb3\u6cbf\u5b50\u6751\u59d4\u4f1a","short_name":"\u6cb3\u6cbf\u5b50","merger_name":"\u7518\u8083,\u91d1\u660c,\u6c38\u660c,\u7ea2\u5c71,\u6cb3\u6cbf\u5b50","pinyin":"HeYanZi","lng":"101.594660","lat":"38.267830"},{"id":678252,"parent_id":678248,"level":4,"area_code":"620321106203","zip_code":"737209","city_code":"0935","name":"\u59da\u5bb6\u5be8\u6751\u59d4\u4f1a","short_name":"\u59da\u5bb6\u5be8","merger_name":"\u7518\u8083,\u91d1\u660c,\u6c38\u660c,\u7ea2\u5c71,\u59da\u5bb6\u5be8","pinyin":"YaoJiaZhai","lng":"101.634790","lat":"38.272290"},{"id":678253,"parent_id":678248,"level":4,"area_code":"620321106204","zip_code":"737209","city_code":"0935","name":"\u5939\u6cb3\u6751\u59d4\u4f1a","short_name":"\u5939\u6cb3","merger_name":"\u7518\u8083,\u91d1\u660c,\u6c38\u660c,\u7ea2\u5c71,\u5939\u6cb3","pinyin":"JiaHe","lng":"101.685410","lat":"38.276140"},{"id":678254,"parent_id":678248,"level":4,"area_code":"620321106205","zip_code":"737209","city_code":"0935","name":"\u7ea2\u5c71\u7a91\u6751\u59d4\u4f1a","short_name":"\u7ea2\u5c71\u7a91","merger_name":"\u7518\u8083,\u91d1\u660c,\u6c38\u660c,\u7ea2\u5c71,\u7ea2\u5c71\u7a91","pinyin":"HongShanYao","lng":"101.571810","lat":"38.315900"},{"id":678255,"parent_id":678248,"level":4,"area_code":"620321106206","zip_code":"737209","city_code":"0935","name":"\u5c71\u5934\u6751\u59d4\u4f1a","short_name":"\u5c71\u5934","merger_name":"\u7518\u8083,\u91d1\u660c,\u6c38\u660c,\u7ea2\u5c71,\u5c71\u5934","pinyin":"ShanTou","lng":"101.571810","lat":"38.315900"},{"id":678256,"parent_id":678248,"level":4,"area_code":"620321106207","zip_code":"737209","city_code":"0935","name":"\u6c34\u6cc9\u6751\u59d4\u4f1a","short_name":"\u6c34\u6cc9","merger_name":"\u7518\u8083,\u91d1\u660c,\u6c38\u660c,\u7ea2\u5c71,\u6c34\u6cc9","pinyin":"ShuiQuan","lng":"101.585870","lat":"38.309020"},{"id":678257,"parent_id":678248,"level":4,"area_code":"620321106208","zip_code":"737209","city_code":"0935","name":"\u6c38\u80dc\u6751\u59d4\u4f1a","short_name":"\u6c38\u80dc","merger_name":"\u7518\u8083,\u91d1\u660c,\u6c38\u660c,\u7ea2\u5c71,\u6c38\u80dc","pinyin":"YongSheng","lng":"101.650430","lat":"38.334380"},{"id":678258,"parent_id":678248,"level":4,"area_code":"620321106209","zip_code":"737209","city_code":"0935","name":"\u738b\u4fe1\u5821\u6751\u59d4\u4f1a","short_name":"\u738b\u4fe1\u5821","merger_name":"\u7518\u8083,\u91d1\u660c,\u6c38\u660c,\u7ea2\u5c71,\u738b\u4fe1\u5821","pinyin":"WangXinBao","lng":"101.704880","lat":"38.337910"},{"id":678259,"parent_id":678248,"level":4,"area_code":"620321106210","zip_code":"737209","city_code":"0935","name":"\u9a6c\u5bb6\u576a\u6751\u59d4\u4f1a","short_name":"\u9a6c\u5bb6\u576a","merger_name":"\u7518\u8083,\u91d1\u660c,\u6c38\u660c,\u7ea2\u5c71,\u9a6c\u5bb6\u576a","pinyin":"MaJiaPing","lng":"101.694390","lat":"38.311790"},{"id":678260,"parent_id":678248,"level":4,"area_code":"620321106211","zip_code":"737207","city_code":"0935","name":"\u6bdb\u535c\u5587\u6751\u59d4\u4f1a","short_name":"\u6bdb\u535c\u5587","merger_name":"\u7518\u8083,\u91d1\u660c,\u6c38\u660c,\u7ea2\u5c71,\u6bdb\u535c\u5587","pinyin":"MaoBoLa","lng":"101.828280","lat":"38.332850"},{"id":678261,"parent_id":678155,"level":3,"area_code":"620321107000","zip_code":"737200","city_code":"0935","name":"\u7126\u5bb6\u5e84\u9547","short_name":"\u7126\u5bb6","merger_name":"\u7518\u8083,\u91d1\u660c,\u6c38\u660c,\u7126\u5bb6","pinyin":"JiaoJia","lng":"102.627370","lat":"38.174920"},{"id":678262,"parent_id":678261,"level":4,"area_code":"620321107200","zip_code":"737207","city_code":"0935","name":"\u7ea2\u5e99\u58a9\u6751\u59d4\u4f1a","short_name":"\u7ea2\u5e99\u58a9","merger_name":"\u7518\u8083,\u91d1\u660c,\u6c38\u660c,\u7126\u5bb6,\u7ea2\u5e99\u58a9","pinyin":"HongMiaoDun","lng":"101.828460","lat":"38.272690"},{"id":678263,"parent_id":678261,"level":4,"area_code":"620321107201","zip_code":"737207","city_code":"0935","name":"\u5317\u6cc9\u6751\u59d4\u4f1a","short_name":"\u5317\u6cc9","merger_name":"\u7518\u8083,\u91d1\u660c,\u6c38\u660c,\u7126\u5bb6,\u5317\u6cc9","pinyin":"BeiQuan","lng":"101.792030","lat":"38.272730"},{"id":678264,"parent_id":678261,"level":4,"area_code":"620321107202","zip_code":"737207","city_code":"0935","name":"\u53cc\u78e8\u8857\u6751\u59d4\u4f1a","short_name":"\u53cc\u78e8\u8857","merger_name":"\u7518\u8083,\u91d1\u660c,\u6c38\u660c,\u7126\u5bb6,\u53cc\u78e8\u8857","pinyin":"ShuangMoJie","lng":"101.828460","lat":"38.272690"},{"id":678265,"parent_id":678261,"level":4,"area_code":"620321107203","zip_code":"737207","city_code":"0935","name":"\u6cb3\u6ee9\u6751\u59d4\u4f1a","short_name":"\u6cb3\u6ee9","merger_name":"\u7518\u8083,\u91d1\u660c,\u6c38\u660c,\u7126\u5bb6,\u6cb3\u6ee9","pinyin":"HeTan","lng":"101.771820","lat":"38.254400"},{"id":678266,"parent_id":678261,"level":4,"area_code":"620321107204","zip_code":"737207","city_code":"0935","name":"\u674f\u6811\u5e84\u6751\u59d4\u4f1a","short_name":"\u674f\u6811\u5e84","merger_name":"\u7518\u8083,\u91d1\u660c,\u6c38\u660c,\u7126\u5bb6,\u674f\u6811\u5e84","pinyin":"XingShuZhuang","lng":"101.835970","lat":"38.275090"},{"id":678267,"parent_id":678261,"level":4,"area_code":"620321107205","zip_code":"737207","city_code":"0935","name":"\u6885\u5bb6\u5bfa\u6751\u59d4\u4f1a","short_name":"\u6885\u5bb6\u5bfa","merger_name":"\u7518\u8083,\u91d1\u660c,\u6c38\u660c,\u7126\u5bb6,\u6885\u5bb6\u5bfa","pinyin":"MeiJiaSi","lng":"101.828460","lat":"38.272690"},{"id":678268,"parent_id":678261,"level":4,"area_code":"620321107206","zip_code":"737207","city_code":"0935","name":"\u5357\u6cbf\u6c9f\u6751\u59d4\u4f1a","short_name":"\u5357\u6cbf\u6c9f","merger_name":"\u7518\u8083,\u91d1\u660c,\u6c38\u660c,\u7126\u5bb6,\u5357\u6cbf\u6c9f","pinyin":"NanYanGou","lng":"101.846470","lat":"38.254660"},{"id":678269,"parent_id":678261,"level":4,"area_code":"620321107207","zip_code":"737207","city_code":"0935","name":"\u6c34\u78e8\u5173\u6751\u59d4\u4f1a","short_name":"\u6c34\u78e8\u5173","merger_name":"\u7518\u8083,\u91d1\u660c,\u6c38\u660c,\u7126\u5bb6,\u6c34\u78e8\u5173","pinyin":"ShuiMoGuan","lng":"101.841800","lat":"38.263450"},{"id":678270,"parent_id":678261,"level":4,"area_code":"620321107208","zip_code":"737207","city_code":"0935","name":"\u7126\u5bb6\u5e84\u6751\u59d4\u4f1a","short_name":"\u7126\u5bb6\u5e84","merger_name":"\u7518\u8083,\u91d1\u660c,\u6c38\u660c,\u7126\u5bb6,\u7126\u5bb6\u5e84","pinyin":"JiaoJiaZhuang","lng":"101.889810","lat":"38.253840"},{"id":678271,"parent_id":678261,"level":4,"area_code":"620321107209","zip_code":"737207","city_code":"0935","name":"\u697c\u5e84\u5b50\u6751\u59d4\u4f1a","short_name":"\u697c\u5e84\u5b50","merger_name":"\u7518\u8083,\u91d1\u660c,\u6c38\u660c,\u7126\u5bb6,\u697c\u5e84\u5b50","pinyin":"LouZhuangZi","lng":"101.891960","lat":"38.240470"},{"id":678272,"parent_id":678261,"level":4,"area_code":"620321107210","zip_code":"737207","city_code":"0935","name":"\u9a8a\u976c\u6751\u59d4\u4f1a","short_name":"\u9a8a\u976c","merger_name":"\u7518\u8083,\u91d1\u660c,\u6c38\u660c,\u7126\u5bb6,\u9a8a\u976c","pinyin":"LiQian","lng":"101.871640","lat":"38.195080"},{"id":678273,"parent_id":678261,"level":4,"area_code":"620321107211","zip_code":"737207","city_code":"0935","name":"\u9648\u5bb6\u5be8\u6751\u59d4\u4f1a","short_name":"\u9648\u5bb6\u5be8","merger_name":"\u7518\u8083,\u91d1\u660c,\u6c38\u660c,\u7126\u5bb6,\u9648\u5bb6\u5be8","pinyin":"ChenJiaZhai","lng":"101.887300","lat":"38.265870"},{"id":678274,"parent_id":678155,"level":3,"area_code":"620321108000","zip_code":"737204","city_code":"0935","name":"\u516d\u575d\u9547","short_name":"\u516d\u575d","merger_name":"\u7518\u8083,\u91d1\u660c,\u6c38\u660c,\u516d\u575d","pinyin":"LiuBa","lng":"102.149900","lat":"38.165150"},{"id":678275,"parent_id":678274,"level":4,"area_code":"620321108200","zip_code":"737204","city_code":"0935","name":"\u7389\u5b9d\u6751\u59d4\u4f1a","short_name":"\u7389\u5b9d","merger_name":"\u7518\u8083,\u91d1\u660c,\u6c38\u660c,\u516d\u575d,\u7389\u5b9d","pinyin":"YuBao","lng":"102.049440","lat":"38.139540"},{"id":678276,"parent_id":678274,"level":4,"area_code":"620321108201","zip_code":"737204","city_code":"0935","name":"\u4e94\u575d\u6751\u59d4\u4f1a","short_name":"\u4e94\u575d","merger_name":"\u7518\u8083,\u91d1\u660c,\u6c38\u660c,\u516d\u575d,\u4e94\u575d","pinyin":"WuBa","lng":"102.154050","lat":"38.162430"},{"id":678277,"parent_id":678274,"level":4,"area_code":"620321108202","zip_code":"737204","city_code":"0935","name":"\u4e0a\u516d\u575d\u6751\u59d4\u4f1a","short_name":"\u4e0a\u516d\u575d","merger_name":"\u7518\u8083,\u91d1\u660c,\u6c38\u660c,\u516d\u575d,\u4e0a\u516d\u575d","pinyin":"ShangLiuBa","lng":"102.154050","lat":"38.162430"},{"id":678278,"parent_id":678274,"level":4,"area_code":"620321108203","zip_code":"737204","city_code":"0935","name":"\u4e03\u575d\u6751\u59d4\u4f1a","short_name":"\u4e03\u575d","merger_name":"\u7518\u8083,\u91d1\u660c,\u6c38\u660c,\u516d\u575d,\u4e03\u575d","pinyin":"QiBa","lng":"102.158460","lat":"38.159500"},{"id":678279,"parent_id":678274,"level":4,"area_code":"620321108204","zip_code":"737204","city_code":"0935","name":"\u516d\u575d\u6751\u59d4\u4f1a","short_name":"\u516d\u575d","merger_name":"\u7518\u8083,\u91d1\u660c,\u6c38\u660c,\u516d\u575d,\u516d\u575d","pinyin":"LiuBa","lng":"102.154050","lat":"38.162430"},{"id":678280,"parent_id":678274,"level":4,"area_code":"620321108205","zip_code":"737204","city_code":"0935","name":"\u661f\u6d77\u6751\u59d4\u4f1a","short_name":"\u661f\u6d77","merger_name":"\u7518\u8083,\u91d1\u660c,\u6c38\u660c,\u516d\u575d,\u661f\u6d77","pinyin":"XingHai","lng":"102.154050","lat":"38.162430"},{"id":678281,"parent_id":678274,"level":4,"area_code":"620321108206","zip_code":"737204","city_code":"0935","name":"\u4e0b\u4e03\u575d\u6751\u59d4\u4f1a","short_name":"\u4e0b\u4e03\u575d","merger_name":"\u7518\u8083,\u91d1\u660c,\u6c38\u660c,\u516d\u575d,\u4e0b\u4e03\u575d","pinyin":"XiaQiBa","lng":"102.189640","lat":"38.154700"},{"id":678282,"parent_id":678274,"level":4,"area_code":"620321108207","zip_code":"737204","city_code":"0935","name":"\u5357\u5e84\u6751\u59d4\u4f1a","short_name":"\u5357\u5e84","merger_name":"\u7518\u8083,\u91d1\u660c,\u6c38\u660c,\u516d\u575d,\u5357\u5e84","pinyin":"NanZhuang","lng":"102.149900","lat":"38.165150"},{"id":678283,"parent_id":678274,"level":4,"area_code":"620321108208","zip_code":"737204","city_code":"0935","name":"\u516b\u575d\u6751\u59d4\u4f1a","short_name":"\u516b\u575d","merger_name":"\u7518\u8083,\u91d1\u660c,\u6c38\u660c,\u516d\u575d,\u516b\u575d","pinyin":"BaBa","lng":"102.220840","lat":"38.139290"},{"id":678284,"parent_id":678274,"level":4,"area_code":"620321108209","zip_code":"737204","city_code":"0935","name":"\u4e0b\u6392\u6751\u59d4\u4f1a","short_name":"\u4e0b\u6392","merger_name":"\u7518\u8083,\u91d1\u660c,\u6c38\u660c,\u516d\u575d,\u4e0b\u6392","pinyin":"XiaPai","lng":"102.220840","lat":"38.139290"},{"id":678285,"parent_id":678274,"level":4,"area_code":"620321108210","zip_code":"737204","city_code":"0935","name":"\u4e5d\u575d\u6751\u59d4\u4f1a","short_name":"\u4e5d\u575d","merger_name":"\u7518\u8083,\u91d1\u660c,\u6c38\u660c,\u516d\u575d,\u4e5d\u575d","pinyin":"JiuBa","lng":"102.262340","lat":"38.139340"},{"id":678286,"parent_id":678274,"level":4,"area_code":"620321108211","zip_code":"737204","city_code":"0935","name":"\u56e2\u5e84\u6751\u59d4\u4f1a","short_name":"\u56e2\u5e84","merger_name":"\u7518\u8083,\u91d1\u660c,\u6c38\u660c,\u516d\u575d,\u56e2\u5e84","pinyin":"TuanZhuang","lng":"102.306480","lat":"38.149050"},{"id":678287,"parent_id":678155,"level":3,"area_code":"620321203000","zip_code":"737204","city_code":"0935","name":"\u5357\u575d\u4e61","short_name":"\u5357\u575d","merger_name":"\u7518\u8083,\u91d1\u660c,\u6c38\u660c,\u5357\u575d","pinyin":"NanBa","lng":"102.102910","lat":"38.107510"},{"id":678288,"parent_id":678287,"level":4,"area_code":"620321203200","zip_code":"737204","city_code":"0935","name":"\u7941\u5e84\u6751\u59d4\u4f1a","short_name":"\u7941\u5e84","merger_name":"\u7518\u8083,\u91d1\u660c,\u6c38\u660c,\u5357\u575d,\u7941\u5e84","pinyin":"QiZhuang","lng":"102.068550","lat":"38.111060"},{"id":678289,"parent_id":678287,"level":4,"area_code":"620321203201","zip_code":"737204","city_code":"0935","name":"\u6c38\u5b89\u6751\u59d4\u4f1a","short_name":"\u6c38\u5b89","merger_name":"\u7518\u8083,\u91d1\u660c,\u6c38\u660c,\u5357\u575d,\u6c38\u5b89","pinyin":"YongAn","lng":"102.103580","lat":"38.108810"},{"id":678290,"parent_id":678287,"level":4,"area_code":"620321203202","zip_code":"737204","city_code":"0935","name":"\u6c38\u4e30\u6751\u59d4\u4f1a","short_name":"\u6c38\u4e30","merger_name":"\u7518\u8083,\u91d1\u660c,\u6c38\u660c,\u5357\u575d,\u6c38\u4e30","pinyin":"YongFeng","lng":"102.128090","lat":"38.103220"},{"id":678291,"parent_id":678287,"level":4,"area_code":"620321203203","zip_code":"737204","city_code":"0935","name":"\u897f\u6821\u6751\u59d4\u4f1a","short_name":"\u897f\u6821","merger_name":"\u7518\u8083,\u91d1\u660c,\u6c38\u660c,\u5357\u575d,\u897f\u6821","pinyin":"XiXiao","lng":"102.468922","lat":"38.167164"},{"id":678292,"parent_id":678287,"level":4,"area_code":"620321203204","zip_code":"737204","city_code":"0935","name":"\u4f55\u5bb6\u6e7e\u6751\u59d4\u4f1a","short_name":"\u4f55\u5bb6\u6e7e","merger_name":"\u7518\u8083,\u91d1\u660c,\u6c38\u660c,\u5357\u575d,\u4f55\u5bb6\u6e7e","pinyin":"HeJiaWan","lng":"102.203330","lat":"38.086930"},{"id":678293,"parent_id":676777,"level":1,"area_code":"620400000000","zip_code":"730900","city_code":"0943","name":"\u767d\u94f6\u5e02","short_name":"\u767d\u94f6","merger_name":"\u7518\u8083,\u767d\u94f6","pinyin":"BaiYin","lng":"104.138559","lat":"36.544756"},{"id":678294,"parent_id":678293,"level":2,"area_code":"620401000000","zip_code":"730900","city_code":"0943","name":"\u5e02\u8f96\u533a","short_name":"\u767d\u94f6","merger_name":"\u7518\u8083,\u767d\u94f6","pinyin":"BaiYin","lng":"104.138559","lat":"36.544756"},{"id":678295,"parent_id":678293,"level":2,"area_code":"620402000000","zip_code":"730900","city_code":"0943","name":"\u767d\u94f6\u533a","short_name":"\u767d\u94f6","merger_name":"\u7518\u8083,\u767d\u94f6,\u767d\u94f6","pinyin":"BaiYin","lng":"104.148556","lat":"36.535398"},{"id":678296,"parent_id":678295,"level":3,"area_code":"620402001000","zip_code":"730999","city_code":"0943","name":"\u4eba\u6c11\u8def\u8857\u9053","short_name":"\u4eba\u6c11\u8def","merger_name":"\u7518\u8083,\u767d\u94f6,\u767d\u94f6,\u4eba\u6c11\u8def","pinyin":"RenMinLu","lng":"104.172810","lat":"36.546670"},{"id":678297,"parent_id":678296,"level":4,"area_code":"620402001001","zip_code":"730999","city_code":"0943","name":"\u4e2d\u5fc3\u8857\u793e\u533a\u5c45\u59d4\u4f1a","short_name":"\u4e2d\u5fc3\u8857","merger_name":"\u7518\u8083,\u767d\u94f6,\u767d\u94f6,\u4eba\u6c11\u8def,\u4e2d\u5fc3\u8857","pinyin":"ZhongXinJie","lng":"104.177281","lat":"36.539236"},{"id":678298,"parent_id":678296,"level":4,"area_code":"620402001002","zip_code":"730999","city_code":"0943","name":"\u4e94\u661f\u8857\u793e\u533a\u5c45\u59d4\u4f1a","short_name":"\u4e94\u661f\u8857","merger_name":"\u7518\u8083,\u767d\u94f6,\u767d\u94f6,\u4eba\u6c11\u8def,\u4e94\u661f\u8857","pinyin":"WuXingJie","lng":"104.177281","lat":"36.539236"},{"id":678299,"parent_id":678296,"level":4,"area_code":"620402001003","zip_code":"730999","city_code":"0943","name":"\u4e94\u4e00\u8857\u793e\u533a\u5c45\u59d4\u4f1a","short_name":"\u4e94\u4e00\u8857","merger_name":"\u7518\u8083,\u767d\u94f6,\u767d\u94f6,\u4eba\u6c11\u8def,\u4e94\u4e00\u8857","pinyin":"WuYiJie","lng":"104.177281","lat":"36.539236"},{"id":678300,"parent_id":678296,"level":4,"area_code":"620402001004","zip_code":"730499","city_code":"0943","name":"\u897f\u6751\u793e\u533a\u5c45\u59d4\u4f1a","short_name":"\u897f\u6751","merger_name":"\u7518\u8083,\u767d\u94f6,\u767d\u94f6,\u4eba\u6c11\u8def,\u897f\u6751","pinyin":"XiCun","lng":"104.168730","lat":"36.541020"},{"id":678301,"parent_id":678296,"level":4,"area_code":"620402001005","zip_code":"730999","city_code":"0943","name":"\u4eba\u6c11\u8def\u793e\u533a\u5c45\u59d4\u4f1a","short_name":"\u4eba\u6c11\u8def","merger_name":"\u7518\u8083,\u767d\u94f6,\u767d\u94f6,\u4eba\u6c11\u8def,\u4eba\u6c11\u8def","pinyin":"RenMinLu","lng":"104.169070","lat":"36.542980"},{"id":678302,"parent_id":678296,"level":4,"area_code":"620402001006","zip_code":"730999","city_code":"0943","name":"\u6c34\u5ddd\u8def\u793e\u533a\u5c45\u59d4\u4f1a","short_name":"\u6c34\u5ddd\u8def","merger_name":"\u7518\u8083,\u767d\u94f6,\u767d\u94f6,\u4eba\u6c11\u8def,\u6c34\u5ddd\u8def","pinyin":"ShuiChuanLu","lng":"104.177281","lat":"36.539236"},{"id":678303,"parent_id":678295,"level":3,"area_code":"620402002000","zip_code":"730999","city_code":"0943","name":"\u516c\u56ed\u8def\u8857\u9053","short_name":"\u516c\u56ed\u8def","merger_name":"\u7518\u8083,\u767d\u94f6,\u767d\u94f6,\u516c\u56ed\u8def","pinyin":"GongYuanLu","lng":"104.183120","lat":"36.536680"},{"id":678304,"parent_id":678303,"level":4,"area_code":"620402002001","zip_code":"730999","city_code":"0943","name":"\u4e1c\u661f\u56ed\u793e\u533a\u5c45\u59d4\u4f1a","short_name":"\u4e1c\u661f\u56ed","merger_name":"\u7518\u8083,\u767d\u94f6,\u767d\u94f6,\u516c\u56ed\u8def,\u4e1c\u661f\u56ed","pinyin":"DongXingYuan","lng":"104.177600","lat":"36.544310"},{"id":678305,"parent_id":678303,"level":4,"area_code":"620402002002","zip_code":"730999","city_code":"0943","name":"\u94f6\u6c34\u5df7\u793e\u533a\u5bfc\u5c45\u59d4\u4f1a","short_name":"\u94f6\u6c34\u5df7\u793e\u533a\u5bfc","merger_name":"\u7518\u8083,\u767d\u94f6,\u767d\u94f6,\u516c\u56ed\u8def,\u94f6\u6c34\u5df7\u793e\u533a\u5bfc","pinyin":"YinShuiXiangSheQuDao","lng":"104.574920","lat":"36.702750"},{"id":678306,"parent_id":678303,"level":4,"area_code":"620402002003","zip_code":"730999","city_code":"0943","name":"\u80dc\u5229\u8def\u793e\u533a\u5c45\u59d4\u4f1a","short_name":"\u80dc\u5229\u8def","merger_name":"\u7518\u8083,\u767d\u94f6,\u767d\u94f6,\u516c\u56ed\u8def,\u80dc\u5229\u8def","pinyin":"ShengLiLu","lng":"104.177281","lat":"36.539236"},{"id":678307,"parent_id":678303,"level":4,"area_code":"620402002004","zip_code":"730999","city_code":"0943","name":"\u5efa\u94f6\u8def\u793e\u533a\u5c45\u59d4\u4f1a","short_name":"\u5efa\u94f6\u8def","merger_name":"\u7518\u8083,\u767d\u94f6,\u767d\u94f6,\u516c\u56ed\u8def,\u5efa\u94f6\u8def","pinyin":"JianYinLu","lng":"104.177281","lat":"36.539236"},{"id":678308,"parent_id":678303,"level":4,"area_code":"620402002005","zip_code":"730999","city_code":"0943","name":"\u5170\u5305\u8def\u793e\u533a\u5c45\u59d4\u4f1a","short_name":"\u5170\u5305\u8def","merger_name":"\u7518\u8083,\u767d\u94f6,\u767d\u94f6,\u516c\u56ed\u8def,\u5170\u5305\u8def","pinyin":"LanBaoLu","lng":"104.172450","lat":"36.534850"},{"id":678309,"parent_id":678303,"level":4,"area_code":"620402002006","zip_code":"730999","city_code":"0943","name":"\u94f6\u5149\u8def\u793e\u533a\u5c45\u59d4\u4f1a","short_name":"\u94f6\u5149\u8def","merger_name":"\u7518\u8083,\u767d\u94f6,\u767d\u94f6,\u516c\u56ed\u8def,\u94f6\u5149\u8def","pinyin":"YinGuangLu","lng":"104.177281","lat":"36.539236"},